id,name,latitude,longitude,Property Type
857105898,Auto Stand,13.0037348,77.6228739,transportation
857105905,Food Magic,13.003599,77.6225091,food service
859809191,Naasih Montessori Public School,13.0016772,77.6138117,education
1442053943,Delicacy Chinese Restaurant,12.9999497,77.6229731,food service
1469190367,Fathima's Girls High School,12.9968818,77.6109656,education
1469190371,Third Wave Coffee Roasters,12.9961239,77.6132737,cafe
1469190372,Nandini Restaurant,12.9959044,77.6130336,food service
1469190376,Udupi Shanthi Sagar,12.9958364,77.6131543,food service
1469190377,Domino's,12.9973354,77.6106956,food service
1469190378,Ponnuswamy Restaurant,12.9961448,77.6112526,food service
1469266907,St. Francis Xavier's High School,12.9933042,77.6131994,education
1469266908,St. Joseph's Convent Girls High School,12.992426,77.6135802,education
1469267174,Holy Angel's High School,12.9938162,77.6144766,education
1469267177,RTC Girls High School,12.9926871,77.6141548,education
1469274353,ICICI Bank,12.9947968,77.6152664,financial
1469274356,Sherlock's Pub,12.9946747,77.6150372,bar/club
1469282330,Komala Refreshment,12.9960742,77.6170891,food service
1469314069,Vijaya Bank,12.9963828,77.6202753,financial
1469320276,Mouna Guru Swamy Mutt and Temple,12.9950065,77.6202748,place of worship
1469320280,Axis Bank,12.9969092,77.6198773,financial
1469320296,Sri Varasiddhi Vinayaka Temple,12.9975424,77.6225532,place of worship
1474170030,Pizza Hut,12.9954523,77.6138486,food service
1474195314,KFC,12.9978917,77.6147471,food service
1474195320,Beijing Bites,12.9973063,77.6138674,food service
1474195340,McDonald's,12.9963445,77.6157181,food service
1474195346,Ganesha Fruit Juice Center,12.9954036,77.6139103,food service
1474200449,Empire Restaurant,12.9999459,77.6158737,food service
1474297275,Union Bank of India,12.9918131,77.6116694,financial
1474853179,St. Thomas Orthodox Church,13.0004998,77.6267596,place of worship
1474864016,Bangalore East Marthoma Church,13.0009572,77.6279102,place of worship
1852659127,Indian Oil,12.9966824,77.6193965,fuel
1852663951,Raghavendra Swami Mutt,12.9875167,77.6203112,place of worship
2003935536,St Aloysius Pre Unniversity College,12.994291,77.6196026,education
2013821580,Alibaba Cafe & Restaurant,13.0005858,77.6148025,food service
2533910830,State Bank of India,13.0022734,77.6177342,financial
2533936671,Corner House,13.0049443,77.6171173,food service
3193521628,Sri Devi Café,12.9977551,77.6205782,food service
3342048735,Axis Bank,12.9978263,77.6097252,financial
3342051067,Bank of Baroda,12.997797,77.6096526,financial
3342080436,IndusInd Bank,12.9947176,77.6153985,financial
3342184333,Axis Bank,12.9974931,77.6103558,financial
3342186004,Kotak Bank ATM,12.9974461,77.6100447,financial
3342219225,Bank of Baroda,12.999644,77.611418,financial
3342219791,State Bank of India,13.0002582,77.6112114,financial
3342219979,Richies Rahhams Families International,13.000752,77.6131248,food service
3342223440,Axis Bank,13.0007619,77.6131533,financial
3344232700,HDFC Bank,12.9952969,77.6144743,financial
3344233314,Citibank,12.9939906,77.6154041,financial
3344233626,Kotak Mahindra Bank,12.9940387,77.6156783,financial
3526180139,ICICI Bank,13.0035234,77.6166155,financial
3526180140,Indiradarshini,13.0036378,77.6166655,cafe
4036140739,Canara Bank,13.0005533,77.6233992,financial
4117249122,Shanti Sagar,12.987086,77.6189974,food service
4227854812,Moritz Nano Restaurant,12.9875826,77.6188927,food service
4252085630,Watson's Ulsoor,12.9908548,77.6192753,bar/club
4252092996,Cafe Thulp,12.9908261,77.6193188,cafe
4349394389,South Inn,12.9944952,77.6159529,food service
4385108289,ಕೋಮಲ ರಿಫ್ರೆಷ್‌ಮೆಂಟ್ಸ್,12.996332,77.6170443,food service
4391177991,ಮ್ಯಾಂಗಲೋರ್ ಪರ್ಲ್,12.9944824,77.6153605,food service
4447249418,Shawarma king,12.9997652,77.6173181,food service
4449313889,HDFC Bank,13.0050034,77.6233355,financial
4570423792,Lemon Rice,12.9983463,77.6206293,food service
4586355540,Ibaco,12.9964446,77.6125758,food service
4844863349,Dolphins,12.9968223,77.6195998,food service
4844863351,Perfect corner,12.9948513,77.6160845,food service
4844863371,Udapas Veg Restaurant,12.9998566,77.6251653,food service
4844865048,HDFC Bank,12.9974737,77.6202808,financial
4845223689,Adyar Anand Bhawan,12.9877987,77.618514,food service
4851692302,New Taj Biryani Center,13.0007498,77.6134894,food service
4851692304,Pista House,13.000759,77.6134424,food service
6499750801,Kerala Kitchen,13.0037091,77.6226122,food service
7087593367,Raidan Restaurant,12.9941666,77.6103415,food service
7255929444,Bethesda Academy,12.998522,77.6157112,education
7255929445,Cafe Arabica,12.9995034,77.6161296,cafe
7255929449,Royal Pavilion,13.000456,77.6153719,food service
7255929462,King Kong,13.0009355,77.6142669,food service
7255929463,State Bank of India,13.0011143,77.6123797,financial
7255929466,St Anthony's Church,13.001321,77.6118569,place of worship
7817577921,Axis Bank,13.0040149,77.6176333,financial
7881321471,International Montessori House of Children,13.0056111,77.6161889,education
7941607044,State Bank of India,13.003937,77.6155107,financial
7944450116,Sunny Side Up,13.0018413,77.6235055,cafe
7954170225,Little Springs,13.0029444,77.6171411,education
8047420106,Santorini Montessori,13.0015667,77.6225943,education
8186304651,Bank of Baroda,13.0008456,77.6219257,financial
8187962393,Union Bank of India,13.0015255,77.6254644,financial
8240810708,Bank of Baroda,12.9966808,77.6114532,financial
8240858025,Syndicate Bank,12.9957125,77.6109356,financial
8916964740,ICICI Bank,13.0042947,77.6229746,financial
9230690428,Taj Tea House,12.9992268,77.6160355,cafe
9230690429,Savoury,12.9994524,77.6157635,food service
9230690434,Kunafa World,12.9954616,77.614226,food service
9786123495,Karama,12.9997243,77.6161519,food service
9786123496,CSB Bank,13.003654,77.6166234,financial
10979409744,Indira Canteen,12.9958745,77.6213506,food service
10980098247,Koriken,13.00174,77.6236628,cafe
11005461570,Cafe Hug,13.0050579,77.623362,cafe
11005461585,Video Dash,13.0047974,77.6232354,food service
11005547711,Five Star Chicken,13.0039947,77.6229271,food service
11005547716,Olive Cafe,13.0036865,77.6225968,cafe
11046880966,Chez Kina,13.0048779,77.6171409,cafe
11096903665,Narcos Cafe,13.0002181,77.6257065,cafe
11096914871,Cream Chemistry,12.9967853,77.6113339,food service
11096914873,Canara Bank,12.9963894,77.612109,financial
11096914877,Bigguy's Wingery,12.995212,77.6141958,food service
11096914883,Polar Bear,12.9943848,77.6154779,food service
11096914885,Green Onion,12.994573,77.6156616,food service
11096914886,Yes Bank,12.9945782,77.6157166,financial
11096914887,Shankar Bhel House,12.9949755,77.6162276,food service
11148355822,Sri Manjunatha Tiffin Centre,13.0056129,77.6236747,food service
11148749779,Indira Canteen,13.0110602,77.6133335,food service
11165366175,Axis Bank,13.0010897,77.6270489,financial
11173721923,Chrysalis Hub,13.0052614,77.626996,education
11212337062,Peniel Community College for Women,13.0058168,77.6267398,education
11282630635,Big Bang Pizza,12.9946253,77.6150139,food service
11282630636,The Real Grill,12.9953603,77.6143876,food service
11282630637,Pooja Veg,12.9955145,77.614165,food service
11282630667,La Pino'z Pizza,12.997668,77.6100726,food service
11282630668,HDFC Bank,12.9880012,77.6175244,financial
11472852217,Taj Hotel,13.0003295,77.6173282,food service
11472852222,UCO Bank,13.000276,77.6176255,financial
11472852226,Bucket Biryani,13.0002715,77.6177205,food service
11472852235,Shiva Shakti Bar and Restaurant,13.0001684,77.6187683,bar/club
11472852238,Sheesh Kebab,13.0003724,77.6167827,food service
11472852242,Chichabas Dawat,13.0002804,77.6174439,food service
11557043272,Bäcker & Charlie,12.9948602,77.6175033,cafe
11584464960,The Milton St. Cafe,13.0016951,77.6236518,cafe
11822465878,Chota Swaad,13.0013403,77.6235811,food service
11853263740,Om Ganesh Fruit Juice Centre,12.9996997,77.6158458,food service
11853276286,Dharmik Veg,12.9993695,77.6160179,food service
11853276288,Punjab National Bank,12.9961374,77.6138297,financial
11853284861,Dow Tow,12.9999237,77.6160969,food service
11853327828,Raidan Restuarant,12.9974892,77.6143806,food service
11853327835,Sharief Bhai,12.9969083,77.6139947,food service
11853327840,Axis Bank,12.9965326,77.6136496,financial
11853328089,Subway,12.9971938,77.6146067,food service
11853329076,Om Ganesh Fruit Juice Centre,12.9993193,77.6157833,food service
11853329077,Iftar Restaurant,12.9992932,77.6157895,food service
11853338971,Oh! Perch,12.9976512,77.6148873,food service
11853467359,Aroma Of Asia,12.9961086,77.6133755,food service
11853467361,Pizza Hut,12.9956177,77.6136674,food service
11853518234,Cafe Idly,12.9985144,77.6177881,food service
11853525651,Baskin-Robbins,12.9969265,77.6144435,food service
11853576126,HDFC Bank,12.9959985,77.6136694,financial
11853708683,Cane Town,13.0006032,77.6173736,food service
11853708686,Arabian Mataan,13.0005676,77.6177086,food service
11853708687,Indian Overseas Bank,13.0005983,77.6178333,financial
11853708691,Bismillah Biryani Point,12.9998214,77.6183263,food service
11853708699,Thakur Food Point,12.9992128,77.6180914,food service
11853708700,Vishnu's,12.9991979,77.6181065,food service
11853708706,Namma Dosa,12.9986449,77.6179603,food service
11853708707,New Delicacy,12.9985669,77.6179429,food service
11917162002,Canara Bank,12.9962008,77.6173604,financial
11917162003,HDFC Bank,13.0012362,77.6271051,financial
11917222397,Little Ville,13.0082013,77.625755,education
