Landmark Latitude,Landmark Longitude,Distance,Landmark Name,Property Type
12.9563674,77.6046266,2.9461815574158394,Haydon Manor,residential
12.9604812,77.6385098,4.228639767014661,IDBI Bank,financial
12.9606568,77.6385011,4.216458042833594,Shanti Sagar,food service
12.9588137,77.6382484,4.317601807371721,Family Mall,grocery
12.9591813,77.6382984,4.296790514215281,Spencers Express,grocery
12.9595527,77.638381,4.2788368024541255,More,grocery
12.9593353,77.6385869,4.311219734594153,Srinidhi Sagar,food service
12.9621752,77.6373877,4.020535665656981,,grocery
12.9619513,77.6419064,4.444674083653903,Nandhini,food service
12.9601353,77.6431187,4.663157572036453,Axis Bank,financial
12.9559416,77.6412371,4.769800319282032,Pizza Hut,food service
12.9558995,77.6411692,4.766994861435626,Nandhana,food service
12.9782444,77.6407376,3.7017771153538552,KFC,food service
12.9741824,77.5753745,3.54597438244679,Sukh Sagar,food service
12.9602773,77.6373781,4.143556978608714,Vijaya Bank,financial
12.9606833,77.6381838,4.186847062308138,Union Bank of India,financial
12.9613667,77.6346913,3.8391356814396955,Indian Oil,fuel
12.9600367,77.6452495,4.864811152662931,Kotak Mahindra Bank,financial
12.9600398,77.6452145,4.861392026403834,Citibank,financial
12.9651393,77.6383211,3.929661549502735,Bhagini,food service
12.9637134,77.6403936,4.203473962493032,Subway,food service
12.956044,77.6119244,3.021539857080559,,place of worship
12.9543746,77.5930172,3.4971536410845605,Adyar Ananda Bhavan,food service
12.9680027,77.578642,3.473622272912829,Chickpet Cross,attraction
12.9498004,77.5865608,4.2771311700929555,Lalbagh Glasshouse,attraction
12.9756318,77.6014761,0.9871344499501393,Koshy's,food service
12.9782249,77.640632,3.6907380770997733,Pizza Hut,food service
12.9754961,77.6412437,3.809141956080766,Cafe Coffee Day,cafe
12.9688559,77.6020522,1.6337085612370585,Konārk,food service
12.9697383,77.6003775,1.611896118603339,Old Madras Baking Company,cafe
12.9762256,77.6014809,0.9345331495666523,Hard Rock Cafe,bar/club
12.9778503,77.5722059,3.7978762381023694,Sri Raghavendra,food service
12.977709,77.5722837,3.7918359690923973,Canara Bank,financial
12.9985927,77.5687751,4.488935805400723,The Malleshwaram association,bar/club
12.9762752,77.5767096,3.349090446158295,Hotel Hindustan,lodging
12.9760075,77.5763577,3.3928084571320603,Anand Sagar Punjabi Dhaba,food service
12.9769025,77.5763491,3.3730535198886114,Hotel Anand Regency,lodging
12.9550389,77.5854279,3.8623754131404966,Mavalli Tiffin Rooms,food service
12.9665538,77.6141032,1.9653253406219315,Hyderbad Biryani House,food service
12.9700819,77.5890809,2.390610329793934,Temple Ruins,place of worship
13.0194729,77.6312833,4.862029994677221,Sri Durgadevi Temple,place of worship
13.0194682,77.6332105,4.9781822264159095,Thambis's Inetcafé,cafe
13.0201083,77.6304232,4.872076683667324,,place of worship
13.017623,77.6341168,4.87028166143217,Orchid Academy,education
12.9955258,77.5717703,4.061026769499644,Hallimane,food service
12.9931291,77.5715961,3.9938910586120953,New Krishna Bhavan,food service
12.9932258,77.5717309,3.9830325169035494,Sri Krishna Lodge,lodging
12.9931208,77.5710734,4.047890155121198,Sampige Theatre,cinema
12.9727199,77.5805523,3.0649588045280285,State Bank of India,financial
12.9738444,77.578582,3.2240074369509526,Bank of India,financial
12.973729,77.578957,3.1893952664979244,Indian Bank,financial
12.9736365,77.5791669,3.1710994449157175,Adigas,food service
12.9735992,77.5803131,3.05508808110473,Kids Kemp,clothes
12.9694218,77.6033897,1.53207941613093,Sacred Hearts Girls School,education
13.0055704,77.5713507,4.610319997969687,Adiga's,food service
12.9869354,77.5948134,1.3881392580272254,Infinitea,cafe
13.0024438,77.5838636,3.318153115079648,Pav Bhaji,food service
12.9514719,77.5774905,4.71825578029215,Rajasthani Parotha Point,food service
12.9510029,77.5776381,4.746158804351436,Arya Vysya Refreshments,food service
12.9506894,77.5786753,4.698259801389772,,food service
12.9505258,77.5785913,4.717998874256896,,food service
12.9507057,77.5784906,4.709936331351881,,food service
12.9512912,77.5774906,4.733089741947189,,food service
12.9522306,77.5897955,3.8683302253302596,,food service
12.9532525,77.57754,4.570422749915573,Canara Bank,financial
12.9990578,77.5695202,4.435636073205315,State Bank of India,financial
12.9971601,77.5974721,1.8977537722077458,Formula III Bar,bar/club
12.9932643,77.5957899,1.67575967355847,Nandhini Andhra Hotel,food service
13.0045673,77.5710992,4.573030523758372,Cafe Coffee Day,cafe
13.0042882,77.5710889,4.5576103543425495,Reliance Fresh,grocery
13.0064539,77.5780313,4.088058491469325,Stella Maris School,education
12.9930635,77.5959522,1.6475956831951206,Pai Vihar,food service
13.00559,77.570496,4.689122130960216,HOPCOMS,grocery
13.0061977,77.5693737,4.827949171208328,Reliance smart@Malleswaram,grocery
12.99695,77.5679373,4.5054778639906905,ICICI Bank,financial
13.0045524,77.5711963,4.563232931225919,Papa John's,food service
12.9901236,77.5722985,3.836260747547373,Vishnu Sagar,food service
12.9898878,77.5726957,3.78866200142865,Sangeeth Bar and Restaurant,bar/club
12.9940976,77.571267,4.0601450659541936,ICICI Bank,financial
12.9933312,77.57187,3.9720678122464506,Corporation Bank,financial
12.9953279,77.5712934,4.101943679772722,Kolkata Chaat,food service
12.9603346,77.6382904,4.2190205483442265,MintLeaf,food service
12.9547341,77.593073,3.4584812935363707,,transportation
12.9430867,77.5994637,4.485488909409901,Madrasa-e Arabiya,education
13.0081521,77.5716854,4.744986607754424,Sri Ayyappa,place of worship
13.0034478,77.5673384,4.8632457855850975,Jayanti Apartments,residential
13.0045938,77.5669909,4.957558984910173,Maithree Apartments,residential
12.9571863,77.5862334,3.619932150445801,Indian Oil,fuel
12.9732771,77.6034167,1.120788099084319,The Only Place,food service
12.9751034,77.6028435,0.9587813941123582,Temple of The Senses,cafe
12.9753789,77.6027175,0.9381493181804978,Empire,lodging
12.9858036,77.6055705,0.36630847799557725,,place of worship
12.9745397,77.6052505,0.9323798654546488,Indian Coffee House,food service
12.9678501,77.5927753,2.2565750947577614,Mishra Pedha,food service
13.0016893,77.5694475,4.569901678907631,Bank of India,financial
13.0016506,77.5694522,4.567470419390648,Bank of India,financial
13.0011737,77.5683395,4.651300790230565,B. P. Indian,education
13.0041002,77.5713906,4.518815432517421,Udupi Sri Krishnarajathadri,food service
13.00654,77.5692833,4.85680358042259,Chung's,food service
13.0055316,77.56985,4.744666626998077,UCO Bank,financial
13.0055316,77.569732,4.7554857885956086,,financial
13.0029248,77.5663029,4.935722959484173,Ganesha,place of worship
13.0018944,77.5665182,4.863786081204258,Shamrao Vittal Cooperative,financial
13.0011328,77.5691982,4.565897497350592,Kotak Mahindra Bank,financial
13.0010742,77.569202,4.562619374213512,,financial
13.0084832,77.5692697,4.978882714201094,Syndicate Bank,financial
13.0085354,77.5694521,4.966062256660454,Syndicate Bank,financial
12.9998952,77.5648773,4.934329605591874,Grace Church,place of worship
12.9752596,77.6048953,0.8627683430382928,Thirteenth Floor,bar/club
12.971852,77.5964092,1.662548577548984,Shiro,food service
12.9600242,77.6015444,2.594830159116286,Sandhya Sagar,food service
12.9601639,77.5945806,2.8457892527259046,Utsav,food service
13.014482,77.5761323,4.85174404404096,International Buddhist Seminary,place of worship
12.994359,77.5711764,4.078565930823503,Rasa,food service
13.0046678,77.5714458,4.5472019169691045,Sai Baba Temple,place of worship
13.0068412,77.5789439,4.041324463189306,,food service
12.9836146,77.5948986,1.302786067990211,Syndicate Bank,financial
12.991491,77.5941489,1.6870858929477683,Miller's 46,food service
13.0076434,77.5779662,4.17976732413555,,financial
13.0070953,77.5787894,4.072590537547718,Mint Masala,food service
13.0067463,77.5788817,4.039404602806729,,financial
13.0060748,77.5788458,3.9934817801378037,Bharath Petroleum,fuel
12.9720317,77.6009309,1.3575982283579628,Juice Junction,cafe
12.985511,77.5889985,1.9624813471362523,Canara Bank,financial
12.9819402,77.5955017,1.2375144103766207,State Bank of India,financial
12.9751155,77.6014152,1.037625595123802,Bowring Stall,cafe
12.9762175,77.5993135,1.0977948143566836,Kotak Mahindra Bank,financial
12.9885568,77.5923112,1.7057194825125932,Canara Bank,financial
12.9870714,77.5946647,1.408400545991947,Shezan Restaurant,food service
12.9875155,77.5944946,1.4430611580917547,Sit Well Furnitures,home furnishing
12.9883962,77.593819,1.548334963775688,Domino's,food service
12.9888226,77.592415,1.706742927405669,HDFC Bank,financial
12.9887157,77.5939709,1.5481254671262823,Ramana's,food service
12.946945,77.6175314,4.147170701396704,St. Sara's School,education
12.9451797,77.6213677,4.464629661107511,Annamma Temple,place of worship
12.9479784,77.6189413,4.083178719952272,,place of worship
12.9767317,77.5891659,2.034601460463329,,food service
12.9758245,77.5975433,1.2737791388199775,Subway,food service
12.9757683,77.5984496,1.2012166500585972,McDonald's,food service
12.9758396,77.5985677,1.1863354931879304,Bharat Petroleum,fuel
12.9681567,77.5876645,2.6421365016418616,Canara Bank,financial
12.9681499,77.5880527,2.609568959011382,State Bank of India,financial
12.9704007,77.5874248,2.5181415150629225,Nisarga,food service
13.0074751,77.5793045,4.0594925477805575,State Bank of India,financial
12.9711546,77.5869902,2.5136238243486844,Auto Stand,transportation
12.9752515,77.5886667,2.144404366393588,Mathsyadarshini (Fish Canteen),food service
12.9717817,77.5942306,1.8371318465714204,Cafe Coffee Day,cafe
12.9732457,77.5952706,1.64536418931556,Ganapathi & Gayatri Temple,place of worship
12.9733673,77.5954916,1.6183427819963028,HDFC Bank,financial
12.9751175,77.5976204,1.316544634871252,Dhanlaxmi Bank,financial
12.9756522,77.597345,1.3024845136647119,Yes Bank,financial
12.9686616,77.5875127,2.621138339970618,Karnataka Bank,financial
12.9723026,77.5863596,2.510807730073921,Corporation Bank,financial
12.9848514,77.570647,3.9339199028399463,,place of worship
12.9848155,77.5707656,3.9208584573668377,Chamundeshwari Temple,place of worship
12.9857544,77.570503,3.956639615666787,,place of worship
12.9863991,77.5707542,3.936213278326972,,place of worship
12.9884301,77.5713911,3.897592408532185,Mariyamma temple,place of worship
12.9887069,77.5708345,3.962130364310166,Temple,place of worship
12.9895905,77.5708543,3.977564418029162,Sri Jada Muneshwara Swamy Temple,place of worship
12.9908918,77.5696342,4.136564690885652,Muttumariyamma temple,place of worship
12.9922759,77.568733,4.267387500774573,Anjaneya temple,place of worship
12.9921674,77.5683888,4.300583581406102,Deccan school,education
12.9917534,77.5680966,4.3204313682533195,Rama Temple,place of worship
12.991587,77.5684205,4.282022592925472,Anganavadi,education
12.9921317,77.569768,4.154786570874031,Om Sakthi Temple,place of worship
12.9495122,77.6128103,3.753420814542442,Kalikamba Temple,place of worship
12.9497089,77.6128657,3.732908796955292,,place of worship
12.9500299,77.6132833,3.7059517604721695,Shiva Temple,place of worship
12.9496275,77.6139658,3.764280020225527,Government School,education
12.9497624,77.6143357,3.7579952393423093,Methodist church school,education
12.9500555,77.6148988,3.7398547727766074,,place of worship
12.9499206,77.6151518,3.760877995903142,Adithya public school,education
12.9494647,77.6154126,3.8168724196209896,Church statue,place of worship
12.9499142,77.616417,3.7965298778371133,Jewellery shops,jewellery
12.9503648,77.6156719,3.726911578959555,,place of worship
12.9503747,77.6159015,3.732278360442144,temple,place of worship
12.9505235,77.6162762,3.7271843980807486,St merry statue,place of worship
12.9502096,77.6166557,3.772104272038104,Church statue,place of worship
12.9822391,77.594459,1.3483378344731718,The Capitol,lodging
13.0140892,77.5760778,4.824180274266795,Nagasena Vidyalaya,education
13.0139649,77.57891,4.6067275758142525,State Bank of India,financial
12.9733828,77.5872809,2.3674313689400384,YMCA Hostel,lodging
12.9748503,77.5956392,1.504030124405125,Museum Canteen,food service
12.9803653,77.5950694,1.3085405382019752,Canteen,food service
13.0077699,77.5794951,4.066646658530524,Punjab National Bank,financial
13.0076197,77.5793977,4.062980072048633,Cafe Coffee Day,cafe
13.0071676,77.5790958,4.053207529537939,Bank of Baroda,financial
13.0080052,77.5796762,4.070338012972965,Karnataka Bank,financial
13.0080972,77.5797261,4.073488319615603,Syndicate Bank,financial
13.0089647,77.580665,4.069080826316289,Advanced Animation Academy,education
12.9758502,77.5891031,2.0753443587109373,Parkview Hotel,food service
12.983448,77.5899594,1.8361229312894976,Legislatures' Home,lodging
12.9677758,77.5889307,2.5627143881632066,Kempe Gowda Tower,attraction
12.9782425,77.5825221,2.6880413140690154,Freedom Park,attraction
12.9671651,77.580199,3.3728751071343064,Chatpat,food service
12.9697027,77.5796625,3.288795091086023,Cane Crush,cafe
12.9742892,77.5778952,3.2803267974589225,Sri Vinayaka Juice & Chats Center,cafe
12.9703805,77.5800395,3.2192261108646796,Hotel Madhuvan,food service
12.9733292,77.5824593,2.847872040682256,State Bank of India,financial
12.9798386,77.6027906,0.5511035412289744,Hotel Empire,food service
12.9847344,77.5971261,1.0803369606128301,Sanman Veg,food service
12.9857313,77.595832,1.242653759423205,Sweet Chariot,cafe
12.98693,77.5951971,1.3488114165041611,Canara Bank,financial
12.9967968,77.6045046,1.5808862226991773,Family Super Market,grocery
12.9956884,77.6060968,1.4389246939578046,Variety Departmental Store,grocery
12.9993627,77.6008367,1.9580625668045633,Indian Bank,financial
13.0016562,77.596687,2.3731970646108147,Kara4Kids,education
13.0014631,77.5983593,2.2747598936879716,Syndicate Bank,financial
12.9998077,77.5996733,2.0494634890833465,More,grocery
12.9969644,77.6041292,1.6063520897413104,Arafa Stores,grocery
13.0143993,77.5835124,4.334116205951533,Standard Chartered,financial
13.0009809,77.6138953,2.1623943658182636,"Namdhari Fresh, Frazer Town",grocery
12.9851989,77.5794229,2.988442713601629,Sana Di Ge,food service
13.0075715,77.5793658,4.061874325303542,Pure & Natural,cafe
13.0068783,77.5790907,4.032162211682778,New Shanthi Sagar,food service
13.0137034,77.5816225,4.3960815483531155,Light and Matter Physics,education
13.0133937,77.58161,4.370040189622999,RRI Library,education
12.9554112,77.5918509,3.451290745126571,Mysore Resham Emporium,clothes
12.9736525,77.5801953,3.0651571025802076,Coffee Day,cafe
12.9756686,77.5749645,3.5483688614291,Chicken County,food service
12.9710106,77.598276,1.6066904344105744,Levi's,clothes
12.9708747,77.5990041,1.574845622740088,Espirit,clothes
12.9706824,77.599609,1.55866517225156,ICICI Bank,financial
12.9707183,77.6005293,1.5070831954543036,Giovani,clothes
12.9708631,77.6010396,1.4680697022365707,Bank of India,financial
12.9711937,77.6007788,1.447709100975731,Amruth Vegetarian Restaurant,food service
12.982738,77.6030551,0.41564567432860244,Hotel Vinitha,food service
12.9772698,77.570304,4.0112537855069546,Hare Krishna Pure Veg Restaurant,food service
12.9772479,77.5704213,3.999066439264769,Balaji Restaurant,food service
12.9784725,77.5696765,4.06054926779507,Canara Bank,financial
12.9484631,77.5798653,4.809296284008456,Citibank,financial
12.9709419,77.5735425,3.8454319944189335,Sri Kailaseshwara Temple,place of worship
12.9734503,77.5751186,3.5953066994244236,Fresh Cane,cafe
12.9643756,77.6371873,3.867913873070611,Domlur Club,bar/club
12.9716496,77.6068577,1.2366485211210074,World War I Memorial,attraction
12.9622135,77.6414116,4.383719528470627,Barbeque Nation,food service
12.9893411,77.5929583,1.6771055163924458,A Masala House,food service
12.9431459,77.5893564,4.7983403550982375,Ganesha Statue,place of worship
12.9429538,77.5927317,4.685790222605725,Masjid Abu Bakr (RAA),place of worship
13.0032767,77.6229524,2.868337927111575,,place of worship
13.0249229,77.5928698,4.927105647425469,UCO Bank,financial
13.0256109,77.5931302,4.991436598570476,Levi's,clothes
13.0248113,77.5934442,4.896426835245267,Vijaya Bank,financial
13.0254978,77.5931058,4.980228216209901,Andhra Bank,financial
13.0249491,77.5926439,4.937473693829579,Citibank,financial
13.0068553,77.6241647,3.267214816754213,Mini Bazaar,grocery
13.0037348,77.6228739,2.903913568495832,Auto Stand,transportation
13.003599,77.6225091,2.8683118979593782,Food Magic,food service
13.0016772,77.6138117,2.2320000343997166,Naasih Montessori Public School,education
12.9753625,77.6051643,0.8447665989130563,Ebony,food service
13.004966,77.5714462,4.565004141175945,Kadu Malleshwara Temple,place of worship
12.9699613,77.6473796,4.612588180328469,Empire,food service
12.980445,77.604525,0.3641654384397789,The Infantry Hotel,lodging
12.980921,77.576491,3.300346216259101,Hotel Maurya,lodging
12.984036,77.577955,3.13843441207548,Hotel Raceview,lodging
12.989096,77.572253,3.81839674983431,Hotel Swathi,lodging
12.9850452,77.579248,3.005831349680754,Nalapad's Hotel Bangalore International,lodging
12.9848493,77.580868,2.82910036340629,37th Crescent Hotel,lodging
12.9727609,77.5701982,4.128706132569052,Sudha Lodge,lodging
12.9717886,77.5705791,4.119728431211398,Radha Krishna Delux Lodge,lodging
12.9753224,77.5758147,3.467612723612803,Ganesha Temple,place of worship
12.9677686,77.569887,4.342779625691965,Super talkies,cinema
12.9657768,77.6054478,1.8961283899778445,Richmond Town Mosque,place of worship
12.9698334,77.6098091,1.4729338658926774,INOX Garuda Mall,cinema
12.9745381,77.6096029,0.9614606118159448,Ullas Refreshment,food service
12.9994929,77.5989568,2.048499695071571,ICICI Bank,financial
13.0015628,77.5993592,2.243252718410552,Elements,food service
12.9996131,77.597031,2.1560431907356783,Jayamahal Shani Mandir,place of worship
12.9729051,77.6074026,1.0984377034949946,Subway,food service
12.980808,77.6406008,3.6590725852499673,Domino's,food service
12.980115,77.6405511,3.659114231428563,Kund,food service
12.974344,77.5712299,3.9760300879122012,Hotel Mahaveer,lodging
13.0009914,77.6184047,2.3792812056693515,,financial
12.9753754,77.6028942,0.9294160787564689,Highgates Hotel,food service
12.944337,77.620028,4.504517428207468,Hotel Ganga Sagar,lodging
12.9705995,77.6080681,1.3594056612500764,The Grand Magrath Hotel,lodging
12.9809052,77.5754392,3.4142040363853026,Axis Bank,financial
12.9856254,77.5788885,3.050680050060548,Hotel Janardhan,food service
12.9910826,77.5789046,3.170060644702246,Gandhi Nagar High School,education
12.9455764,77.5965053,4.286232527196874,Shanti Church,place of worship
12.9853569,77.5792692,3.0066570377190747,Kabab Studio,food service
12.9853129,77.5792466,3.008631265035601,Goldfinch Hotel,food service
12.9834716,77.5856742,2.30021018715872,Nike,clothes
12.9578638,77.5932147,3.1411088380923506,Foody's,food service
12.966942,77.60796,1.76391184748646,Olive Beach,food service
12.9787173,77.643786,4.0230303974962505,Bandhej,clothes
12.9993806,77.5685062,4.550596060336646,Villa Pottipati,lodging
13.0008128,77.5701799,4.4548775067245145,Ubhaya Vedanta Pravarthana Sabha,education
13.0016752,77.570255,4.491677681689879,Krishna Temple,place of worship
13.000358,77.5701424,4.435983614682673,Mahaganapathi Temple,place of worship
12.9987847,77.5742462,3.9599602792706987,Dattatreya Temple,place of worship
12.9763589,77.6412369,3.7891975153717317,Reliance Footprint,shoes
12.9713009,77.6347274,3.274787628127322,IDBI Bank,financial
12.9711101,77.6342171,3.2323849172881016,Chat,food service
12.9982568,77.5694946,4.4025810953617155,Shree Sagar CTR,food service
13.0020924,77.5702335,4.515619946395579,Vidya Mandir School,education
13.0047163,77.5755228,4.18396785819378,Ram Mandir,place of worship
13.0073402,77.5764133,4.285791026244336,Gayathri Devi Temple,place of worship
12.9950213,77.5964919,1.7677826765652345,,fuel
12.9955696,77.6017708,1.527448208414376,,financial
12.9984695,77.5692319,4.438038608676661,,jewellery
12.9986733,77.5692346,4.446730815634961,,grocery
13.0009705,77.5696315,4.5158391757914425,,jewellery
13.0009296,77.5723686,4.2506385337478285,Food Camp,food service
13.0010829,77.5721394,4.280588843739238,Sri Sai Dosa Center,food service
13.0018529,77.5671939,4.796006323491965,Amrut Ice-cream,food service
12.984215,77.6005578,0.7047509951400492,Hotel Ramada,lodging
12.9831559,77.5987115,0.8873015911071225,Eden Park,food service
12.9823242,77.594716,1.3201283713999952,India Coffee House,cafe
12.980883,77.575992,3.354572928911494,Fortune Park JP Celestial Hotel,lodging
12.9551259,77.5741985,4.690291485295063,Bangalore Institute of Technology,education
12.9564316,77.5741194,4.603046623673655,Kempegowda Institute of Medical Sciences,education
12.9541058,77.5741524,4.7691231122911075,VV Puram College of Arts and Commerce,education
12.9793502,77.6421411,3.838357442661235,Sue's Kitchen,food service
12.9786915,77.6430065,3.9394416148067157,Max,clothes
12.9785592,77.6414856,3.7775873495627263,Indian Overseas Bank,financial
12.9787281,77.6449298,4.146077439165803,M K Retail,grocery
12.9621543,77.6418716,4.4297305132088125,Mainland China,food service
12.9700166,77.6311695,2.9886394540656696,Sai Baba Temple,place of worship
12.9718996,77.6508166,4.910667642946741,Federal Bank,financial
12.9687955,77.6488858,4.8084095291845195,Sabari Juice Junction,food service
12.9690594,77.6479877,4.706833229076763,Beijing Bites,food service
12.9733041,77.6511018,4.904738622940247,Reliance Fresh,grocery
12.978084,77.6377484,3.383883766329953,HDFC Bank,financial
12.9897809,77.5880062,2.189622564485881,NGMA Cafe,cafe
12.967438,77.6365796,3.640813748717874,StrEat Cafe,cafe
12.9803877,77.6046163,0.3619095900966841,Gem Plaza,mall
12.9655798,77.5845651,3.0832464755031324,,financial
13.0236679,77.592064,4.822920682137268,Nilgiri's,grocery
12.9643071,77.6437722,4.492856148683359,Sethji's,food service
12.9640379,77.6406718,4.211570414408048,Roadtrip,bar/club
12.9691507,77.6361266,3.5112578741062554,Habibi Falafel,food service
12.9671898,77.6422595,4.205819300319379,The Ants Cafe,cafe
12.9695606,77.6411087,3.9880559797696753,Chai Patti Teafe,cafe
12.9723006,77.6392006,3.689416556650574,Chakum Chukum,food service
12.9701438,77.6376584,3.6174206616021984,HDFC Bank,financial
12.9638721,77.6400982,4.166933388931621,Maha Bank,financial
12.9698224,77.6377171,3.6372835501364023,Dunkin',food service
13.0231839,77.6004176,4.5481116363392475,Super Market,grocery
13.0252349,77.6054904,4.724207972611693,More,grocery
12.9926382,77.6506116,4.862544227811708,Ganesha Temple,place of worship
12.9932729,77.5834746,2.79300961216268,Chief Minister's Guesthouse,lodging
12.9599222,77.5728426,4.479584425930253,Indian Medical Association,education
12.9450769,77.5903688,4.557757494758223,Masjid e Inayat,place of worship
12.9433387,77.5850711,4.9815528391704635,Cafe Coffee Day,cafe
13.000405,77.6233725,2.6521085350755116,,financial
12.9999497,77.6229731,2.5855417625945596,Delicacy Chinese Restaurant,food service
12.999295,77.5680608,4.59092601745151,Sai Shakti,food service
12.9645047,77.6065319,2.0314925679687255,Fanoos Hotel,food service
12.9766211,77.5725503,3.7832637752133556,Swathi Deluxe,food service
12.972972,77.6213025,1.9041204056707357,McDonald's,food service
13.0055106,77.5787567,3.9604902653536045,Sri Udupi Swaadista,food service
13.0053709,77.5784808,3.973702633185909,Nilgiris,grocery
13.002535,77.578333,3.795236377098576,State Bank of India,financial
13.0022031,77.5783102,3.776013234085998,Canara Bank,financial
13.0046183,77.5784554,3.9234797443558835,Rajesh Hotel,food service
12.9423147,77.6150065,4.583685807173714,More Supermarket,grocery
12.9404971,77.6207624,4.935123410609471,Bethany High School Koramangala,education
12.941685,77.621969,4.851931335728458,"Ganapathy, Anjaneya, Raghavendra Swamy temple",place of worship
12.9418577,77.6159961,4.655111161009032,Forum bakery,grocery
12.9449911,77.618272,4.37821362803944,Mookambika Bar& Resturant,bar/club
12.9422358,77.6178071,4.659940316754346,Dim Sum,food service
12.943764,77.6071874,4.337499419295068,Adigas,food service
12.9825987,77.6070246,0.024012801896315196,Baby Center,clothes
12.9821744,77.6081695,0.15359393311700467,Bata,shoes
12.9823894,77.607536,0.08176017624727494,KFC,food service
12.9826293,77.6068536,0.01626909596863904,West Side,clothes
12.9805966,77.6074314,0.24877142514672193,Punjab National Bank,financial
12.9968818,77.6109656,1.6299757972699767,Fathima's Girls High School,education
12.9961239,77.6132737,1.6379302488346017,Third Wave Coffee Roasters,cafe
12.9959044,77.6130336,1.6048763378356565,Nandini Restaurant,food service
12.9958364,77.6131543,1.603489879904904,Udupi Shanthi Sagar,food service
12.9973354,77.6106956,1.671128248549622,Domino's,food service
12.9961448,77.6112526,1.560382071491136,Ponnuswamy Restaurant,food service
12.9970256,77.611258,1.654155812743068,Reliance Fresh,grocery
12.9931105,77.6089191,1.170511813940311,Al-Siddique Kabab Center,food service
12.9934162,77.608356,1.194287856093641,Siddique Kabab Center,food service
12.9931549,77.6069772,1.1546747726892588,City Center Library,education
12.9916626,77.6024335,1.1003599206607557,HKBK Degree College,education
12.9916809,77.599758,1.2565337344180325,Ganesha Temple,place of worship
12.98516,77.6016342,0.6284854456825965,Elgin Cinema,cinema
12.9847411,77.6014987,0.6239851432195862,Dandu Maramma Temple,place of worship
12.9933042,77.6131994,1.3560952411879716,St. Francis Xavier's High School,education
12.992426,77.6135802,1.2953345851984401,St. Joseph's Convent Girls High School,education
12.9938162,77.6144766,1.4778101068328848,Holy Angel's High School,education
12.9926871,77.6141548,1.354693895984726,RTC Girls High School,education
12.9947968,77.6152664,1.616054993612491,ICICI Bank,financial
12.9946747,77.6150372,1.5909283002841237,Sherlock's Pub,bar/club
12.9960742,77.6170891,1.8463783278306372,Komala Refreshment,food service
12.9963828,77.6202753,2.0961640908017105,Vijaya Bank,financial
12.9950065,77.6202748,1.9884453386327559,Mouna Guru Swamy Mutt and Temple,place of worship
12.9969092,77.6198773,2.1098102721919956,Axis Bank,financial
12.9975424,77.6225532,2.3616925369739983,Sri Varasiddhi Vinayaka Temple,place of worship
12.9892398,77.6084577,0.7390572077644284,Mutyalamma Temple,place of worship
12.9416947,77.621508,4.834318961282987,Boca Grande,food service
12.9420162,77.6219426,4.816300567365431,Federal Bank,financial
12.9603151,77.6458853,4.9079794925955245,Raham's Families International (Richies) Restaurant,food service
12.9519422,77.6397478,4.94239131662289,Barbeque Nation,food service
12.9526958,77.640104,4.9128439059098,Tandoori Hipple,food service
12.9447798,77.6191001,4.426747632023483,Sri Srinivasa temple,place of worship
12.9525546,77.6400289,4.917600412066333,LoveShack,food service
12.973736,77.6072937,1.005593291641394,Pecos,bar/club
12.9753513,77.6039839,0.8831206778152947,Vasudev Adiga's,food service
12.9733561,77.6074951,1.048933476265506,McDonald's,food service
12.9746853,77.605772,0.9072275840289491,Ruby Tuesday,food service
12.9755497,77.6031741,0.8983120306439345,State Bank of India,financial
12.9729633,77.6086054,1.1062744823959667,Purple Haze,food service
12.973051,77.6110437,1.1707383491753627,ICICI Bank,financial
12.974763,77.6051072,0.9111846345892102,Paris Panini,food service
12.9749906,77.6072186,0.8658689209606888,Sri Vijaylakshmi Silks And Sarees,clothes
12.9649944,77.5958779,2.308955460348019,Kirtilals,jewellery
12.9638583,77.5961698,2.402534309444107,American Express bank,financial
12.9954523,77.6138486,1.5989582986280113,Pizza Hut,food service
12.9978917,77.6147471,1.8845336023238723,KFC,food service
12.9973063,77.6138674,1.7842748165848317,Beijing Bites,food service
12.9963445,77.6157181,1.7868196154884208,McDonald's,food service
12.9954036,77.6139103,1.5973569379806498,Ganesha Fruit Juice Center,food service
12.9999459,77.6158737,2.143463052706045,Empire Restaurant,food service
12.978234,77.6426096,3.9029779325250713,Kobe Sizzler,food service
12.9786184,77.64187,3.81811844542663,Karnataka Bank,financial
12.9782465,77.6427852,3.921667312986249,ICICI Bank,financial
12.978729,77.6439064,4.035849084839125,Costa,cafe
12.9786454,77.6425241,3.8881260996643414,P N Rao,clothes
12.9783144,77.6444829,4.103247691872375,Flying machine,clothes
12.978261,77.6431384,3.959419938552918,Nature's Basket,food service
12.9786742,77.6427655,3.9137268700634897,Chai Point,cafe
12.9787161,77.643658,4.009263804862029,People,clothes
12.9692201,77.6411398,4.0052809757288745,Axis Bank,financial
12.9786857,77.6450948,4.1643628049389605,State Bank of India,financial
12.9783314,77.6448308,4.14044451174373,Andhra Bank,financial
12.9689844,77.6415777,4.059110620432701,Citibank,financial
12.9787241,77.6440375,4.050026705781025,Planet fashion,clothes
12.9707243,77.6414981,3.9819313262783322,Shrushti Jewelry,jewellery
12.9716231,77.6409232,3.890329451819712,Odyssey food,food service
12.9689476,77.6416265,4.0655528270499905,Arrow,clothes
12.9713714,77.6409298,3.9000156149418435,Van Heusen,clothes
12.968363,77.6416279,4.09071589994236,Methodist Church,place of worship
12.9709206,77.6410529,3.9291612653097214,Salt Edition 1,bar/club
12.9705339,77.6415074,3.9900519332160984,State Bank of India,financial
12.9761276,77.6412139,3.79167836147084,Gloria Jean's,cafe
12.9775694,77.6411528,3.7571779893542625,Peter England,clothes
12.9765526,77.6407462,3.732940451101459,Indian Terrain,clothes
12.9918131,77.6116694,1.1309102128156756,Union Bank of India,financial
12.9814476,77.6103605,0.40370549970619074,ICICI Bank,financial
12.9810398,77.6104463,0.4306464910171979,Malabar Jewellery,jewellery
12.9827449,77.6069771,0.009770147685144516,Max,clothes
12.9814894,77.6101459,0.3803811411465078,Sri Krishna Diamond and Jewellery,jewellery
12.9817871,77.6092771,0.2807357490779591,The Brown Shop,clothes
12.9816462,77.6095934,0.3184057056543066,Lee Showroom,clothes
12.9822735,77.6078285,0.11566702812575425,,food service
12.9811601,77.6102478,0.4054341335070363,Levi's,clothes
12.9825453,77.6104302,0.3843017702160568,Cool Joint,food service
12.9826498,77.6104195,0.38255943108871776,Corp Bank,financial
12.9395395,77.5959949,4.9500042148874135,State Bank of India,financial
12.9429045,77.5977165,4.543063078058016,Ganesha Temple,place of worship
12.9459429,77.5956857,4.271315772307752,Jade Empress,food service
12.9459575,77.5951685,4.286033642811148,Keys Hotel,food service
12.9467025,77.5942807,4.2370262260318485,Raghavendra Swamy Temple,place of worship
12.9494002,77.5926204,4.019981560947279,Bhagini Hotel,food service
13.0249236,77.5927811,4.9301510517699265,Tiffin Centre,food service
13.0254514,77.593103,4.975397601850971,Emporium,clothes
13.023831,77.5929101,4.810376678869786,UniverCell Store,grocery
13.0238887,77.5926095,4.826808009622972,Titan Show room,grocery
13.0233034,77.5928133,4.758082612082153,New Shanti Sagar,food service
13.0006563,77.5683609,4.624189187522892,Chinmaya Mission,place of worship
12.9966873,77.5723319,4.0516048371801,Domino's,food service
12.9950177,77.5716418,4.054757389443061,State Bank of India,financial
12.9978128,77.5712095,4.2123561085563495,Kanti Sweets,food service
13.0004998,77.6267596,2.918990243515347,St. Thomas Orthodox Church,place of worship
13.0032065,77.6358178,3.8712314467202633,Mukunda Theatre,cinema
13.0009572,77.6279102,3.0456357202429256,Bangalore East Marthoma Church,place of worship
13.0188908,77.6276297,4.602136047268205,Sri Rama Temple,place of worship
12.971167,77.605779,1.2959195296886092,Paramount Restaurant,food service
12.9679651,77.6064949,1.6469003226803531,ShowOff,clothes
12.9731342,77.6028884,1.1560033398608733,State Bank of India,financial
12.9478373,77.5970782,4.0273558334850375,Hotel Mayflower,lodging
13.0129095,77.5744479,4.856608049554906,,education
12.972851,77.5999908,1.3325675779855755,Corner House,cafe
12.9727309,77.5997185,1.3602819312954542,Airlines,food service
12.9720594,77.6278089,2.5604565231854424,Bhavin Garments,clothes
12.9719967,77.6278036,2.563199705839498,Ankur Nursery School,education
12.9750198,77.5995767,1.1708857983668886,Rice Bowl,food service
12.9643003,77.5866127,3.007716841878667,Kamat,food service
12.9491363,77.5893864,4.193506204109637,Peninsular Gneiss National Monument,attraction
12.952399,77.6400371,4.930086110355148,Mast Kalandar,food service
12.9441664,77.5969354,4.4261186471436185,Bangalore Institute of Dental Sciences,education
12.9481696,77.5986927,3.9487283395590413,Corporation Bank,financial
12.9488718,77.5977625,3.8970455862495257,Karnataka Bank,financial
12.9800397,77.5713661,3.861196473872328,Sangolli Rayanna,attraction
12.9873383,77.5805314,2.90090442441662,Bharat Seva Dal,education
12.9869904,77.5786112,3.099873057382994,Canara Bank,financial
12.9876512,77.5799188,2.972431017792694,ICICI Bank,financial
12.9868232,77.5800176,2.946433651027744,Richie-Rich,food service
12.9867564,77.5795592,2.994419574290165,Shivananda Stores,grocery
12.9880363,77.5807735,2.889797265556737,Sindhi High School,education
12.9885341,77.5770137,3.300061256475354,Cafe Coffee Day,cafe
12.9882804,77.5773698,3.2567979261959126,Bharat Petroleum,fuel
12.9879409,77.5768491,3.305454503595878,Citibank,financial
12.9975797,77.5851079,2.8778342755869852,Opus,bar/club
12.9909647,77.5748146,3.5929390152402974,Canara Bank,financial
12.9859821,77.5767419,3.2861656375306914,Jain Temple,place of worship
12.9554704,77.5801737,4.194841249266349,Kamat Minerva,food service
12.9877001,77.5782687,3.1493277083580296,Park-n-Eat,food service
12.9865401,77.5772559,3.2382490378921887,Yadava College,education
12.9596642,77.5829322,3.652592120888487,,fuel
12.973195,77.6473973,4.516360853471783,Anjaneya Temple,place of worship
12.9781823,77.5797234,2.9875986069225644,Śrī Uḍupi,food service
12.9780729,77.579383,3.0260238137696067,Golden Residency,lodging
12.9775086,77.5793777,3.0380520382823684,Hotel Kanthi Comforts,lodging
12.9891068,77.5938601,1.577919751120627,Chung's,food service
12.9649841,77.6404672,4.141040419960727,Royal Habitat,lodging
12.9655419,77.5898511,2.6607076679310797,V T Paradise,food service
12.962625,77.5899443,2.8965780768654694,Mahabaleshwar Temple,place of worship
12.9656255,77.5895554,2.676411544971683,Hotel Geo,lodging
12.9607214,77.6458388,4.880788943564828,Madurai Style Idli Vada Dosa,food service
12.9649785,77.6385321,3.9583996873050604,Nandhini,food service
12.9668886,77.5993311,1.9467740497296424,Bank of Baroda,financial
12.97219,77.6008361,1.347113983113074,Mavalli Tiffin Rooms,food service
12.9417658,77.6158811,4.6624787116349875,Corporation Bank,financial
12.9501262,77.6186016,3.845346094612448,Anaga Parmeshwari temple,place of worship
12.9510012,77.6188616,3.7632551596953863,,place of worship
12.9753217,77.6064414,0.8297556918450925,Bombay Dyeing,clothes
12.9732119,77.6217398,1.9283363142195897,TGI Fridays,food service
12.9830301,77.5943718,1.3567921402928005,Nisarga,food service
13.026256,77.6062003,4.835890414323222,Punjabi Dhaba,food service
12.9758374,77.6147563,1.1492257498514238,Bhima,jewellery
12.987094,77.5784442,3.1195142310812294,Bangalore Cafe,food service
12.9658764,77.5860284,2.9392842166765525,Pai Vihar,food service
13.0095498,77.6434526,4.955665351879697,Uttam Sagar,food service
12.9683052,77.6504678,4.9882545449500215,Kaayal,food service
12.9686424,77.6498752,4.9154015533008355,ICICI Bank,financial
12.9662704,77.6497422,4.992558454348494,Z Shoppe,grocery
12.9661486,77.6497036,4.993666948156995,,home furnishing
12.9715903,77.6084985,1.2553793884402116,Palm Grove,food service
12.9718928,77.6065672,1.2101093811289074,Sangam,food service
12.9604081,77.5709546,4.620218929134783,Prakash Cafe & Lodge,lodging
12.9456792,77.5960812,4.2875303017620645,Canara Bank,financial
12.9632602,77.6383855,4.043867883085939,Amma Bagavan Manava Seva Samiti,place of worship
12.943062,77.6175679,4.5645004393453945,Manasa Veg,food service
12.9417545,77.6215457,4.829378737750213,Sagar Fast Food,food service
12.943452,77.6178697,4.531040194221953,HDFC Bank,financial
12.9434676,77.6178331,4.528326344960507,ICICI Bank,financial
12.9590198,77.5700268,4.788646832802692,B.K. Mariappa Charitable Trust Hostel,lodging
12.9577755,77.5694742,4.915601823801526,S.L.V Hotel,food service
12.9602965,77.5723764,4.498022051027761,Anjaneya Temple,place of worship
12.9684323,77.5964096,1.9575339361183486,Villa Lavelle,lodging
12.9540088,77.5724909,4.911537918537257,BBUL Jain Vidyalaya,education
12.9547408,77.5732553,4.795676628529137,Madhwa Yuvaka Sangha,lodging
12.9544584,77.5733572,4.807795154529796,Corporation Bank,financial
12.9573769,77.5717084,4.744156799433154,State Bank of India,financial
12.9587388,77.5789933,4.034734967662457,Mariswamy Mutt,place of worship
12.9552387,77.5790523,4.297921059121372,Nandini,food service
12.9526875,77.5767885,4.672233664270659,Sri Shanidevara Temple,place of worship
12.952102,77.5763325,4.75335574229389,Satyanarayana Temple,place of worship
12.9534194,77.573307,4.888281392479081,Jain Hostel,lodging
12.9717723,77.5729725,3.8733823403655276,Ramakrishna Lodge,lodging
12.9732886,77.5702017,4.112904525963872,,financial
12.9725777,77.5702074,4.133287287166508,HDFC Bank,financial
12.9723215,77.5703735,4.12392029307531,Union Bank of India,financial
12.9712811,77.5701053,4.185669863680338,Corporation Bank,financial
12.9715894,77.5701482,4.170893882181216,,place of worship
12.9715582,77.5704057,4.1453117493461695,Anjaneya - Hanuman Temple,place of worship
12.9672844,77.57,4.352500289449566,Shree Krishna Auto Gas,fuel
12.9662942,77.5699335,4.40378407918763,,place of worship
12.95954,77.5685551,4.891662290589429,Canara Bank,financial
12.9781131,77.6385256,3.466630498047267,McDonald's,food service
12.9800497,77.5771102,3.2409992728881756,Mādappa Mes,food service
12.9803795,77.5760204,3.355477362519762,SRS Bus Station,transportation
12.9803246,77.5754733,3.415055311614006,VRL Bus Station,transportation
12.9713119,77.5997267,1.4920431216540362,F & B,food service
12.9744138,77.6095784,0.9738329020188812,Swagath ShankarNag Chitramandira,cinema
12.9744491,77.6143016,1.2251694438643341,Tanishq,jewellery
12.9991432,77.5710944,4.284529172157493,Hotel Janatha,food service
13.0058689,77.571081,4.652991192518684,Axis Bank,financial
13.0057102,77.5713559,4.618415745677272,Sunil's,clothes
12.9828042,77.6105271,0.39399788376412737,Sreeraj lassi bar,cafe
12.942312,77.60802,4.500498667118469,Manokamana Cermanic,mall
12.959713,77.601745,2.6238668202624478,Guru Tour And Travel,office
12.9709587,77.5975559,1.6578122610737551,The Biere Club,bar/club
12.9969499,77.597413,1.8815774002876002,Jayamahal Palace Hotel,lodging
12.9608365,77.5701609,4.667862863477909,Adi Shakti Chikka Annamma Temple,place of worship
12.9614011,77.5698739,4.662093295872719,Lakshmi Satyanarana Temple,place of worship
12.9617331,77.5700133,4.630341724118441,Anjaneya Temple,place of worship
12.9717891,77.5962374,1.680396467712995,Toscano,food service
12.97181,77.5961248,1.6871215332826854,Rasovara,food service
12.9719198,77.5961248,1.6783224342571115,Tasty Tangles,food service
12.9718741,77.5958619,1.7018606572423995,Cafe Noir,food service
12.960466,77.6017789,2.5413084736875495,Foodworld,grocery
12.9616509,77.6016472,2.4162083167198904,Godrej Nature's Basket,grocery
12.9596191,77.6026157,2.6157238835950483,Namdharis,grocery
12.9622638,77.6040957,2.3003250025677175,Richmond Supermarket,grocery
12.958286,77.605196,2.7287958016128244,Y! Cafe,food service
12.9616161,77.5986353,2.516672923548421,IDFC First Bank,financial
12.9595198,77.6028679,2.62190982752885,,financial
12.9624485,77.5991698,2.409665184511212,Pizza Hut,food service
12.9638704,77.5966485,2.3766967639922325,Udupi Upachar,food service
12.9676211,77.6001785,1.834903686247226,Harima,food service
12.9733898,77.6072915,1.0440441196539887,Cafe Coffee Day,cafe
12.9736858,77.6068869,1.0102282452325921,Guzzlers Inn,bar/club
12.9583088,77.6022126,2.766908773297277,Neelam Stores,grocery
12.9560897,77.6055497,2.9703831002837435,Confident Propos,lodging
12.9655446,77.601164,2.013500836782748,HDFC Bank,financial
12.9638299,77.6009468,2.202440055194386,,place of worship
13.0013558,77.6235851,2.7463165721385696,Basha Department Store,grocery
12.9966824,77.6193965,2.0563943496872454,Indian Oil,fuel
12.9964106,77.6179133,1.9304145291827024,Foodworld,grocery
12.9875167,77.6203112,1.5468897361246052,Raghavendra Swami Mutt,place of worship
12.9865706,77.6194475,1.424609596634319,Rogue Elephant,food service
12.9758023,77.6165936,1.306028543292346,French Loaf,cafe
12.9758154,77.616548,1.3011881380043735,Benjerong,food service
12.9758363,77.6165158,1.2970010014755637,Ente Kerelam,food service
12.999291,77.5671481,4.681543497928878,Manjunatha Provisions,grocery
12.9992858,77.5670032,4.695762123055271,Ganesha Provisions,grocery
12.9991395,77.5678347,4.606528643359604,Safal,grocery
12.9993734,77.5669734,4.702548657221174,KT-26 Sriranga Apartments,residential
13.0039638,77.6155248,2.535412535112464,Mysore Mini Shopee,grocery
12.9569217,77.6416898,4.741318081923163,HDFC Bank,financial
12.9489694,77.577188,4.948362948619032,Sri Vasavi Condiments,food service
12.9794113,77.6406278,3.6745320938548605,Toit,bar/club
12.9750597,77.602857,0.9624398283293195,Toscano,food service
12.974503,77.6054637,0.9322768218280248,Three Quarter Chinese,food service
12.9813835,77.5753478,3.421275369664761,Hotel Tourist,lodging
12.9816856,77.6083084,0.1953276295583037,Tamanna,clothes
12.9814514,77.6077784,0.17543028249046042,Kalyan Silks,clothes
12.9724588,77.6260331,2.3699972612381526,Nilgiri's,grocery
12.9725555,77.6266554,2.424170626547462,Ruchi Restaurant,food service
12.9726902,77.6389158,3.6465954435224734,Serra PreSchool,education
12.9847317,77.578357,3.0993963005802048,The Solitaire Hotel,lodging
12.9737798,77.6028823,1.090055433467116,Chutney Chang,food service
12.9754042,77.6027775,0.9325607843168926,Empire,food service
12.97522,77.6471466,4.4419392933973985,The Island,bar/club
12.9752422,77.6470259,4.428629914102817,Oye Amritsar,food service
12.9750295,77.5703109,4.056006776715814,Hotel City Centaur International,lodging
12.9744293,77.5706029,4.039897418421767,Sri Krishna Lodge,lodging
12.9738994,77.5706296,4.051029558652347,Sri Thirumala Lodge,lodging
12.9991423,77.5703749,4.355183118872239,Kannika Parameshwari Temple,place of worship
12.994291,77.6196026,1.8809129706095151,St Aloysius Pre Unniversity College,education
13.0005858,77.6148025,2.158429526993324,Alibaba Cafe & Restaurant,food service
12.9699846,77.5797207,3.269384501173189,Banaras Sweets,food service
12.9700251,77.5799594,3.244143203181717,ING,financial
12.9732008,77.5789268,3.2114847881810755,ICICI Bank,financial
12.975607,77.5751762,3.5275502577613693,Shree Lodge,lodging
13.0050766,77.5806041,3.776711247000227,Indian Bank,financial
12.9867912,77.5794891,3.0025050724323337,Coastal Express,food service
12.9894357,77.5729477,3.75171448235569,Hotel Samrat Residency,lodging
12.9491655,77.5798273,4.750119338669575,Kamat,food service
12.9479149,77.5794869,4.882621270800227,Bharat Petroleum,fuel
12.9689388,77.5950441,2.0033691605213497,St. Joseph's Indian Composite PU College,education
12.979285,77.5748279,3.4956998603873437,JP Cordial,lodging
12.9789865,77.574935,3.488017752151983,Rajaprakash,lodging
12.9805241,77.5750066,3.463793236631785,Ksheera Sagar,lodging
12.979643,77.5751455,3.457267277777978,Hotel Kapila,lodging
12.9788091,77.5750078,3.482628874026121,Rajadhani restaurant,food service
12.9742636,77.5992958,1.2538590350352796,Rotary Club,office
12.9683042,77.5846472,2.897752983681438,Bnr Bar,bar/club
12.9679017,77.5851515,2.8779424839861574,State Bank of India,financial
12.9743507,77.6070733,0.9365029820765786,Matteo's Coffee,cafe
12.9920336,77.5763265,3.4681440754844033,,place of worship
12.9679393,77.6074294,1.6502413010021286,Hae Kum Gang,food service
13.0044109,77.5668934,4.956870577937895,Sree Charan Bank,financial
12.9785916,77.6410932,3.7349509706344683,Jealous21,clothes
12.9785979,77.6417142,3.8016391502934455,Citibank,financial
12.9785966,77.6416464,3.7943655146488884,Mobile Store,grocery
12.9787461,77.6414747,3.77389304238813,United India Insurance,office
12.9776993,77.6411427,3.7538986101421012,99 Dosa,food service
12.978669,77.6440415,4.051143130480486,Mast Kalander,food service
13.0255016,77.6033615,4.766788867004476,,financial
13.0269431,77.60086,4.954985478720326,Rama temple,place of worship
13.023275,77.6002829,4.560388915623236,"Blue Rose, Home Needs",grocery
13.0145004,77.635717,4.711902301192177,Empire Restaurant,food service
13.0232887,77.6005444,4.557532874824239,,financial
13.0232564,77.6006133,4.552861275198389,Axis Bank ATM,financial
13.0222291,77.6004298,4.44303458485427,,financial
13.0077637,77.6412561,4.646135724740553,Indian Oil Fuel,fuel
12.9870577,77.572403,3.7671076149751133,Hotel Blue Diamond,lodging
12.9968415,77.5802618,3.282163178556067,Prashanth Grand,food service
12.9985485,77.5840303,3.035301211544348,Nandini palace,food service
12.9980346,77.5840974,2.9966426889570728,Sindhu palace,food service
12.9945651,77.6077839,1.3150077229977057,Nandi Bakery,food service
12.9955047,77.6081944,1.4229481489218136,Best of Bengal,food service
12.9825204,77.5705174,3.94127187986231,Gethsemane Church,place of worship
12.9758817,77.5786471,3.1547619879323903,Kamat Yatrinivas,food service
12.9809636,77.6105003,0.4396960111272191,,transportation
12.9816803,77.6081354,0.18135371006715803,,transportation
12.9776613,77.6416286,3.806587026674042,MOMO,food service
13.0088128,77.6444637,4.995724515241495,Maruthi Vidyalaya,education
13.0057592,77.5804279,3.8412120687512217,Sattvam,food service
12.9779398,77.6443888,4.098381021429859,Decor Destination,home furnishing
13.0012808,77.5783329,3.7162360693403302,ICICI Bank,financial
13.001239,77.5783221,3.71463912628441,HDFC Bank,financial
13.0002354,77.5781558,3.669410963671792,Karnataka Bank,financial
12.9684869,77.6008019,1.7199067696527732,Sweet Chariot Bakery and Cafe,cafe
12.9752848,77.6043238,0.8776743353416007,Coconut Grove,food service
12.9633735,77.5898343,2.840441533888995,Hotel Vintage Residency,lodging
12.9437857,77.6236824,4.701344990127315,Canara Bank,financial
12.9422696,77.6253883,4.929457667952816,State Bank of India,financial
12.9444702,77.5847747,4.886844958449666,Horticulture Training Center,education
12.9458279,77.585024,4.7422936879644695,,attraction
12.9480567,77.5879713,4.370708464824807,Pigeon Hole,attraction
12.9510578,77.5829803,4.375859236417301,,place of worship
12.9747023,77.5995253,1.2008068024888578,Hotel Regaalis,lodging
12.9746825,77.6067737,0.8994899656636145,Krispy Kreme,food service
13.0213985,77.6005015,4.350611328767705,Lakshmamma Petrol / Gas Station,fuel
12.9765112,77.5799146,3.0047317967545197,Bharat Petroleum,fuel
13.0030286,77.6349993,3.787994451322985,Srinivasa Petrol / Gas Station,fuel
12.9829727,77.5713648,3.8494172308292214,Diamond Petrol / Gas Station,fuel
12.9873459,77.5723926,3.772410895556044,Vijees Auto Gas,fuel
12.9924448,77.5757103,3.545553688801923,,financial
12.9893245,77.5740161,3.63580731995361,Sri Rama Temple,place of worship
12.9814915,77.6083334,0.2113476524828844,Nutan Silks,clothes
12.9814677,77.6084953,0.22631597163507094,Geetanjali,jewellery
12.9811057,77.6102575,0.4090796464685878,Hotel barbies,food service
12.9796492,77.6070313,0.34746103574297416,Hotel Safina,lodging
12.9805404,77.6072557,0.2511595477522944,Inmark,clothes
12.9820759,77.6090805,0.24951141564987214,World of Titan,watches
12.9818276,77.6092079,0.2720782763608373,Cafe Coffe Day,cafe
12.9814604,77.6104149,0.408690299563721,Mysore Saree Udyog,clothes
12.9819531,77.6088847,0.2343865997107621,Sterling House,clothes
12.9819355,77.6082221,0.1715599998791389,Shiv Sagar,food service
12.9984083,77.5823672,3.1754898357945134,Shri Anjaneya Swamy Temple,place of worship
12.9787644,77.5750024,3.4838417190950843,Rajadhani Pub,bar/club
12.9787148,77.5743399,3.555744049017768,Skipper Bar & REstaurant,bar/club
12.9787017,77.5742352,3.567181877146996,Gandharva Upahāra,food service
12.9786599,77.5740904,3.583335547390725,Rajath Lodge,lodging
12.9786625,77.5739751,3.5956902103696637,Durga Bar & Restaurant,bar/club
12.9772171,77.5766278,3.3367777366253524,Sajjan Lodge,lodging
12.9441545,77.5991339,4.375458275461956,Prince of Peace Disciples Church,place of worship
13.0022734,77.6177342,2.4663618055558523,State Bank of India,financial
12.9937001,77.571322,4.040971519824131,The Basil,lodging
12.9797671,77.5858092,2.308571786697742,CMS,education
12.9690389,77.6481056,4.719658521228256,Mani's Dum Briyani,food service
12.9655171,77.5949458,2.3143311858189035,Woody's,food service
12.967569,77.5896565,2.518889495140078,Sri Vari Veg,food service
12.9797725,77.5747917,3.4940058760638912,Sandhya Lodge,lodging
12.9669946,77.591066,2.4531046600668645,Government School,education
12.966493,77.5905481,2.532218524129922,Anjaneya Temple,place of worship
12.9770921,77.5795669,3.0272609783153084,Hotel Grand Inn,lodging
12.9736811,77.5987096,1.344427156702,Shezan,food service
12.9790476,77.5935254,1.5062269851615802,High Court Canteen,food service
13.0209593,77.5844241,4.894545270416389,Hotel Check Inn,lodging
12.9675888,77.6066202,1.688438603123255,Ibaco,food service
12.9888891,77.5933559,1.6166515603853573,Au Bon Pain,food service
13.0039535,77.5836175,3.450578000552268,Citibank,financial
12.9943529,77.5946809,1.8462904460078273,Canara Bank,financial
12.9943998,77.5945632,1.859073225618821,Watson's Pub,bar/club
13.0019713,77.5723357,4.309956821364349,Canara Bank,financial
13.0020277,77.5707457,4.4634303292791175,Maiyas,food service
13.0040275,77.5712572,4.526899050342152,Sri Raghavendra Swamy Mutt,place of worship
13.0046507,77.5719519,4.499957947801725,,place of worship
12.9703092,77.6109836,1.4549178197597266,Arbor Brewing Company,bar/club
12.970738,77.6105649,1.3959725387771396,Abaran Jewelers,jewellery
13.0030548,77.619863,2.657533955127558,Azhar Furnitures,home furnishing
12.9667567,77.5892239,2.614499687847163,ವೀರಶೈವರ - ಉಪಹಾರ ಮಂದಿರ,food service
12.9902879,77.5645516,4.663034633777834,Government Public Library,education
12.9915519,77.5639515,4.7538712815531206,Muneshwaraswamy Temple,place of worship
12.9801755,77.6049823,0.3550570580310452,The Monarch Luxor Hotel,lodging
12.9652714,77.5985205,2.146867583764985,HDFC Bank,financial
12.965985,77.6036918,1.8984356610824455,,financial
12.9748217,77.6145482,1.2123133505394617,Bhima Jewellers,jewellery
12.9820126,77.6086888,0.2122669338968561,C. Krishnaih Chetty & Sons.,jewellery
12.9818715,77.6094935,0.2992008936587859,Woody's,food service
12.9815508,77.607875,0.1725593176525597,Gold Palace,jewellery
12.9816494,77.6084262,0.20790427731853803,Alice Jewellers,jewellery
12.9573933,77.582077,3.8977668693587155,Dena Bank,financial
12.9659396,77.5949764,2.2736523012023175,Ramanna's Fast Food,food service
12.9677684,77.593373,2.2200085147026156,,food service
12.968017,77.592013,2.300084779190741,State Bank of India,financial
12.9644187,77.6062299,2.0419395653358476,Karnataka Supermarket,grocery
12.9700096,77.6477377,4.647866356594331,IndusInd Bank,financial
12.9714443,77.6350673,3.30262606472562,Khan Saheb,food service
12.9619603,77.6420069,4.453453631774808,,bar/club
12.9808323,77.6023684,0.5353580843158432,Noor and co,home furnishing
12.9712735,77.5974847,1.6350163916335374,Bootleggers,bar/club
13.0169921,77.5914678,4.1559567622710425,Empire Hotel,food service
13.0174207,77.5916073,4.193644965622004,Coral Tree by Goldfinch,lodging
13.0174262,77.5916716,4.191461257306617,Kudla,food service
13.0168458,77.591398,4.144124676200311,Adiga's,food service
13.0184767,77.5918916,4.290010904203092,,fuel
12.9757617,77.6026084,0.9070791441986538,Church Street Social,food service
12.9656807,77.5897827,2.6547861786117113,,place of worship
12.9722421,77.6184419,1.7138177684752132,Daysie,food service
12.9723821,77.6185949,1.7154402103875166,Big Kids Kemp,clothes
12.9723534,77.6186861,1.7249000946751523,EXIM (Export-Import Bank of India),financial
12.9707054,77.6199809,1.952362736224797,Air Force Officers' Mess,lodging
12.9807537,77.6073428,0.2295932034035287,C. Krishniah Chetty & Sons,jewellery
12.9587743,77.5824778,3.7573676916069436,Bharat Petroleum,fuel
12.9540038,77.5801262,4.3177860469104745,Karnataka Bank,financial
12.9606096,77.5835432,3.5316962965789243,State Bank of India,financial
12.9579091,77.5823797,3.8336482835712746,State Bank of India,financial
12.9503526,77.579806,4.648446839903239,Syndicate Bank,financial
12.9651176,77.5897462,2.7026790777304686,ICICI Bank,financial
12.9739079,77.6467503,4.429949565431356,IDBI Bank,financial
12.9520131,77.6398096,4.941757657061342,Punjab National Bank,financial
12.956002,77.6416096,4.797190213172346,Paramount,food service
12.9719534,77.641362,3.9240104594834806,State Bank of India,financial
12.9659456,77.5924964,2.4357883603399895,Chamundeshwari Coffee,cafe
12.9658588,77.5924927,2.443465683878881,Chamundeshwari,clothes
12.9659423,77.5925731,2.4307573689808657,Axis Bank,financial
12.962382,77.5939054,2.6683064159578542,Darshini,food service
12.9658715,77.5943909,2.31640524932779,Sri Rama Mandira,place of worship
12.9687951,77.6488597,4.805747688410009,Spicy Corner,food service
12.9760259,77.6032365,0.8481339823799772,Joyalukkas,jewellery
12.9725358,77.6408942,3.8561823366477332,Blackberry,clothes
12.9734434,77.6216713,1.9080328983574997,Big Bazaar,grocery
12.9750047,77.6200027,1.6625792598106004,Carnival De Goa,food service
12.9693531,77.6248085,2.448536963287054,Sabu collection,clothes
12.9733087,77.6214181,1.8933466248042636,,financial
12.9734362,77.6215884,1.9009366663227973,,financial
12.9743111,77.6073521,0.9420238177217755,Ayda,food service
12.9740565,77.609206,1.0009484606981607,KSIC Seconds Showroom,clothes
13.0108784,77.5788998,4.354959524505198,Chevron Orchards Hotel,lodging
13.0053577,77.5810409,3.76194426661706,Cafe Coffee Day,cafe
12.9977551,77.6205782,2.2305511417021604,Sri Devi Café,food service
12.9896328,77.5751613,3.52159552960642,Hanuman Temple,place of worship
12.98415,77.5781517,3.117740108444541,Hotel Sanman,food service
12.9656457,77.5905077,2.603383766348987,Happy Belly,cafe
12.9662697,77.6361076,3.659096559653199,Jamati Montessri,education
12.9661911,77.636518,3.701983224611484,Rainbow Playschool,education
12.9772096,77.639037,3.537608899685404,Central Bank,financial
12.9773806,77.6389902,3.5293360672633067,Punjab National Bank,financial
12.9889394,77.6478522,4.4908819420169035,,place of worship
12.9781152,77.6369674,3.299748801255835,Smart Line,clothes
12.9818224,77.610245,0.378413045574434,Corporation Bank,financial
12.9818877,77.610465,0.3995140226841169,Citibank,financial
12.981859,77.6102799,0.38094257340227716,Corporation Bank,financial
12.9844175,77.6033409,0.4260085504708809,Sreeraj Lassi Bar,cafe
12.9669535,77.5869415,2.7867880659045134,Bharatiya Mahila Bank,financial
12.9673021,77.5871125,2.7480116849000775,Punjab National Bank,financial
12.9672272,77.5871401,2.750905394751442,Punjab National Bank,financial
12.9757975,77.6044854,0.8180553786717045,State Bank of India,financial
12.9757451,77.6046148,0.8192508396729848,Cafe Coffee Day,cafe
12.9731115,77.5701532,4.1230718561698545,Signature Inn,lodging
12.9671438,77.6412417,4.10773958270557,Bob's Bar,bar/club
12.9765959,77.5706263,3.9889623333421347,D'Lish,food service
12.9749583,77.5703152,4.057239847926218,Federal Bank,financial
12.9729868,77.5700133,4.141331174635516,Adhishakthi,food service
12.9730022,77.6173053,1.566298673106245,Domino's,food service
12.9736204,77.6155256,1.382262759657413,Citibank,financial
12.9607933,77.64587,4.879703104571999,Srinidhi Sagar,food service
12.9636358,77.6438548,4.535360463181757,Top in Town Departmental Store,grocery
12.9650864,77.6441914,4.494720174399296,Corporation Bank,financial
12.9652093,77.6442295,4.492474894127323,,grocery
12.9821515,77.6387449,3.452142131139658,Axis Bank,financial
12.9728628,77.6074393,1.1033422604648,Nilgiris,grocery
12.9729398,77.6085437,1.1077501524169275,Planet Fashion,clothes
12.9614307,77.6017099,2.4384404704656557,Domino's,food service
13.006693,77.5792022,4.009447362560632,Pulimunchi,food service
12.9976504,77.6095995,1.6803383646199872,Bank of Baroda,financial
12.9978263,77.6097252,1.702004866605962,Axis Bank,financial
12.997797,77.6096526,1.6973961348227116,Bank of Baroda,financial
12.9947176,77.6153985,1.6168924527789827,IndusInd Bank,financial
12.9974931,77.6103558,1.6795164300253538,Axis Bank,financial
12.9974461,77.6100447,1.6671892871910448,Kotak Bank ATM,financial
12.9982667,77.6087143,1.7343313238618474,Union Bank of India,financial
12.999644,77.611418,1.9392477849020344,Bank of Baroda,financial
13.0002582,77.6112114,2.000040007606899,State Bank of India,financial
13.000752,77.6131248,2.1103983512980538,Richies Rahhams Families International,food service
13.0007619,77.6131533,2.112431122502826,Axis Bank,financial
13.0212073,77.6284431,4.870198605760283,Lakshmi Vilas Bank ATM,financial
12.9952969,77.6144743,1.617110060090437,HDFC Bank,financial
12.9939906,77.6154041,1.55152346576041,Citibank,financial
12.9940387,77.6156783,1.5736229638722976,Kotak Mahindra Bank,financial
12.96257,77.6432823,4.538154813093694,Big Mummy,food service
12.9627703,77.6424953,4.453090018214175,Nandu Biryani Corner,food service
12.9745629,77.6073138,0.9138481076661444,Starbucks,cafe
12.9582479,77.6146254,2.852729066843023,Kavya Sagar,food service
12.9715333,77.5963921,1.6898491900071158,Skyye,bar/club
12.9666917,77.6426424,4.266574883126616,Buvaneshwari Devi Temple,place of worship
13.0199268,77.5951979,4.321409924615296,,financial
12.9805426,77.6405571,3.6562293363047123,MTR 1924,food service
12.9781425,77.6387579,3.491036885115373,Cafe Coffee Day,cafe
12.9781375,77.638642,3.4786987580874293,Tadka Singh,food service
12.9753399,77.638329,3.505223206916852,Sri Shaneshwara Sai Temple,place of worship
12.9812255,77.6368206,3.247508018183775,Time Pass,grocery
12.9757846,77.6361056,3.2594504463817597,Punjab & Sind Bank,financial
12.9810472,77.6371441,3.2836104120697946,Chinita,food service
12.9811616,77.6371262,3.280955029894785,Paakashala,food service
12.9797703,77.6393433,3.5321050041152735,Dosa Camp,food service
12.9792701,77.6393682,3.540477638461063,Kairalee Nikethan Education Trust,education
12.979128,77.6393645,3.5418525042480438,Reach for the Sky,residential
12.9788158,77.6365941,3.248341672468944,Adupadi,food service
12.9792133,77.6367087,3.2549754313175936,Lakshmi Vilas Bank,financial
12.9782871,77.6426631,3.907968186989841,Lajawaab,food service
12.9782063,77.6431582,3.962323053079813,Rasa India,food service
12.9816228,77.6392476,3.508251351015414,Nakshatra Condiments Mess & Fast Food,food service
12.9783994,77.6443108,4.083600613479595,Cafe Max,food service
12.9782063,77.6443594,4.091438972805935,Max Muller Bhavan,education
12.9787352,77.6370118,3.29439923804942,Bank of Baroda,financial
12.978961,77.636588,3.2455388890318626,Esplanade,food service
12.9783904,77.6373978,3.341214695699448,Shalimar,lodging
12.9784149,77.6370616,3.3047791649823086,The Wearhouse,clothes
12.9823857,77.6380474,3.3761490646104555,Canara Bank,financial
12.9823745,77.6378264,3.35222130373978,Punjab National Bank,financial
12.9781403,77.6361744,3.2144683898086366,Boots,shoes
12.9781069,77.6359334,3.1892971689727547,Manyavar,clothes
12.9780057,77.6431739,3.9669295825050965,Casa de Bambeino Montessori,education
12.9773153,77.6411712,3.7636006917936164,Wills Lifestyle,clothes
12.9772751,77.641272,3.775101669761489,Syndicate Bank,financial
12.9821282,77.6395715,3.5417405620347453,Istanbul Doner Turkish Grill,food service
12.9736663,77.642755,4.015737224568071,Citizen,watches
12.9737944,77.6435121,4.091675764981536,Sakhin,clothes
12.9737451,77.6415863,3.8910547346843027,DQ Labs,education
12.9804418,77.6391466,3.5045753056277347,Durga Andhra Mess (Veg/Non-Veg),food service
12.9822114,77.6391056,3.491091751608595,Food Town,food service
12.978665,77.6392036,3.5308241485323655,Shri Aanjaneya Swamy Temple,place of worship
12.9787513,77.6392057,3.529821220407471,Shri Venkateshwara Temple,place of worship
12.9739797,77.6414178,3.8667388567906285,Cross Currents,clothes
12.9808189,77.6409999,3.7021687956661116,Five Star Cafe,food service
12.9789682,77.640117,3.6248963080976826,kia,clothes
12.9801857,77.641008,3.7078430868769257,kotak,financial
12.9801511,77.6410051,3.707830362479905,,financial
12.9770253,77.6362533,3.2450313687818375,CNK Reddy College of Business Management.,education
12.9774668,77.6363765,3.248847530583873,Nagarjuna,food service
12.9772103,77.6363398,3.250243804135169,Western Union,financial
12.9755127,77.6360648,3.2625063634287197,Imperial Restaurant,food service
12.9736904,77.6420995,3.946358980344906,Monarch Ergonomics,home furnishing
12.9741726,77.6357187,3.2666575869996692,Aishwarya Bar N Restaurant,bar/club
12.97475,77.635825,3.2595197607483413,Annapoorani,food service
12.9741296,77.6359555,3.2925933156732032,Axis Bank,financial
12.978098,77.6368529,3.287798374577561,HDFC Bank,financial
12.9801713,77.6405925,3.6630856737378723,Barebones,food service
12.9816267,77.6404828,3.641988092692522,Federal Bank,financial
12.9817742,77.640521,3.6455880517479624,Karur Vysya Bank,financial
12.9891614,77.5722338,3.8217864518169957,Swathi,food service
12.9897351,77.5720458,3.854107855789428,State Bank of India,financial
12.9896751,77.5720525,3.852061968347474,Ganesh Veg,food service
12.9787061,77.6369437,3.287532811514846,The Himalayan Inn,lodging
12.977444,77.6367467,3.2887574101012014,K M J College Of Nursing.,education
12.9774045,77.6408075,3.7231099386110493,Nike,clothes
12.9821972,77.6388396,3.462303400671877,Punjabi Rasoi,food service
12.9727468,77.6090075,1.1379878055968473,Meghana Foods,food service
12.981424,77.6353009,3.081934464256096,UCO Bank,financial
12.9830426,77.6401968,3.6088919055751085,Regenta Inn,lodging
12.9824741,77.6381006,3.3818021162262486,Business Excellence Institute,education
12.9787564,77.6388029,3.4864594820339656,PNB,financial
12.9826128,77.638292,3.4024241796751205,Indira Food Court,food service
12.9821999,77.6383332,3.4074374595909105,Roll Khazana,food service
12.9822012,77.6382936,3.403144737622716,Curries and Pickles,food service
12.9783537,77.635859,3.176983317870484,Indian Bank,financial
12.9783044,77.6340737,2.9869224699634076,Bata,shoes
12.9783163,77.6352403,3.1114279219348315,ING,financial
12.9466123,77.6218766,4.336198046890327,Syndicate Bank,financial
12.9460609,77.5949139,4.283332381828372,Lakshmi Venkateshwara Temple,place of worship
12.9460933,77.5950233,4.276319237254263,Aegis Autogas,fuel
12.9626153,77.5762859,4.002587198731734,Koti Sri Anjaneya Temple,place of worship
12.962822,77.5764714,3.9730703441687534,Hotel Annakuteera vegetarian,food service
12.9893934,77.5736314,3.678179333597336,Sri Sai Mens PG Hostel,lodging
12.9403442,77.6024598,4.742018483916136,Safal Fresh,grocery
12.9426929,77.6026966,4.479598878554629,HDFC ATM,financial
12.9424288,77.6015084,4.523608156242468,State Bank of India,financial
12.962368,77.575774,4.063951519169424,Koti Dhanvanthri Ganesha Temple,place of worship
12.9625376,77.6432147,4.5335785989168365,Tamilnad Mercantile Bank Limited,financial
13.0019334,77.5784395,3.74740146110607,Aditya Hotel,food service
13.0019072,77.5775638,3.8242105684803764,Government Central Library,education
13.0019405,77.5777151,3.8126690892965445,,place of worship
13.0069934,77.5693219,4.880930709018634,Five Star Veg,food service
12.999115,77.5695329,4.43698094507928,Kanchipuram Varamahalakshmi silks,clothes
13.0070927,77.5693166,4.887510048445041,Five Star Chicken,food service
13.0018587,77.5711353,4.417380098851102,Mohan Bhandar,grocery
13.0035401,77.5713502,4.490197937159803,McDonald's,food service
12.967159,77.5891728,2.588342768866176,Punjab National Bank,financial
12.9672714,77.5892653,2.5725268389941087,,clothes
13.0105999,77.5953412,3.337883166830616,Elegant Guest House,lodging
12.9436693,77.62521,4.779624851958447,,grocery
12.9440787,77.6247551,4.717811642080552,Nami Designer,clothes
12.9423718,77.6251542,4.908795550066,State Bank of India,financial
12.95904,77.6382864,4.305373330151404,Annapurna,food service
12.9604494,77.636423,4.049769379209766,Ceekay,grocery
12.9598751,77.6384088,4.2597150990804185,Corporation Bank,financial
12.9577287,77.6381793,4.387283027627088,313,residential
12.9593929,77.6383584,4.287634750739566,Axis Bank ATM,financial
12.9594282,77.6383636,4.285704271522781,ICICI Bank,financial
12.9564333,77.6379839,4.464093534710987,Top In Town,grocery
12.9603801,77.6367912,4.086059390350028,Sri Kanaka,grocery
12.9603147,77.6371987,4.125556803955786,Kerela Pavilion,food service
12.9593777,77.638355,4.288366857434659,ICICI Bank,financial
12.9569077,77.638123,4.441138291865741,Landsowne,residential
12.9593491,77.6383498,4.289849022724292,HDFC Bank,financial
12.9561948,77.6376138,4.451466799548731,Bangalore Montessori High School,education
12.958603,77.6383092,4.337266809528309,305,residential
12.9592176,77.6385092,4.312451931405127,Under The Tree,food service
12.9552332,77.6374003,4.506161439972284,K.R.L.S. Patel Rama Reddy English High School,education
12.9591069,77.6383016,4.302120571113676,Tamarind House,food service
12.9596492,77.6383775,4.272067519390222,Axis Bank,financial
12.9577479,77.6382507,4.391911487253572,Canara Bank,financial
12.9709105,77.5975237,1.6641875674191784,Tattv,food service
12.9722164,77.5961247,1.654777727352702,Fava,bar/club
12.9718609,77.5957304,1.712935445422126,Citibank,financial
12.9715104,77.5983259,1.5585649432005353,Smoke House Deli,food service
12.9698429,77.5973538,1.7704372020747707,Glass House,food service
12.9680185,77.6019458,1.725702140411281,Bangalore Brew Works,bar/club
12.9408979,77.6221327,4.940332034620101,326,residential
12.9419581,77.6227858,4.854044518307084,Eye Level Learning Center,education
12.941634,77.6229948,4.895781467077306,#314,residential
12.9819249,77.6395066,3.5352407206622343,Annapoorneshwari Mess,food service
12.9812444,77.6366402,3.22787739125173,Chetty's Coffee,food service
12.9482932,77.6213652,4.142178752402956,SLV Stores,grocery
12.9617214,77.6366258,3.982409461463229,State Bank of India,financial
12.972765,77.6190259,1.7224423617913605,Bank of Baroda,financial
12.9705433,77.642076,4.0476726471349815,Chocolate Lounge,cafe
12.9548274,77.6415855,4.8773001175182165,Mast Kalandar,food service
12.9553777,77.6418351,4.859588242187958,Klay prep school and daycare,education
12.9582235,77.6415281,4.640798708647037,Ambur Biriyani,food service
12.95771,77.6416441,4.684711283026458,Chef Inn Regency,food service
12.9579315,77.6415049,4.657947069077351,Kolkatta Kati Roll,food service
12.9580508,77.641507,4.650276067901597,Shabari Tea Stall,cafe
12.9606563,77.6383304,4.201478954943011,Lakshmi Silk Palace,clothes
12.9606532,77.6383744,4.20554728854828,Lakshmi Golds Palace,jewellery
12.9659059,77.6495491,4.9882037948647175,,home furnishing
12.9648261,77.6382967,3.944873073027397,Maple Bear,education
12.9417768,77.6215095,4.8257479567133155,Juice Maker,cafe
12.9814357,77.6372798,3.2960580224249743,New Shahi Kabab Roll Center,food service
12.9916712,77.5712761,3.983778780112363,Citibank,financial
13.0035234,77.6166155,2.5367256299573846,ICICI Bank,financial
13.0036378,77.6166655,2.5505472033037595,Indiradarshini,cafe
13.0033101,77.607122,2.2839808554941152,,place of worship
12.9629426,77.5875693,3.040483858445298,,cafe
12.9878361,77.574957,3.505632837683581,Sri Krishna Devasthana,place of worship
12.9877862,77.5744684,3.5570220268305195,Kashi Vishwanatha Temple,place of worship
12.9862102,77.5741379,3.569401744825134,Bhavani Tiffin Center,food service
12.9821893,77.638025,3.3740714920356663,Bharath Co-Operative bank,financial
12.9821536,77.6378549,3.355723217259812,Indiranagar Chit funds,financial
12.9821717,77.6379337,3.364219033597211,Priyanka Provsion Store,grocery
12.9824022,77.6376847,3.336829612059753,Sree Manjunatha Coffee Bar,cafe
12.9780369,77.633104,2.8886413821429824,Kolkata Famous Chats,food service
12.9780309,77.6331524,2.893919509605385,Neha Fancy,clothes
12.9782881,77.6335861,2.93514532200671,BTC Bozzar,home furnishing
12.9782871,77.6335425,2.930508768046625,Shoes City,shoes
12.9824695,77.6382897,3.4022956535414113,Komal Coffee House,cafe
12.9822182,77.6385728,3.4333571193409047,Ambur Biriyani,food service
12.9822235,77.6390347,3.483386912908602,Juicea- Fresh juice and ice creams,cafe
12.98224,77.6387852,3.456325145594237,,financial
12.9822309,77.6388012,3.4580760234783128,,financial
12.9780926,77.634514,3.0379221503316045,Meena Jewellers,jewellery
12.9780941,77.6345877,3.0457616676215444,Prestige Smart Kitchen,home furnishing
12.9783722,77.6358102,3.1714413215739783,Jockey Clotes,clothes
12.9783815,77.6354826,3.1362130407188658,Kotak Mahindra Bank,financial
12.9780969,77.634707,3.0584462784226134,Classic Polo,clothes
12.9781064,77.6348198,3.070312804326957,Shree Ganesh Fruit Juice Centre,food service
12.9801411,77.6374953,3.3289399458963804,FFE IT - Foundation for excellence india trust,education
12.9801741,77.6372856,3.3059839965429685,Info Era - Software training institute,education
12.9800773,77.6385858,3.4472674377404084,Sree Dhanalakshmi Stores,grocery
12.980055,77.6385017,3.438406555323269,Sree sai rice corner,grocery
12.9819807,77.6383683,3.4117822600383074,The Church of Jesus Christ of Latter-day Saints,place of worship
12.9784446,77.637751,3.378217012414188,Vijaya Bank,financial
12.980378,77.6361915,3.185929796115171,Ethic Attic,clothes
12.9781127,77.6353438,3.126172549909151,Bombay Dyeing,clothes
12.9781358,77.6364714,3.246317363007537,Deen Dayal Cloth Store,clothes
12.9781358,77.6363184,3.2299506219929346,Fashion Line,clothes
12.9822569,77.6393124,3.5134092597201345,Grill and The Goat,food service
12.9787341,77.6331219,2.877436046902208,Now Fashion Lounge,clothes
12.9823138,77.6399023,3.5772222495461072,Rajesh circulating library,education
12.9800955,77.6398191,3.5802439116780005,Le Cremosa,cafe
12.9752333,77.6258831,2.2220135383775284,,place of worship
13.0207677,77.5929009,4.48870284147677,Cafe Coffee Day,cafe
13.0207547,77.5929974,4.483821463328028,Namdhari Fresh,grocery
13.0207547,77.5930859,4.480611563700399,Andhra Bank,financial
12.9526217,77.5773377,4.6361709690955095,Maiyas Store,grocery
12.9522009,77.5773216,4.6713159119038385,ICICI Bank,financial
12.9510455,77.5770158,4.787966328324065,Vasavi Temple,place of worship
12.979241,77.637434,3.3326308238888434,City Centre Residency,lodging
12.9794887,77.6370052,3.283319583769757,,grocery
12.9761885,77.6260897,2.2052661000114044,Bhai Ji's,food service
12.9701247,77.5866611,2.604293974702235,St. Martha's Canteen,food service
12.9680068,77.5918733,2.3115250663540494,Shiva Bakery and Juice,food service
12.9791721,77.5934264,1.5128224892076585,Canara Bank,financial
12.981906,77.5956848,1.218025769403052,KGID Canteen,food service
12.9920489,77.5706285,4.062243939544172,INOX Malleshwaram - Mantri Square,cinema
12.9921796,77.5705158,4.0777592791151385,Swenson's,food service
12.9811573,77.6366177,3.2259676006883,Fruit Face,cafe
12.9660508,77.5864152,2.8946791513163457,State Bank of Patialia MID Corporate Branch,financial
12.9913252,77.5713263,3.96911756049776,,financial
12.9472236,77.598734,4.050312617636163,ICICI Bank,financial
12.9474456,77.5987375,4.026142590890685,Sahana hotel,lodging
12.9480956,77.5999568,3.9282604705858875,Shree Sai Baba Condiments,grocery
12.9813859,77.6014187,0.6126155558251307,Santosh Chat,food service
12.9833614,77.6033233,0.39210371718920456,Canara Bank,financial
12.9811664,77.6405443,3.650794387591359,Karnataka State Cooperative Apex Bank,financial
12.9764142,77.6412363,3.7879810130927387,Stoner,food service
12.9670134,77.6416348,4.15247298446958,Clarks,shoes
12.9763945,77.6412363,3.788390527817888,Bakester,food service
12.9755345,77.6413688,3.8214873112552126,Anjappar Chettinad Restaurant,food service
12.9774444,77.6408045,3.722080208305036,Biba,clothes
12.9749878,77.6412398,3.8211362016143124,Creme & Crust,food service
12.9749255,77.6412398,3.8227116131269048,Hush Puppies,shoes
12.9750628,77.6412415,3.8194349490292034,Peacock Fine Dining,food service
12.9742731,77.6413249,3.848859184111878,Carlton,clothes
12.9741869,77.6413814,3.8571555205481047,Gimi and Jony,clothes
12.9729236,77.6413215,3.8880775015803466,Jack & Jones,clothes
12.9643581,77.6417794,4.299215365738629,Celio,clothes
12.9647407,77.641787,4.27984347135344,Citibank,financial
12.9646378,77.6417391,4.280636909636718,Five star chicken,food service
12.9620032,77.6419066,4.441689108324248,H3O,bar/club
12.962198,77.6419389,4.433462503102095,Nandhana Hometel,lodging
12.9718983,77.6413609,3.9257799025832867,Srishti,jewellery
12.9714308,77.6414026,3.946383712515683,Foursquare Gospel Church,place of worship
12.9709362,77.6414142,3.96548842497362,Forever New,clothes
12.9708756,77.641015,3.9269755614177937,Ellee Dress,clothes
12.9690747,77.6410288,4.000267953533455,Ginger Tiger,bar/club
12.9700372,77.6411107,3.969040992143114,Guess,clothes
12.9695757,77.6411041,3.986974275282019,Jockey,clothes
12.9695996,77.641102,3.9857852362378035,Hungry Walker,food service
12.9709509,77.6410572,3.928471493800554,Suvasa,home furnishing
12.9700996,77.6411068,3.9661755352844352,The Body Shop,clothes
12.9693807,77.6411193,3.9965344715984465,U.S. Polo Assn.,clothes
12.9694282,77.6411133,3.9939657794714662,Vapour,bar/club
12.9708605,77.6410649,3.9326321973020453,W,clothes
12.9708975,77.6410544,3.9301766793843704,Xtream Sports Bar,bar/club
12.9663337,77.6416686,4.188224763411388,Little Italy,food service
12.9659243,77.6416907,4.210437709494035,Neeru's,clothes
12.9657866,77.6417312,4.221197454919693,Nike,clothes
12.9653878,77.6417316,4.241264059598115,Payless ShoeSource,shoes
12.9662002,77.6416839,4.1962145021370585,Reebok,clothes
12.9697562,77.6415706,4.026759620978278,Aurelia,clothes
12.9698116,77.6415504,4.022505833138522,Furn Decor,home furnishing
12.9697991,77.6416332,4.031380668132836,Pepe Jeans,clothes
12.963873,77.6418506,4.331911770770754,Rajdhani,food service
12.963753,77.6419024,4.343302772856355,The Rock,food service
12.9742661,77.6409041,3.8048690320554415,pakwan,food service
12.9742959,77.6409041,3.8040465733141597,Southindies,food service
12.9742363,77.6409041,3.8056941982049026,Tippler,bar/club
12.9736716,77.6409138,3.8228537711443327,Sri Udupi Park,food service
12.9741351,77.6409014,3.8082335214232175,Tunday mughlai cuisine,food service
12.9816481,77.642258,3.8341460057655254,SS Store,grocery
12.972076,77.6409726,3.879668579882147,Allen Solly,clothes
12.9717347,77.6410001,3.8942995045776483,Pantaloons,clothes
12.9720123,77.6409807,3.882681028776294,Soma shop,clothes
12.9719085,77.6409824,3.8864286305307143,Van Heusen,clothes
12.9712452,77.6409708,3.908796672580368,Brooks Brothers,clothes
12.9714296,77.6410321,3.908406828201087,LOFT 38,bar/club
12.9715304,77.6410028,3.9017963247902365,Page 3,food service
12.9715875,77.6409974,3.8992120876302034,,clothes
12.9706435,77.641522,3.987400305552066,State Bank of India,financial
12.9706146,77.6415013,3.9863783154451555,Thai Refresh,food service
12.9694583,77.6415886,4.040599547228169,The Biriyani World,food service
12.9689167,77.6416692,4.071135693626232,EdHardy,clothes
12.9689861,77.6417056,4.071875118390846,IZOD,clothes
12.981682,77.6394877,3.534017647977934,Chai Gali,cafe
12.9830655,77.6408025,3.6745403779974612,,place of worship
12.9801908,77.6372443,3.3013641328917545,Brahmin's Tatte Idli,cafe
12.9791513,77.6411317,3.73186177973664,Biryani Palace,food service
12.9792275,77.6410231,3.719255723382514,Federal Bank,financial
12.9794578,77.6411064,3.7256097916656756,Hum India Fashion,clothes
12.9651581,77.6412777,4.209369753416548,Aquila Bar,bar/club
12.9641752,77.6413104,4.264423259964602,Barbeque Factory,food service
12.9666575,77.6412198,4.1287699702805245,Bloom Hotel,lodging
12.96597,77.6412101,4.161580234652328,21st Amendment,bar/club
12.9626968,77.6414051,4.355330002884624,Creative Jewels,jewellery
12.9664679,77.641215,4.137496383757836,Flying Machine,clothes
12.9670338,77.6411346,4.102430226466582,LaBOF,clothes
12.9676315,77.6411313,4.074194869613367,Lee,clothes
12.9674604,77.6411657,4.085482107633272,Levi's,clothes
12.9651732,77.6412777,4.208588718510302,Maharaja's Furniture,home furnishing
12.9659502,77.6412101,4.1625691845822566,News Cafe,cafe
12.9658097,77.6412537,4.173827351252148,Park Avenue,clothes
12.9641898,77.6413104,4.263636214634021,Pepperfry,home furnishing
12.9659936,77.6412082,4.160218683660341,Peter England,clothes
12.9673327,77.6411618,4.091036858227562,Watson's,bar/club
12.9673045,77.6411621,4.092383321674585,Puma,clothes
12.9649955,77.6412989,4.219842735834203,Sai Scavaloni,home furnishing
12.9656588,77.6412508,4.181157339721446,Smoke House Deli,food service
12.9661256,77.6412459,4.157314041071301,United Colors of Benetton,clothes
12.9676481,77.6411313,4.0734324141545954,Vans,shoes
12.9653221,77.6412575,4.198973910543877,Veneta Cucine,home furnishing
12.9678065,77.641186,4.071600668669191,World of Titan,watches
12.9676641,77.641131,4.07266856110957,Wrangler,clothes
12.9739292,77.6232945,2.0311901140592177,Kumbakonam Traditional Coffee,cafe
13.0194557,77.6280049,4.6768030022381835,Sai Baba Temple,place of worship
13.0017604,77.5783235,3.746873796250822,Atithis,food service
13.0188187,77.6270726,4.565930594443068,Lakshmi Narasimha Swamy Temple,place of worship
12.9759093,77.6041339,0.8193871405636101,Juice Junction,food service
12.9729167,77.6172137,1.5658016703240092,Yes Bank,financial
12.9751161,77.6040333,0.9057576664368432,Abu Dhabi Commercial Bank,financial
12.9758231,77.6043176,0.8213507747799037,Navrathan Jeweler,jewellery
12.975913,77.6032463,0.8587668364699675,State Bank of India,financial
12.9758241,77.6043486,0.820111794963329,State Bank of India,financial
12.9752119,77.6067994,0.8405921678954492,Manyavar,clothes
12.9751995,77.606899,0.8419128333351077,Soch,clothes
12.975421,77.6045772,0.8548721671943132,Canara Bank,financial
12.9756615,77.6049554,0.8178879807291882,Marico Cotton Industries Emporium,clothes
12.9755804,77.6053256,0.8173514991300179,UCO Bank,financial
12.97534,77.6064011,0.8279928201218062,Himalayan Jewelery,jewellery
12.9754589,77.6067378,0.8132378592526155,Cafe Coffee Day,cafe
12.9751753,77.6037109,0.9121886531351221,Hum India,clothes
12.9751858,77.6035875,0.9162481469520583,Bheema's,food service
12.9752374,77.6034215,0.9181857465683505,Mainland China,food service
12.975223,77.6035195,0.9153573980758378,Oh! Calcutta,food service
12.9753616,77.6030071,0.925145612592312,Hoppipola,bar/club
12.9755327,77.6032754,0.8951441831997191,Desi Vdesi,food service
12.9755379,77.603247,0.8959761537198971,C# chicken,food service
12.9755584,77.6031289,0.8996559196913547,Hooked,food service
12.9755444,77.6031965,0.8977539581132323,Matsya,food service
12.9755531,77.6031516,0.8990701761440648,KaatiZone,food service
12.9756151,77.6029253,0.9043119174712144,Bundle Company,food service
12.9759265,77.6026202,0.8907179207977471,Corporation Bank,financial
12.9760128,77.6035442,0.8344013859068604,D'Decor,jewellery
12.9757645,77.6021528,0.9330379206354326,Shri Sheeshmahal Restaurant,food service
12.9757795,77.6021059,0.9344557051740301,Lais Bar & Restaurant,bar/club
12.9758717,77.6017753,0.9464678379062081,Pecos Pub,bar/club
12.9761907,77.6026409,0.864553765819542,Paresh Lamba Signatures,clothes
12.9759033,77.6022279,0.9156745471337258,Sri Lakshmi Comforts,lodging
12.9762305,77.6021439,0.8907837610981943,Coolwell Electrix,grocery
12.9762047,77.6026564,0.8623418601126186,Drinks,bar/club
12.9761842,77.602631,0.8657370138673495,Union Bank,financial
12.9724724,77.608763,1.162977809054741,Karavalli,food service
12.9727364,77.608932,1.1375017666312215,The Pub World,bar/club
12.9727024,77.6089803,1.1422362250676183,The Orange Hotel,lodging
12.9728535,77.6091579,1.129799953026643,Veg Feast,food service
12.9730522,77.6085652,1.0958013482320228,State Bank of India,financial
12.97323,77.609195,1.089888224629288,Nagarjuna,food service
12.9729508,77.6085761,1.1071166879329144,Down Town Pub,bar/club
12.9749935,77.6199471,1.6580834101169029,The Grill House,food service
12.9775007,77.5883584,2.0918408746278883,Syndicate Bank,financial
12.9775686,77.5880097,2.126070166687952,Sri Ramanjaneyaswamy Temple,place of worship
12.9782832,77.5879912,2.1077832462369424,State Bank of India,financial
12.9600073,77.6454571,4.885737667377379,Mac Fast Food,food service
12.9600501,77.6451721,4.856872141086864,Anand,food service
12.9600581,77.6451404,4.853475835627287,Cheeni Kum,food service
12.9600493,77.6449336,4.8348657180825745,Mast Kalandar,food service
12.9600755,77.6448826,4.828631496809278,Chai Point,cafe
12.9600127,77.6451616,4.8580657368412865,ICICI Direct,financial
12.9600676,77.6447244,4.814485819786055,Dena Bank,financial
12.9601577,77.6443247,4.7723740706171895,Desi Bytes,food service
12.9600667,77.6450929,4.848583277974543,HDFC Bank,financial
12.9752131,77.6086452,0.8616268634945068,Punjab National Bank,financial
12.9613296,77.6459542,4.858055835398593,Tiny Bees,clothes
12.997771,77.571072,4.224196422254973,Adyar Ananda Bhavan,food service
12.9594395,77.6436156,4.750385898114762,Clubhouse,food service
12.9733286,77.6167758,1.4998551292684157,Axis Bank,financial
12.9731918,77.6167348,1.5073961475576674,Chai Point,cafe
12.9733953,77.6169631,1.50928186628496,Corporation Bank,financial
12.9733651,77.6164843,1.4745836193433006,State Bank of India,financial
12.9733842,77.6163899,1.4658780250201753,Caesars,food service
12.9734064,77.6163313,1.4596646816186025,Tamil Nadu Marcantile Bank,financial
13.0038136,77.6295207,3.389178047543584,Rao's Corner,grocery
12.9704001,77.6171095,1.765836178805658,Golden Bead Montessory School,education
12.9735894,77.5783998,3.251589062818234,Shanti Sagar,food service
12.9608001,77.6372345,4.0962246070788515,HDFC Bank,financial
12.9721008,77.6184589,1.7259267229605042,EXIM Bank;Export-Import Bank of India,financial
12.9723831,77.6184938,1.7072824541781597,Canara Bank,financial
12.9875847,77.573008,3.7100873111238903,,place of worship
12.9876025,77.5736105,3.6457916889206463,Sri Manjunatha Condiments,cafe
12.9739311,77.6115112,1.1030930678313073,Shri Maha Muneeshwara Temple,place of worship
12.9741304,77.6095504,1.0030722746708753,State Bank of India,financial
12.9740669,77.6092489,1.0010052969848109,Chung Wah,food service
12.973822,77.6092447,1.0272454791255363,Dena Bank,financial
12.9735393,77.609322,1.0597756308964383,Akshara,food service
12.9736021,77.609322,1.053013150421842,Stir Fry,food service
12.9734329,77.6093499,1.0719869024952149,Green Onion,food service
12.9733555,77.6093639,1.0807005754359649,Narthaki,bar/club
12.9733994,77.6093617,1.0759128767312294,Mehendi,bar/club
12.9732979,77.6093585,1.0867624832747727,Udupi Deluxe,food service
12.9739333,77.6123872,1.1490774694352524,DCB Bank,financial
12.9732435,77.6092533,1.0898933279960896,Art of Delight,cafe
12.9731313,77.6080088,1.0787069997745582,State Bank of India,financial
12.9729256,77.6160971,1.4810638852956823,Kotak,financial
12.9732706,77.6144342,1.335671517573772,Canara Bank,financial
12.9732968,77.6147077,1.3517372406968808,Canara Bank,financial
12.9730752,77.6155935,1.4323118806668595,HDFC Bank,financial
12.9731241,77.6136623,1.2996053800178609,Deutsche Bank,financial
12.9732234,77.6137669,1.2969838950980208,Standard Chartered,financial
12.9733488,77.6136783,1.28005536049326,Kotak Mahindra Bank,financial
12.9728784,77.6138634,1.3344600688791486,Standard Chartered,financial
12.972813,77.6138715,1.3409557998851342,Punjab National Bank,financial
12.972881,77.6139332,1.3385188555627912,Indian Bank,financial
12.9794216,77.6351258,3.0819188784667055,Foundation for Agrarian Studies,office
12.972091,77.6077959,1.1916026731304756,Colorplus,clothes
12.9721037,77.6078626,1.190812469673682,Baywatch,bar/club
12.9720624,77.6078121,1.1949174281183337,Check In,clothes
12.9732001,77.6091197,1.0912903513659127,Preethi Sagar,grocery
12.961305,77.6371429,4.05495972026958,Canara Bank,financial
12.9672647,77.6090629,1.74020837595369,Empire,food service
12.9744631,77.6075842,0.9268448400108654,Nike,clothes
12.9743703,77.6069754,0.9341599850774996,Mel's Korner,food service
12.9735781,77.6135363,1.250348076824169,IndusInd Bank,financial
12.9736722,77.6131796,1.219804116259266,Tandoor,food service
12.973633,77.6131796,1.2234219166146925,IndusInd Bank,financial
12.9736382,77.6131447,1.220838749636397,Punjab National Bank,financial
12.9650562,77.5897367,2.708348430295367,Canara Bank,financial
12.9666245,77.5919645,2.416484993086766,Karnataka Bank,financial
12.9659821,77.5926315,2.4233123814983344,Canara Bank,financial
12.9726449,77.6382683,3.5814783541516446,New Life Kerala Mess,food service
12.9783646,77.6362045,3.2137894582752606,Coastal Delight,food service
12.9781459,77.6364882,3.247936542402577,Raaga,food service
12.9723182,77.6370479,3.468204276224789,The Grill House,food service
12.9792707,77.6426443,3.8934905495105974,Wanley Restaurant,food service
12.9792825,77.6425169,3.8796242321332013,Viceroy's Sarathi,food service
12.980827,77.6397762,3.569759142692961,Indiranagar Library,education
12.9783688,77.6353657,3.1239225248582043,Raj Jewels,jewellery
12.9730357,77.6356907,3.303009008795571,New Roll Centre,food service
12.9782679,77.6330409,2.877336778707142,Axis Bank,financial
12.9731666,77.6470466,4.480193032146739,Sharon Tea Stall,cafe
12.9656704,77.6492943,4.97258751191558,Soo Ra Sang Korean Cuisine,food service
12.970003,77.6310087,2.97403583121497,Om Sai Skanda Dosa Camp,food service
12.9835609,77.6064216,0.10149587944737767,Masjid-e-Beoparian,place of worship
12.9689288,77.6359296,3.5027848982688647,Just Books,education
12.970293,77.6357695,3.4229559027124616,Pathaan Sir,food service
12.9726022,77.6346269,3.2109891266758233,Sri Vasavi Super Market,grocery
12.9730537,77.6351916,3.2512985532408463,Karnataka Bakery,grocery
12.9728923,77.6347705,3.2143892732836985,Nagasree Bakery,grocery
12.9663676,77.6372366,3.7601447679991327,Vietnamese Kitchen,food service
12.962015,77.6375462,4.044802236251372,Spice n' Ginger,food service
12.9688091,77.6489013,4.80951046180271,Green Pepper,food service
12.9691095,77.6489071,4.799425789518089,Leon Grill,food service
12.963907,77.6386951,4.034357349894578,Santé Spa Cuisine,food service
12.9728526,77.6166019,1.5243047841790942,Oriental Bank of Commerce,financial
12.9730539,77.6156282,1.4365705582644184,VH Gems and Jewels,jewellery
12.9752032,77.6147572,1.1977478269188269,Citibank,financial
12.9751927,77.614784,1.2006351851356298,Allahabad Bank,financial
12.9751587,77.6148698,1.2099170493810638,Syndicate Bank,financial
12.9751457,77.6148806,1.2117645444200735,Bhaiya Ji Food Court,food service
12.9751333,77.6149534,1.2183732451515221,Vibhas,food service
12.9751349,77.6149697,1.2195163625591767,MumbaiStyle,food service
12.9748952,77.6153654,1.2688955187495756,Paparazzi,food service
12.9748429,77.6153686,1.2731663480585755,Pinxx,cafe
12.9690672,77.6478843,4.695953182588473,Tayabbs,food service
12.9700892,77.6477179,4.64312692323239,Bank of Baroda,financial
12.9702195,77.6476869,4.635542770783352,Siri's Camille's Ice Cream Bar,cafe
12.9702636,77.6476781,4.633158795499686,The House of Fooba Wooba,clothes
12.9699191,77.646059,4.47820129525387,,financial
12.970245,77.6461947,4.480739458498174,Hoodi Center,home furnishing
12.9702305,77.6460321,4.464500530206614,Incaa Studio,home furnishing
12.9705657,77.6471693,4.57051031655502,Cafe Coffee Day,cafe
12.9706589,77.6472567,4.576492977161785,Indian Bank,financial
12.9705618,77.6470848,4.561897154535455,Cream Stone,cafe
12.9705748,77.6468421,4.5363651395830304,Fossil,watches
12.9705827,77.6466825,4.519601914863617,Kosh,home furnishing
12.9705826,77.6458859,4.437337213060238,Upar Hotels,lodging
12.9705356,77.6456552,4.415148784893324,Watch Station International,watches
12.9702611,77.6450652,4.364010005471106,State Bank of India,financial
12.9702598,77.6451261,4.370311161906657,State Bank of India,financial
12.9702063,77.64475,4.33361271550055,apple of my i,clothes
12.9702094,77.6440181,4.258505608471136,Theobroma,cafe
12.9647167,77.5965668,2.298199058282306,Nikhaar,jewellery
12.9677866,77.6002508,1.8149029778640826,ICICI Bank,financial
12.9677649,77.6002064,1.8190287773788518,Arya Bhangy Hand Carved Doors,home furnishing
12.9676062,77.5999991,1.8442103426429381,Chai PPoint,cafe
12.9675244,77.5998954,1.8570887641299187,Vijaya Diamonds & Jewels,jewellery
12.9675509,77.59993,1.8528697656812736,Rajatha Jewellers,jewellery
12.9674835,77.5998288,1.8641921506543884,Rajarathnam's Jewels,jewellery
12.9674571,77.5997967,1.8682977985467413,Faasos's,food service
12.9647402,77.5963093,2.309640550908395,Pratibha,jewellery
12.9651732,77.5956922,2.302498606616014,Entice,jewellery
12.9653277,77.5956147,2.292381134230631,OTS Officetech Systems Pvt Ltd,home furnishing
12.9668801,77.599278,1.950058462615353,Indian Overseas Bank,financial
12.9679204,77.6007908,1.7786903724160479,Herman Miller,home furnishing
12.9736889,77.6112977,1.117075311383989,Cafe Coffee Day,cafe
13.0033773,77.6295176,3.3556242943923857,,grocery
13.003513,77.6295457,3.368163291189717,,grocery
12.9759239,77.5749981,3.538601481667545,R. P. Kamat's,food service
12.9766765,77.5777178,3.232854576706512,Sukh Sagar,food service
13.0014136,77.628881,3.1581440035029122,HDFC Bank,financial
12.998073,77.6282625,2.873508445081916,HDFC Bank,financial
13.0076007,77.5710725,4.762732378598576,Shree Yummy's Palace,food service
13.0015949,77.6301221,3.273639570450232,Saravana Store,grocery
13.00157,77.6315189,3.38967621462919,Bharat Petroleum,fuel
13.0019536,77.6319019,3.448655310069739,Nisha Supermart,grocery
13.0016726,77.6305078,3.311356029593372,Sri Murugan,grocery
13.0016824,77.6305565,3.3161260466505884,Guru Darshan,food service
13.0019219,77.6317445,3.433083363550754,Spark,clothes
13.0019326,77.6317974,3.4383180849551755,ICICI Bank,financial
13.0017248,77.632187,3.4574146423599745,South Indian Bank,financial
13.0014363,77.630759,3.3159245792494776,Reliance Fresh,grocery
12.9965093,77.6278623,2.7380070228592084,,place of worship
13.0055578,77.5711662,4.626262106048308,Karur Vysya Bank,financial
13.0055552,77.5708738,4.652643713874096,South Indian Bank,financial
13.0026027,77.6288762,3.246079646737952,,place of worship
12.9826791,77.61051,0.392260987013954,Khan Saheb Grills and Rolls,food service
12.9816001,77.6101732,0.37871910450975593,Wrangler,clothes
12.9819526,77.6103232,0.38286047709372883,Moksh Studio,clothes
12.9817301,77.6104468,0.4022904721030641,Moksh,clothes
12.9813006,77.5972585,1.0564376943931835,ATM,financial
12.9707119,77.6072217,1.3413894362846246,Iris Business Hotel,lodging
12.9779131,77.6328957,2.869012854488026,Hotel Dil Coorg,food service
12.9728596,77.6347745,3.2160410118503244,Safa Super Bazar,grocery
12.9942736,77.5715823,4.033842651493047,Al Bek,food service
12.9843074,77.5913805,1.6892576248276967,Muscle Power Exhibit,attraction
12.9622425,77.6448007,4.699407048893604,Little Orissa,food service
12.9741014,77.6448996,4.2297211561988455,Nilgiris 1905,grocery
13.0125912,77.5823361,4.251206737024331,GTS Baseline Survey Point,attraction
13.0005533,77.6233992,2.666263013773795,Canara Bank,financial
12.9706578,77.5975349,1.6858126028240088,SodaBottleOpenerWala,food service
12.970711,77.5975435,1.680528103245213,The Fatty Bao,food service
12.9708508,77.6474894,4.594393631615304,Lazy Suzy,cafe
12.9765168,77.6029754,0.8146383942567614,Dasaprakash,food service
13.0056797,77.5806627,3.816354454697893,Nature's Basket,food service
12.9787278,77.6435358,3.995960618398065,Onestà,food service
12.9449935,77.6288015,4.825205176372209,Sriram Temple,place of worship
12.9476948,77.600799,3.9557649896000977,Sri Maramma Temple,place of worship
12.9487921,77.6009276,3.833141749270509,Bharathi Restaurant,food service
12.9489334,77.6001044,3.8337625192673284,Axis Bank,financial
12.9484634,77.5989705,3.9101861179577893,State Bank of India,financial
12.9482223,77.5990903,3.933535887286287,Srs English Nursery School,education
12.9446297,77.6289275,4.867147622862436,Axis Bank,financial
12.9447067,77.6289232,4.859459584978872,,jewellery
12.9448343,77.6289279,4.847357102802555,,clothes
12.9462204,77.6289455,4.714803796348358,JJ Footwear,shoes
12.9459822,77.6289502,4.737912249862528,Royal Fast Food,food service
12.9461467,77.6289446,4.721820730815177,,grocery
12.945821,77.6289508,4.753430109980634,Ashok Textiles,clothes
12.9453821,77.6289419,4.795196844148294,Bob's Chinese Fast Food,food service
12.9457828,77.6289521,4.757172944404254,Hari Jewelers,jewellery
12.9455457,77.6289451,4.779606316205413,TMS Provision Stores,grocery
12.945121,77.6289356,4.820052542904571,Fashion Point Cloth Store,clothes
12.9451981,77.6289343,4.812538066613004,New Hindustan Furnitures,home furnishing
12.9451555,77.6289394,4.816925080879945,Public Distribution Shop,grocery
12.9450345,77.6289388,4.828580753184249,Karur Vysya Bank,financial
12.9631001,77.6057848,2.1905861032454093,Siddiqu Kabab Center,food service
12.9985096,77.5700901,4.354491548790246,State Bank of India,financial
12.9792577,77.6415104,3.7714137447164218,Indian Biryani,food service
12.9792663,77.6417619,3.7984207587206953,Halli Mani Rotti,food service
12.979242,77.6414173,3.7615622988544386,Chaithanya,food service
12.9789941,77.6416035,3.7845897076586748,Karnataka Bank,financial
12.97927,77.6427877,3.9089586449374916,Tumkur Grain Merchants Co-Operative Bank LTD,financial
12.9790839,77.6438666,4.027352120169685,Juice Junction,food service
12.9790622,77.6438679,4.02773876611697,Kia,clothes
12.9790633,77.6439187,4.0332017120749475,Rose of Sharon Nursery School,education
12.9790601,77.6435992,3.998802458393566,,financial
12.9793159,77.6440332,4.042775498961908,Bogineni,clothes
12.9793184,77.6435354,3.9890578558038934,Hotel Orange tree Residency,food service
12.9792765,77.6431666,3.9497404970953376,Nilgiri's,grocery
12.9792948,77.6433912,3.9737607160757307,Rakum school for blind,education
12.9793017,77.6436594,4.002610181002119,Spoonful Sugar Pastisserie & cafè,cafe
12.9793306,77.6443452,4.076276143772444,The National Co-Operative Bank Ltd.,financial
12.9793201,77.6442365,4.0646604168595655,,financial
12.978647,77.6414574,3.773355812599545,ICICI Bank,financial
12.9786993,77.6414547,3.7723626531324443,Kotak Security,office
12.9785974,77.6411945,3.7457621224940327,Paradise Biryani,food service
12.9787019,77.6411945,3.744339450450188,Zucco Restro Bar,bar/club
12.9790201,77.6419756,3.8243450185288386,Coorg Restaurant,food service
12.9788423,77.6418328,3.8111816993826224,Karnataka Bank,financial
12.9789992,77.6424343,3.874005098150737,,clothes
12.9790044,77.6421218,3.840282299148109,,lodging
12.9792481,77.6421915,3.8449324582588766,Punjab Khazana,food service
12.9785431,77.6415119,3.7806373955307873,Cacoons Fashion,clothes
13.0014995,77.6308859,3.331047469002037,Canara Bank,financial
13.0016891,77.6297661,3.25084367224075,Sri Murugan,grocery
13.0016102,77.6313676,3.3795552568125036,New Ambur Hot Dum Biryani,food service
13.0015192,77.6309522,3.3380246017763087,Singapore Bazaar,clothes
13.0022213,77.6295524,3.2720343986136284,NFS,grocery
13.0030529,77.6294349,3.324510042318106,,grocery
13.0015756,77.6290245,3.181698881956572,Janatha,clothes
13.0014203,77.6289872,3.167321576377409,Ajanta,clothes
12.9821023,77.6318122,2.7013021236955064,Byel Anjaneya Swamy,place of worship
12.9814424,77.6288865,2.3878487629372667,Christ Grace Church,place of worship
12.987086,77.6189974,1.3967446813630904,Shanti Sagar,food service
12.9748439,77.6083535,0.8955847599195804,Kotak Mahindra Bank,financial
12.9750054,77.6076001,0.8669069335820863,Pantaloons,clothes
12.9691128,77.6415527,4.05122767126734,Bloomrooms,lodging
12.9815735,77.6364824,3.209074365751646,Beer Joint,bar/club
12.9613262,77.5820185,3.598573932457263,,place of worship
12.9624777,77.5786534,3.8018227093438237,,place of worship
12.9615699,77.5804526,3.7100689858066205,Government School,education
12.9787711,77.6365491,3.2441887120530963,The Kabab Company,food service
12.9664471,77.5945707,2.2531943228788753,State Bank ATM,financial
12.9750833,77.6517316,4.933293848634168,Sree Manjunatha Stores,grocery
12.9725024,77.6508886,4.90217966664667,Axis Bank,financial
12.9725784,77.650926,4.9041601598997735,Shiva Temple,place of worship
12.9815363,77.5955973,1.231381559577793,,financial
13.0033921,77.5783685,3.8481134640267087,Pakvan,food service
13.0041697,77.5822694,3.574672394637111,HDFC Bank,financial
12.9476142,77.5797544,4.8917271998911875,Meera Delicacy,food service
12.9772383,77.5752995,3.4779015898635417,Karnataka Bank,financial
12.9773643,77.5747535,3.5337338195748296,Kotak Mahindra Bank,financial
12.9717607,77.6414138,3.9359670061844305,,financial
12.9664528,77.6371221,3.7447000573904448,,financial
12.9416121,77.6172504,4.71232061978797,,financial
12.9411724,77.6172571,4.7599912609611525,Ksheera Sagar,food service
12.940484,77.6183624,4.8636347756121765,,financial
12.9414316,77.6174359,4.7366249764494395,,financial
12.9665259,77.5670902,4.67568195805062,Godwin English School,education
12.9702478,77.6357689,3.424937133516306,Suryawanshi,food service
12.9663581,77.5845939,3.027858074014013,,place of worship
12.9668651,77.5849748,2.9610111179791767,,place of worship
12.9660921,77.5845202,3.052117044471107,,place of worship
12.9679842,77.578539,3.484431305414127,Karu Pakula Jewellers,jewellery
12.9681084,77.5786114,3.4710075577872765,Shoba Jewellers,jewellery
12.967911,77.5786751,3.47529915228899,Sri Kalki Jewellers,jewellery
12.9680476,77.5787462,3.461312584234267,Vajra Mahal,jewellery
12.9680202,77.5787717,3.460321660358422,State Bank of India,financial
12.9732665,77.6384811,3.5823740147887926,Adi Shakti Yelamma Temple,place of worship
12.9695741,77.6459441,4.478828571214608,Tiffin,food service
12.9704741,77.6420782,4.0504887495055755,D'zoa,clothes
12.9744534,77.6388972,3.5892187292960713,Sri Raghavendra Darshini,food service
12.9875355,77.6190745,1.4224417176515864,,food service
12.9875472,77.6189672,1.4121474541034083,Lake View Supermarket,grocery
12.9875826,77.6188927,1.4061640752495483,Moritz Nano Restaurant,food service
12.9771924,77.6387974,3.512387398142055,,financial
12.967557,77.6061228,1.6937662105859648,Nanak,food service
13.00579,77.5932698,2.954587168261796,Axis Bank,financial
12.9908548,77.6192753,1.615096844400344,Watson's Ulsoor,bar/club
12.9908261,77.6193188,1.6172452550342233,Cafe Thulp,cafe
12.9991564,77.6157298,2.05833129966102,Hides Inc,shoes
12.9645114,77.638624,3.993187406250846,Casa Fresco by Tea Brew,food service
13.0053566,77.5712414,4.6072151955508485,Oye Lassi,cafe
13.0148535,77.6336331,4.595788670737439,Maha Bazar,grocery
13.0054082,77.5691051,4.805926496639127,Udupi Upachaar Veg,food service
12.9776666,77.6364638,3.2542004209606854,State Bank of India,financial
12.9706982,77.6460611,4.451523490129953,mahuva,attraction
12.9694804,77.6457024,4.457537091203302,jaamun,attraction
12.9783518,77.6352342,3.1101490600324424,Bandhan Bank,financial
12.9784182,77.6354528,3.13239010718787,Titan,grocery
12.9783586,77.6363142,3.225638842081276,New Shanthi Sagar,food service
12.9783915,77.6357076,3.160126190272907,Health & Glow,grocery
12.9780992,77.6349978,3.089458810249553,Celebrations,grocery
12.9777187,77.6333365,2.920017544477883,Satin Soft Salon and Boutique,clothes
12.9779357,77.6332748,2.908899682386717,Sri Krishna Akarshan Boutique,clothes
12.9464631,77.6260381,4.539181365108538,A.K.M Plaza,lodging
12.9769262,77.631936,2.7904599586748704,Anniyamma temple,place of worship
12.9772166,77.631572,2.744671478986057,ICICI Bank,financial
12.9581905,77.6169398,2.9421352554792697,Reliance,education
12.9675377,77.6062098,1.6954731316089595,Reebok,clothes
12.9685412,77.606131,1.5844230892193574,Brigade Dreams,food service
12.9718911,77.6066836,1.2099983895125965,Chariot,food service
12.9720568,77.6067921,1.1914128784860518,Dunkin',food service
12.9722398,77.6068828,1.1710163485577079,Tibet Bazaar,clothes
12.9729346,77.6357245,3.310167472606028,Laban Palace,food service
12.9733837,77.6360035,3.322688188528874,Srinidhi Sagar Foodline,food service
12.9728794,77.6357245,3.312200993450869,Rayaru's Kitchen,food service
12.9731905,77.6359606,3.3250969222553617,Byte,food service
12.9727077,77.6347589,3.2202840629653866,Sri Kolluru Mookambika Temple,place of worship
