Landmark Latitude,Landmark Longitude,Distance,Landmark Name,Property Type
13.0145165,77.5678632,1.6178856722287562,,financial
13.014655,77.5678658,1.603043178149175,,financial
13.0476857,77.5742994,2.150073720513591,Big Bazaar,grocery
13.0383199,77.5646766,1.358886953971927,,fuel
13.0275857,77.571661,0.10909072658762904,,financial
13.0322135,77.5698943,0.48007757055832134,Indian Oil,fuel
13.0425174,77.614002,4.800521891117597,Hotel Garden,food service
13.0376617,77.5352197,4.123940027579989,,financial
13.0492109,77.547547,3.5204973584098904,Kamat Nandanvan,food service
13.0047512,77.5650939,2.7443169834122467,State Bank of India,financial
13.0056248,77.5622366,2.7557336778977337,Axis Bank,financial
12.9985927,77.5687751,3.34153311409781,The Malleshwaram association,bar/club
13.0483161,77.5520608,3.0956189627135244,Ekadanta Temple,place of worship
13.0483946,77.5426609,3.8832024036266652,Dosa Camp,food service
13.0151185,77.5681179,1.5458864885605912,Centre for Product Design and Manufacturing (CPDM),education
13.0132383,77.5686174,1.7350598160277049,CiSTUP,education
13.0155209,77.5681206,1.5028869263595717,Interdisciplinary Centre for Energy Research,education
13.0158581,77.5683888,1.4587331961443564,Interdisciplinary Centre for Water Research,education
13.0164088,77.5682496,1.4043762394787525,Organic Chemistry,education
13.016856,77.5682738,1.3561704784084523,Inorganic and Physical Chemistry,education
13.0173833,77.5659752,1.399876825736282,Central Purchase and Stores,education
13.0138091,77.5668973,1.7247650609976073,Physics,education
13.0171773,77.5648502,1.4809582983333425,Insdoc,education
13.0169379,77.5645125,1.5230223833259247,Canara Bank,financial
13.0186339,77.5709242,1.1009743988855654,Electronic Systems Engineering,education
13.0175447,77.5700198,1.2354210730481225,Joint Advanced Technology Programme,education
13.0185648,77.5645301,1.3730589967732174,Amenities Hall,education
13.018047,77.5649882,1.39157774221464,Tata Memorial Club,education
13.0362217,77.5663481,1.063691267286376,Chikkamaranahalli,transportation
12.9907411,77.5577577,4.47363905616694,Navarang Bar,bar/club
12.9955258,77.5717703,3.663260635227329,Hallimane,food service
12.9931291,77.5715961,3.9299664817405,New Krishna Bhavan,food service
12.9932258,77.5717309,3.91903882464024,Sri Krishna Lodge,lodging
12.9931208,77.5710734,3.932083219695535,Sampige Theatre,cinema
13.0055704,77.5713507,2.547471189597626,Adiga's,food service
13.0024438,77.5838636,3.1620532749881765,Pav Bhaji,food service
12.9967798,77.5404068,4.919932681731176,Indian Oil,fuel
12.9966627,77.5400464,4.956544531476073,Bharat Petroleum,fuel
12.9965228,77.5423272,4.79817516607965,St Charles High School,education
12.9974545,77.5403023,4.874474132326373,Fresh@Heritage,grocery
13.0361795,77.5317658,4.452746612997046,Fair and Fair,grocery
13.0452298,77.547996,3.2080518593357303,Jalahalli Village,transportation
13.0468252,77.5494119,3.194809127036328,Ganesh Upahara,food service
13.0492252,77.5474051,3.5331636141188296,Nilgiris,grocery
12.9990578,77.5695202,3.282265846972263,State Bank of India,financial
13.0281613,77.5732067,0.12468982492394197,Polar Bear,cafe
13.02807,77.5729018,0.0975406492903883,Hav Mor,food service
12.9972514,77.541656,4.788301781379127,,grocery
13.0493097,77.5928667,3.2297446853423653,Canara Bank,financial
12.9971601,77.5974721,4.435750052394951,Formula III Bar,bar/club
12.9932643,77.5957899,4.680931525802444,Nandhini Andhra Hotel,food service
13.0045673,77.5710992,2.65992764352357,Cafe Coffee Day,cafe
13.0042882,77.5710889,2.690981847570813,Reliance Fresh,grocery
13.0064539,77.5780313,2.530876326906581,Stella Maris School,education
12.9930635,77.5959522,4.70924631603432,Pai Vihar,food service
13.00559,77.570496,2.5499253847423353,HOPCOMS,grocery
13.0061977,77.5693737,2.4939745522688765,Reliance smart@Malleswaram,grocery
13.0096888,77.5624992,2.3329211180847413,Bharat Petroleum,fuel
12.99695,77.5679373,3.5336172664527004,ICICI Bank,financial
13.0045524,77.5711963,2.661175376137023,Papa John's,food service
12.9901236,77.5722985,4.263838256234637,Vishnu Sagar,food service
12.9898878,77.5726957,4.290489423171243,Sangeeth Bar and Restaurant,bar/club
12.9940976,77.571267,3.822960159538125,ICICI Bank,financial
12.9933312,77.57187,3.907194398887316,Corporation Bank,financial
12.9953279,77.5712934,3.6861276571605477,Kolkata Chaat,food service
13.0192135,77.5572955,1.9056109230921314,Emirates,food service
13.018555,77.558819,1.8125279617505918,State Bank of India,financial
13.0081521,77.5716854,2.259552254155005,Sri Ayyappa,place of worship
13.0034478,77.5673384,2.8296169808483302,Jayanti Apartments,residential
13.0045938,77.5669909,2.711855177080047,Maithree Apartments,residential
13.0397585,77.5555028,2.192848895605676,City Supermarket,grocery
13.0400303,77.5555993,2.2017937205676126,Spencers Daily,grocery
13.0436252,77.5536883,2.6111994513952577,Hindustan Petroleum,fuel
13.0460808,77.5460984,3.4306003512691547,Sharadambal Temple,place of worship
13.0466974,77.5440647,3.651281779254424,Raghavendra Temple,place of worship
13.0521546,77.5515881,3.4458418339548404,Bharath,food service
13.051811,77.5517989,3.4019231587978154,Kadamba Veg,food service
13.026313,77.5845772,1.3728032006311925,National Bureau of Agriculturally Important Insects,education
13.0489683,77.5440769,3.7962039340087665,Durga Restaurant,food service
13.0016893,77.5694475,2.991568906118016,Bank of India,financial
13.0016506,77.5694522,2.995803487356422,Bank of India,financial
13.0011737,77.5683395,3.0622878229334205,B. P. Indian,education
13.0041002,77.5713906,2.71074603373108,Udupi Sri Krishnarajathadri,food service
13.0457661,77.5416305,3.8202135238694104,Father Mathews School,education
13.0333714,77.5689251,0.6445715189405179,IndusInd Bank,financial
13.033237,77.5690007,0.6275630896287205,ING Vysya,financial
13.0330093,77.5691944,0.5949607696341074,Nandini Palace,food service
13.0330766,77.5694147,0.5891835470494492,Denizen,clothes
13.0330896,77.569359,0.5934369839342484,Beijing Bites,food service
13.033163,77.5691004,0.6148512387664526,World of Titan,watches
13.0331351,77.5691098,0.611679853716708,Van Heusen,clothes
13.0335167,77.5691031,0.6484267262045259,Bata,shoes
13.0332457,77.5692878,0.6123281157546827,Koutons,clothes
13.029151,77.5709378,0.14697656534580958,McDonald's,food service
13.0292165,77.5709225,0.15225074432792152,Onesta,food service
13.00654,77.5692833,2.457381325603646,Chung's,food service
13.0068052,77.5645334,2.5445284728021145,Reliance Fresh,grocery
13.0085194,77.5688573,2.2459066298359818,HDFC Bank,financial
13.0092653,77.5621798,2.3905213822038553,Vani Vilas,education
13.0077753,77.5637631,2.4719114665295487,Ganesha,place of worship
13.0218399,77.5349348,4.093149337398614,Sher-e-Punjab Dhaba,food service
13.0273219,77.5389577,3.592642050336241,,food service
13.0266571,77.5391304,3.5773501067972577,Raju Samosa,food service
13.0067269,77.5640344,2.570641723353775,Sai Chats,food service
13.0220281,77.5340657,4.182161661416187,Adarsh Dhaba,food service
13.0266169,77.5346987,4.0570023434317495,,financial
13.0055316,77.56985,2.562112530080447,UCO Bank,financial
13.0055316,77.569732,2.563360271320648,,financial
13.0098299,77.5623705,2.3251747920984642,Cafe Coffee Day,cafe
13.0029248,77.5663029,2.9089579265188505,Ganesha,place of worship
13.0018944,77.5665182,3.0161698357281943,Shamrao Vittal Cooperative,financial
13.0011328,77.5691982,3.0558288056978347,Kotak Mahindra Bank,financial
13.0010742,77.569202,3.0622681025556817,,financial
13.0369119,77.5659032,1.15413921269072,Shanthi Sagar,cafe
13.038095,77.569086,1.1190772530639181,RMV Club,bar/club
13.0380165,77.5693434,1.1028569463557427,RMV Club,food service
13.0084832,77.5692697,2.2433407473343965,Syndicate Bank,financial
13.0085354,77.5694521,2.2349689955530856,Syndicate Bank,financial
13.0342258,77.5691996,0.7131004487943431,Reliance Fresh,grocery
13.0342347,77.5693249,0.7081208376889012,Hunan Chinese Restaurant,food service
12.9998952,77.5648773,3.272166334842161,Grace Church,place of worship
13.0162478,77.5648911,1.5673283823032718,Kabini Canteen,food service
13.0183173,77.5645529,1.3937788096458117,State Bank of India,financial
13.0372579,77.566121,1.1724492256383676,Chicken County,food service
13.0290015,77.5615609,1.1432418711429824,Reliance Fresh,grocery
13.0189986,77.5571289,1.9337345179438443,,place of worship
13.0193749,77.5553156,2.0805652224325724,Jamia Masjid,place of worship
13.0184079,77.5707285,1.1285342621398198,Computer Aided Design Laboratory,education
13.0187468,77.5569804,1.962530572435943,Sri Gayathri Devi Temple,place of worship
13.0369962,77.5573938,1.853944943320096,Mathikere Masjid,place of worship
13.0243423,77.5671642,0.7045762223931785,,grocery
13.0240917,77.5625862,1.1397829159513682,Saint Sebastian Forane Church,place of worship
13.014482,77.5761323,1.6154447925989108,International Buddhist Seminary,place of worship
12.994359,77.5711764,3.7941480874486095,Rasa,food service
13.0046678,77.5714458,2.6474909569286202,Sai Baba Temple,place of worship
13.0282488,77.5717997,0.04068246080500529,Sri Ganesh Darshan,food service
13.0245647,77.5783085,0.8005325719941248,RRI Hostel,education
13.0275961,77.5766293,0.5001939523125086,Freska,food service
13.0068412,77.5789439,2.516582110153268,,food service
13.0280015,77.5715786,0.07672918827661519,Pizza Hut,food service
13.027204,77.57712,0.561739832066011,Hammered Exchange,food service
12.991491,77.5941489,4.755291657171983,Miller's 46,food service
13.0076434,77.5779662,2.4013024319447234,,financial
13.0070953,77.5787894,2.484661813156104,Mint Masala,food service
13.0067463,77.5788817,2.524698774255303,,financial
13.0060748,77.5788458,2.5951276123038345,Bharath Petroleum,fuel
12.9885568,77.5923112,4.948816974184748,Canara Bank,financial
12.9888226,77.592415,4.927341981765121,HDFC Bank,financial
13.0074751,77.5793045,2.461420297006817,State Bank of India,financial
12.9848514,77.570647,4.852579238616962,,place of worship
12.9848155,77.5707656,4.856169574076945,Chamundeshwari Temple,place of worship
12.9857544,77.570503,4.752766473940219,,place of worship
12.9863991,77.5707542,4.680200547149132,,place of worship
12.9884301,77.5713911,4.452754588104695,Mariyamma temple,place of worship
12.9887069,77.5708345,4.423438461861317,Temple,place of worship
12.9895905,77.5708543,4.32516742405024,Sri Jada Muneshwara Swamy Temple,place of worship
12.9908918,77.5696342,4.1868940591890125,Muttumariyamma temple,place of worship
12.9922759,77.568733,4.040955583834741,Anjaneya temple,place of worship
12.9921674,77.5683888,4.056497275890733,Deccan school,education
12.9917534,77.5680966,4.105531364110549,Rama Temple,place of worship
12.991587,77.5684205,4.120388377454328,Anganavadi,education
12.9921317,77.569768,4.048383436659118,Om Sakthi Temple,place of worship
13.0140892,77.5760778,1.655990570453547,Nagasena Vidyalaya,education
13.0139649,77.57891,1.7734992574334543,State Bank of India,financial
13.0077699,77.5794951,2.437064048583988,Punjab National Bank,financial
13.0076197,77.5793977,2.4494170741247907,Cafe Coffee Day,cafe
13.0071676,77.5790958,2.4868879763827487,Bank of Baroda,financial
13.0080052,77.5796762,2.418956204122394,Karnataka Bank,financial
13.0080972,77.5797261,2.4111827153217367,Syndicate Bank,financial
13.0089647,77.580665,2.358923235070107,Advanced Animation Academy,education
12.9967968,77.6045046,4.972717812636871,Family Super Market,grocery
12.9993627,77.6008367,4.490807045181143,Indian Bank,financial
13.0016562,77.596687,3.9980428448082344,Kara4Kids,education
13.0014631,77.5983593,4.136529020279938,Syndicate Bank,financial
12.9998077,77.5996733,4.368130157276305,More,grocery
12.9969644,77.6041292,4.930830001569362,Arafa Stores,grocery
13.0143993,77.5835124,1.9940316741808826,Standard Chartered,financial
12.9851989,77.5794229,4.8763625891481155,Sana Di Ge,food service
13.0075715,77.5793658,2.453379379949085,Pure & Natural,cafe
13.0068783,77.5790907,2.5173792235565267,New Shanthi Sagar,food service
13.0144093,77.5736842,1.5727319515253977,Nikki's Pub & Restaurant,food service
13.014268,77.5737154,1.5887196943467388,Sri Balaji Stores,grocery
13.0137034,77.5816225,1.939046939308565,Light and Matter Physics,education
13.0133937,77.58161,1.967581664094857,RRI Library,education
13.0145591,77.5608745,1.967516459697299,Student Amenities Center,education
13.0152294,77.5628328,1.781887197467815,Pavillion,food service
13.0179477,77.5661498,1.3357140857654266,Student Council Office,education
13.0169402,77.5641412,1.5448905426496056,U-Block,lodging
13.0163759,77.5651518,1.5410037922166553,Hostel Office,education
13.0129211,77.5690015,1.761101013918625,Society for Innovation and Development,education
13.0261316,77.5379964,3.703656081534098,Samosa,food service
13.0281211,77.5360606,3.9044141839756747,Hotel Madeshwara,food service
12.9893411,77.5929583,4.902677745242317,A Masala House,food service
13.0270252,77.5348756,4.035799194571905,,fuel
13.0249229,77.5928698,2.284365619787224,UCO Bank,financial
13.0256109,77.5931302,2.300344247610023,Levi's,clothes
13.0259675,77.5932154,2.304363203957637,RT Nagar Public Library,education
13.0248113,77.5934442,2.3478012270233615,Vijaya Bank,financial
13.0254978,77.5931058,2.2994998214649347,Andhra Bank,financial
13.0260757,77.5932346,2.3050076429137256,Reebok,clothes
13.0273116,77.5934753,2.319238942169295,Kabab Manor,food service
13.0249491,77.5926439,2.2597578524211284,Citibank,financial
13.004966,77.5714462,2.6143434819647684,Kadu Malleshwara Temple,place of worship
12.9972009,77.540616,4.870605447516382,Pizza Hut,food service
12.984036,77.577955,4.9812525695644405,Hotel Raceview,lodging
12.989096,77.572253,4.3780792824871,Hotel Swathi,lodging
12.9850452,77.579248,4.8901896587106615,Nalapad's Hotel Bangalore International,lodging
12.9848493,77.580868,4.942413098676276,37th Crescent Hotel,lodging
12.9995896,77.5409326,4.659769716620036,Shri Avani Shankara Matha,place of worship
12.9994929,77.5989568,4.341331906040424,ICICI Bank,financial
13.0015628,77.5993592,4.203868591234017,Elements,food service
12.9996131,77.597031,4.194115500128853,Jayamahal Shani Mandir,place of worship
13.0301779,77.5708089,0.23595891435961236,Paratha Shop,food service
13.0302354,77.5705086,0.2613525228862736,Barista,cafe
13.0592352,77.5939566,4.160474319305377,Green Country Public School,education
12.9856254,77.5788885,4.820402856906666,Hotel Janardhan,food service
12.9910826,77.5789046,4.222013288836999,Gandhi Nagar High School,education
12.9916942,77.5457901,4.98456735628069,Indian Oil,fuel
12.9853569,77.5792692,4.856337461605983,Kabab Studio,food service
12.9853129,77.5792466,4.860776485632585,Goldfinch Hotel,food service
12.9993806,77.5685062,3.2577997212702265,Villa Pottipati,lodging
13.0008128,77.5701799,3.0822254478142748,Ubhaya Vedanta Pravarthana Sabha,education
13.0016752,77.570255,2.9860009139162127,Krishna Temple,place of worship
13.000358,77.5701424,3.1329558612383788,Mahaganapathi Temple,place of worship
12.9987847,77.5742462,3.308894637201797,Dattatreya Temple,place of worship
13.013523,77.5696919,1.682238296915389,KSCST Library,education
13.0155366,77.5687483,1.483118203242243,Society of Biological Chemists,education
13.0058088,77.564786,2.641319287518197,Cafe Coffee Day,cafe
12.9982568,77.5694946,3.3712491686655275,Shree Sagar CTR,food service
13.0020924,77.5702335,2.9398753326486986,Vidya Mandir School,education
13.0047163,77.5755228,2.667057069190712,Ram Mandir,place of worship
13.0073402,77.5764133,2.395410487713824,Gayathri Devi Temple,place of worship
12.9950213,77.5964919,4.562439986620217,,fuel
12.9955696,77.6017708,4.869893696171089,,financial
13.0088749,77.563252,2.380271059555932,,food service
13.0077909,77.564002,2.46095201714893,,grocery
13.0092904,77.5614979,2.4221736363718613,Nirmala Rani High School,education
13.0078203,77.5639866,2.4584939126365666,,grocery
13.0069619,77.5644724,2.53018986898577,,grocery
13.0067371,77.5643678,2.5575181606505546,,clothes
13.0043093,77.5653307,2.7847048056253354,Homely Organic,grocery
13.0038729,77.5653254,2.831695115975598,,grocery
12.9984695,77.5692319,3.3502011978760002,,jewellery
12.9986733,77.5692346,3.3276106925436184,,grocery
13.0009705,77.5696315,3.0693349313166154,,jewellery
13.0009296,77.5723686,3.0623499980403777,Food Camp,food service
13.0010829,77.5721394,3.0451683785693424,Sri Sai Dosa Center,food service
13.0018529,77.5671939,3.006891863995316,Amrut Ice-cream,food service
12.9897809,77.5880062,4.6342285365554154,NGMA Cafe,cafe
13.0317411,77.611461,4.279567683252278,,financial
13.0301367,77.6079311,3.8861109309695587,,fuel
13.0328487,77.6065077,3.7591451047012345,Ganesh Temple,place of worship
13.0303875,77.6079607,3.8907415484404853,Reliance Fresh,grocery
13.0365701,77.6064886,3.8327327835636784,,education
13.0236679,77.592064,2.2276995695685264,Nilgiri's,grocery
13.0231839,77.6004176,3.12354776782452,Super Market,grocery
13.0252349,77.6054904,3.6351406011403253,More,grocery
12.9932729,77.5834746,4.103038879580467,Chief Minister's Guesthouse,lodging
12.999295,77.5680608,3.2733506397353476,Sai Shakti,food service
13.0565507,77.5474538,4.108328901013917,Ebenezer Marthoma Church,place of worship
13.0541469,77.549106,3.789058762610783,HMT Guest House,lodging
13.0511982,77.5526747,3.288728391242901,State Bank of India,financial
13.0474055,77.5445463,3.652814993389218,HMT Kinder Garden School,education
13.0478654,77.5442244,3.7108491009065157,Mallige School Of Nursing,education
13.0441027,77.5439669,3.5085679705797164,St. Claret PU College,education
13.043392,77.5451578,3.3573591605859145,Saint Claret School,education
13.0325342,77.5587342,1.51684777503302,State Bank of India,financial
13.0055106,77.5787567,2.652743047599397,Sri Udupi Swaadista,food service
13.0053709,77.5784808,2.659770340917705,Nilgiris,grocery
13.002535,77.578333,2.961712591828826,State Bank of India,financial
13.0022031,77.5783102,2.9971024984428514,Canara Bank,financial
13.0046183,77.5784554,2.739973378081423,Rajesh Hotel,food service
13.0695087,77.5561726,4.878686922277424,,financial
13.0695396,77.5627746,4.677254134720026,Bharat Petroleum,fuel
13.0637857,77.5593618,4.162430585110387,Kala Petrol Pump,fuel
13.0535251,77.5571463,3.222818958314959,BEL Guest House,lodging
13.0390205,77.5641654,1.4544565684705228,Kanti Sweets,food service
13.0374605,77.5657693,1.2124287740965276,Domino's,food service
13.0354798,77.5671533,0.9459997469346003,More,grocery
13.0341967,77.5682745,0.759866230361332,Punjab National Bank,financial
13.0321716,77.5699911,0.4708663010407206,Food Bay,food service
13.0320357,77.5700072,0.4568431842149389,KFC,food service
13.0314294,77.5702969,0.3827887814098849,Nandhini Deluxe,food service
13.0289717,77.5712245,0.11008901577171835,Casino,food service
13.0291118,77.5711201,0.12797510645296575,Sagar Samrat,food service
13.0277306,77.5717252,0.09156124746390967,Auntie Fung's,food service
13.0275503,77.5717855,0.10765162928084808,Cafe Coffee Day,cafe
13.0362481,77.5747038,0.9098609651240331,Atithi Satkaar,food service
13.0291835,77.5788862,0.7394696117440981,,fuel
13.029027,77.561291,1.172589126286711,,financial
13.0281022,77.5733848,0.14504994550939565,Cafe Coffee Day,cafe
13.0280717,77.5726462,0.07384239824129302,Corner House,cafe
13.0283015,77.5726596,0.06343038534121391,HDFC Bank,financial
13.0272537,77.5774582,0.5960046473427333,IDBI Bank,financial
13.0292314,77.5787817,0.7288159472937515,,financial
13.0285232,77.5716015,0.05432191107190738,Kwality BIg Bazaar,grocery
12.9973265,77.5403657,4.8797128787812865,Cafe Coffee Day,cafe
12.9972063,77.5402705,4.896465526836796,HDFC Bank,financial
13.0042469,77.550715,3.552688555089264,New Sagar Fast Food,food service
13.033232,77.5690512,0.6241816317254162,,financial
13.0287132,77.5713419,0.08648932813124503,Factory Outlet,clothes
13.0292581,77.5709969,0.14825634920442937,U.S. Polo Assn.,clothes
13.0301562,77.5705035,0.255173381121338,Peter England,clothes
13.0303271,77.5705126,0.268823401892378,Raymonds,clothes
13.0314598,77.5701089,0.39640229541625904,Levi's,clothes
13.0292976,77.5710254,0.14846555195327438,Flying Machine,clothes
13.0315031,77.5702476,0.39256207111414804,Reebok Kids Store,clothes
13.0319734,77.5699954,0.45148605740048825,Reebok,clothes
13.0293655,77.570961,0.15863003764284114,Nike,clothes
13.0296268,77.5707576,0.19422829899274938,Fastrack,watches
12.9970293,77.5539717,4.009813750548766,Shanti Sagar Hotel,food service
13.0061057,77.548344,3.578700729589584,Ganesha Temple,place of worship
13.0076084,77.5484003,3.46014699046248,Corporation Bank,financial
13.0075692,77.5484459,3.4594095881867943,HDFC Bank,financial
13.0062102,77.5484379,3.5633106299794743,,financial
13.0043024,77.5443072,4.035711912354428,Gudda Anjaneya Temple,place of worship
13.0080794,77.5469863,3.5415369554360523,Mahalakshmi Refreshments,cafe
13.0085603,77.5433815,3.818433832611977,Reliance Fresh,grocery
13.0087092,77.5433895,3.8081502487142362,Corporation Bank,financial
13.0086735,77.5428733,3.8562266796012485,Panchamukhi Ganesha Temple,place of worship
13.0085716,77.5426802,3.8798727828272255,Sri Dharmasastha Ayappa Temple,place of worship
13.0591093,77.5931284,4.098435957444188,Swathi garden,food service
13.0627642,77.5929313,4.431113377575489,SAFA,clothes
13.0566077,77.5930643,3.8662072985919105,Hindustan Petroleum,fuel
13.027249,77.5798112,0.8463347935431176,Paratha plaza,food service
13.0034363,77.5499517,3.674952273552383,Cafe 363,cafe
13.0045087,77.5525527,3.4033449252566044,Punyadhaama Raghavendra Mutt,place of worship
13.0345529,77.5758254,0.7877705397177693,Vijaya Bank,financial
13.0342969,77.5759809,0.7725013246583794,HDFC Bank,financial
13.0583621,77.5982875,4.369942551350515,Sharada School,education
13.0582262,77.5982124,4.353168972111128,Ganapati Temple,place of worship
13.0553886,77.6026165,4.459628594817866,Reliance Fresh,grocery
13.0585815,77.5988078,4.425169391931172,Daily Needs,grocery
13.0096385,77.5486843,3.2892631600197166,Abaran Jewellers,jewellery
13.0337321,77.5680068,0.734257626115496,State Bank of India,financial
13.0340331,77.5563802,1.8118458256653946,,financial
13.0092391,77.5478152,3.390247613944617,Little Lilly's English School,education
13.004565,77.549383,3.622400083159805,Blossom Prenursery,education
13.0044766,77.5534808,3.3445535715981674,,financial
13.0039772,77.5509235,3.5608831851015355,Cane Crush,food service
13.0057354,77.5543431,3.176573801981139,Varadaraja Petrol / Gas Station,fuel
13.0037708,77.5547591,3.32737609096045,Sri Vani Education Society,education
13.0238021,77.5494737,2.505491138638328,,fuel
13.0261017,77.5441522,3.039069653356715,Indian Oil,fuel
13.0272045,77.5435192,3.0994083263716368,Hindustan Petroleum,fuel
13.0271417,77.5438625,3.0625852943956597,Hotel Prabha International,food service
13.0370609,77.5744676,0.9892393743818021,Karnataka Bank,financial
13.0581797,77.5947625,4.115983768188456,Sanjay Food Junction,food service
13.0349108,77.5752718,0.7944813411415772,Axis Bank,financial
13.0363059,77.5748837,0.9221618525266766,Citibank,financial
13.0363843,77.5748622,0.9296521679450788,,financial
13.0359923,77.5749695,0.8924767730294917,State Bank of India,financial
13.0298437,77.5782954,0.6883755772625548,Corporation Bank,financial
13.0029824,77.5444696,4.122105335193002,Manjunatheshwara Temple,place of worship
12.9997052,77.54097,4.647979363038923,Sri Avani Shankar Mutt,place of worship
13.001119,77.5411129,4.529742256155503,Gautham College of Nursing,education
13.00091,77.5412684,4.532950295334476,Hamsa Sagar,food service
13.0000789,77.5409358,4.622187916819381,Anupama English School,education
13.0256971,77.5931352,2.2995761321814934,Punjabi Rasoi,food service
13.0263622,77.5930491,2.2815557125704053,Andhra Bank,financial
13.0265699,77.5866871,1.5943273429778084,ICICI Bank,financial
13.0266169,77.586655,1.5901952271147304,Indus Bank,financial
13.0249236,77.5927811,2.2748877768204214,Tiffin Centre,food service
13.0270037,77.5858396,1.4973589841624626,Gilma Store,grocery
13.0254514,77.593103,2.299946830398852,Emporium,clothes
13.023831,77.5929101,2.3126819124808615,UniverCell Store,grocery
13.0238887,77.5926095,2.279506075322656,Titan Show room,grocery
13.0233034,77.5928133,2.3163083142215446,New Shanti Sagar,food service
12.997825,77.5499844,4.165479551945048,Swati Deluxe,food service
12.9955579,77.5503454,4.352802737241822,Ranganatha Swamy Temple,place of worship
12.998275,77.550863,4.070091591271579,Gokul Vegetarian,food service
12.9980255,77.5499457,4.1496851462242095,My Looks,clothes
12.9963776,77.5514093,4.21402969657658,Health and Glow,grocery
12.9940551,77.5513325,4.439056608063289,Yesukrupalaya Church,place of worship
13.0006563,77.5683609,3.1190162060789315,Chinmaya Mission,place of worship
12.9966873,77.5723319,3.534023230056372,Domino's,food service
12.9950177,77.5716418,3.719915792602371,State Bank of India,financial
12.9978128,77.5712095,3.4101482756501786,Kanti Sweets,food service
13.0129095,77.5744479,1.748708740128833,,education
13.0233826,77.5508348,2.372121368390548,Canara Bank,financial
13.0234202,77.5508174,2.37295933131883,State Bank of India,financial
13.0233507,77.550854,2.3709504514872717,Union Bank,financial
13.030076,77.5593983,1.3875407517048346,New Sagar,food service
13.0300838,77.5593527,1.3925512619251867,Akshara Regency,lodging
13.0663685,77.5936278,4.816455840368988,Shell Ganesh Enterprises,fuel
12.9873383,77.5805314,4.663831545959002,Bharat Seva Dal,education
12.9869904,77.5786112,4.665819250137292,Canara Bank,financial
12.9876512,77.5799188,4.617080476410696,ICICI Bank,financial
12.9868232,77.5800176,4.709555447692886,Richie-Rich,food service
12.9867564,77.5795592,4.708080453599481,Shivananda Stores,grocery
12.9880363,77.5807735,4.593040379414693,Sindhi High School,education
12.9885341,77.5770137,4.4723278778565865,Cafe Coffee Day,cafe
12.9882804,77.5773698,4.505065568609151,Bharat Petroleum,fuel
12.9879409,77.5768491,4.535768980959006,Citibank,financial
12.9975797,77.5851079,3.7125838899783785,Opus,bar/club
12.9909647,77.5748146,4.180617018429081,Canara Bank,financial
12.9859821,77.5767419,4.7509925315290475,Jain Temple,place of worship
12.9877001,77.5782687,4.582267689710167,Park-n-Eat,food service
12.9865401,77.5772559,4.6955979140486575,Yadava College,education
13.0493139,77.5929981,3.2400095688068937,McDonald's,food service
13.0323102,77.5807282,1.0277042131885243,Shiksha Sagar High School,education
12.9891068,77.5938601,4.971394301298396,Chung's,food service
13.0055544,77.5630558,2.7298546007557234,Surya Nest Apartments,residential
13.026256,77.6062003,3.7023946283135496,Punjabi Dhaba,food service
12.987094,77.5784442,4.651724278215877,Bangalore Cafe,food service
13.0299644,77.5640792,0.884663925713694,Vijaya Bank,financial
13.0287613,77.5663599,0.6226692420445235,M S Ramaiah Library,education
13.0311311,77.5671433,0.6131514034356649,Nilgiri Men's Hostel,lodging
13.0311416,77.5676047,0.570497714023931,Triveni Ladies' Hostel,lodging
13.0288137,77.5659698,0.6651861822376083,M S Ramaiah Food Court,food service
13.0291001,77.5680818,0.44090601948956126,Ganesh Darshan,food service
13.0030523,77.5524729,3.536752072568675,Ganesha Temple,place of worship
12.9976921,77.5475818,4.332115602952739,Kadamba Veg,food service
12.9972835,77.5465706,4.435569479618185,KFC,food service
12.9989198,77.552547,3.909360313083308,Jalpaan,food service
12.9993994,77.5525068,3.8670347988766087,Axis Bank,financial
12.9991432,77.5710944,3.2626689109835674,Hotel Janatha,food service
13.0058689,77.571081,2.5154092226525515,Axis Bank,financial
13.0057102,77.5713559,2.5319160822667572,Sunil's,clothes
13.0037322,77.5653317,2.8466326803489785,Bajji,food service
13.0352818,77.5891227,1.9936549114079403,Canara Bank,financial
13.0566632,77.5930793,3.8721567315746994,Union Bank,financial
13.0614104,77.5930766,4.310522894670429,Raymond Shop,clothes
12.9969499,77.597413,4.450169941005491,Jayamahal Palace Hotel,lodging
12.999291,77.5671481,3.2884684620664997,Manjunatha Provisions,grocery
12.9992858,77.5670032,3.2916358643380645,Ganesha Provisions,grocery
12.9991395,77.5678347,3.2938340639724495,Safal,grocery
12.9993734,77.5669734,3.282578300963455,KT-26 Sriranga Apartments,residential
13.0297623,77.5697601,0.2914353589103424,Ogara,food service
13.0295828,77.571027,0.16986193767250587,Wow! Momo,food service
13.0367811,77.5660503,1.1330486129014559,Via Lucknow,food service
13.0282521,77.5729006,0.09003383896061233,Ice and Spice,food service
13.0353701,77.5752731,0.8408767018957335,Karnataka Bank,financial
13.0364505,77.5745807,0.9273315906442792,,grocery
13.0257883,77.5808222,0.9908154753328955,HDFC Bank,financial
13.0282258,77.5730112,0.10236179677260066,Frappy's,food service
12.9847317,77.578357,4.910357146903431,The Solitaire Hotel,lodging
13.0392207,77.6000536,3.2557045634480355,More,grocery
13.0391647,77.5991817,3.165696062908576,Mythri,grocery
13.0406643,77.6025627,3.5678065292420267,Marutham Green View Apartments,residential
12.9991423,77.5703749,3.266300457550547,Kannika Parameshwari Temple,place of worship
12.9972801,77.5609014,3.6741079264468213,Circle Ganapathi Temple,place of worship
13.0370746,77.5656715,1.1834960286939218,Maha Bazar,grocery
13.0594414,77.5928689,4.113743781637285,tuc inn,food service
13.0050766,77.5806041,2.759439722876947,Indian Bank,financial
12.9867912,77.5794891,4.702969564993253,Coastal Express,food service
13.0250549,77.546176,2.833950558004058,Andhra Bank,financial
13.024952,77.5463641,2.815325040804126,Axis Bank,financial
13.0240517,77.5479481,2.6621397716412707,Bank of Baroda,financial
13.0250934,77.5461198,2.839414882989707,Canara Bank,financial
13.023952,77.5481032,2.6477085227593173,Corporation Bank,financial
13.0248684,77.5465159,2.8003546612944743,ICICI Bank,financial
13.0252381,77.5459053,2.860384098907588,LIC (61U/CB-20),financial
13.0237386,77.5481786,2.644307408609768,State Bank of India,financial
13.024923,77.5464169,2.8101113745153268,Union Bank,financial
13.0138137,77.5694411,1.6548248489285011,Satish Dhawan Auditorium,education
12.9894357,77.5729477,4.341246915059789,Hotel Samrat Residency,lodging
13.0273009,77.5785761,0.7135110370464903,Madeena Masjid,place of worship
13.0255583,77.5797517,0.8898862245113129,Gurudwara,place of worship
13.0304259,77.569741,0.3356482901238513,Ghar ka Khana,food service
13.007947,77.5428561,3.90441689723757,Nilgiris,grocery
13.0298117,77.5783199,0.6901851114902612,,financial
13.0305385,77.5698806,0.3328150483702471,Darband,food service
13.0154424,77.5336289,4.412287562913224,,financial
13.0162263,77.5338798,4.358609957516281,,financial
13.0124501,77.5367215,4.2264156095479315,State Bank of India,financial
13.0123142,77.5371775,4.188127642798258,State Trading Corporatio Ltd.,office
13.0103477,77.5367403,4.328343365528201,HP Petrol,fuel
13.0117173,77.5553872,2.5976448199072655,Nando's,food service
13.0113691,77.5553953,2.6249426119153116,Toscano,food service
13.0106616,77.5553953,2.6824780881004298,Mainland China,food service
13.0321646,77.5765785,0.635840877995276,Reliance Fresh,grocery
13.0108687,77.5552043,2.6796161375927734,KFC,food service
13.0630099,77.582539,4.00381474092411,UCO Bank,financial
13.0630099,77.5825229,4.003322511247393,,financial
13.0581249,77.5877178,3.7062887683218553,More Supermarket,grocery
13.0579988,77.590347,3.8326391052203492,Anjaneya Hanuman Temple,place of worship
13.032436,77.6088298,4.003401340937633,,financial
13.0324467,77.6087814,3.9983214224141133,,financial
13.0318249,77.6084004,3.9501772510173834,,financial
13.0304891,77.6081971,3.9169439008831075,Peacock Restaurant,food service
13.0431053,77.5567496,2.326792037315384,Indian Oil,fuel
13.0426689,77.5568435,2.285747708058049,Bharat Petroleum,fuel
13.0304655,77.6088898,3.9917177190541233,Varasiddi Vinayaka Temple,place of worship
13.034755,77.6092368,4.083367596831666,Indian Institute of Business Studies,education
13.0313749,77.6131942,4.463547689665232,BBMP Kavalbyrasandra,office
12.9920336,77.5763265,4.077198472982617,,place of worship
13.0044109,77.5668934,2.733927565390558,Sree Charan Bank,financial
13.0255016,77.6033615,3.402712288285424,,financial
13.0269431,77.60086,3.1202897040745805,Rama temple,place of worship
13.023275,77.6002829,3.107317815168491,"Blue Rose, Home Needs",grocery
13.0232887,77.6005444,3.1348775727427656,,financial
13.0232564,77.6006133,3.1428755386693563,Axis Bank ATM,financial
13.0222291,77.6004298,3.1465456079616265,,financial
12.9870577,77.572403,4.604813604330681,Hotel Blue Diamond,lodging
12.9968415,77.5802618,3.626254315898765,Prashanth Grand,food service
12.9985485,77.5840303,3.5692348249468298,Nandini palace,food service
12.9980346,77.5840974,3.6251591329340354,Sindhu palace,food service
12.9959438,77.5548935,4.0687606882480924,Cafe Coffee Day,lodging
12.9916432,77.5578265,4.377073762653875,HP,fuel
12.9917517,77.5576615,4.372152855582424,Mallika Residency,lodging
12.9877059,77.5596356,4.729502997543547,Citibank,financial
12.9977544,77.5472561,4.348397524895009,New Shanti Sagar,food service
12.9985489,77.5430189,4.582004388765964,Punjab National Bank,financial
13.0250642,77.5781578,0.7576402701936616,,grocery
13.0293289,77.5617382,1.1265654365210545,Chandrappa Hotel,food service
12.9973524,77.5476248,4.359182053189564,Sea Route Restaurant,food service
13.0057592,77.5804279,2.68152985890461,Sattvam,food service
13.028009,77.5728764,0.09844331308801471,Bhaga's,food service
13.0281424,77.5733461,0.13980500618425057,Tomatoes,food service
13.0273348,77.5765728,0.5007071275514937,Darasuni,food service
13.032401,77.5669086,0.7123546923751454,Deccan House,food service
13.0012808,77.5783329,3.0976610076493407,ICICI Bank,financial
13.001239,77.5783221,3.101942860129747,HDFC Bank,financial
13.0002354,77.5781558,3.207228797034327,Karnataka Bank,financial
13.0279014,77.5734479,0.1590847178226353,New Zealand Natural,cafe
13.068655,77.558625,4.700864921573732,Vijaya Bank,financial
13.0689767,77.5581507,4.750970842613012,Sindhu Bar and Restaurant,bar/club
13.0681465,77.5601663,4.597443038609107,Sri Shanishwara Temple,place of worship
13.0598353,77.5776438,3.539129995734754,Naidu Bar and Restaurant,bar/club
13.0598058,77.5767863,3.521310559066914,Sree Mahaganapathi Temple,place of worship
13.0600947,77.5766579,3.551141509956531,Ranganatha Bar and Restaurant,bar/club
13.06084,77.5756311,3.6197899897826655,Union Bank,financial
13.0612056,77.5749043,3.652828854097653,ICICI Bank,financial
13.0631863,77.5727244,3.861010505850605,Indian Bank,financial
13.0636896,77.5721105,3.916382227204793,More,grocery
13.0637683,77.572199,3.9251478031445375,The Big Market,grocery
13.0637178,77.5720279,3.9195254934865646,Axis Bank,financial
13.065099,77.5708064,4.075509218224654,Indian Oil,fuel
13.0666704,77.5703287,4.252162247662883,ICICI Bank,financial
13.0666286,77.5703088,4.247616952505949,State Bank of India,financial
13.0717094,77.5678536,4.83009378305262,Nethravathi Bar and Restaurant,bar/club
13.0725801,77.5672904,4.932549744770885,Sri Manjunatha Wines,bar/club
13.0719157,77.5667309,4.865962491283645,Sri Veerabhadreshwara Temple,place of worship
13.0727682,77.5663519,4.965070563433857,ICICI Bank,financial
13.0698267,77.5638554,4.684708205824812,Canara Bank,financial
13.06942,77.5624389,4.6722802812540545,Essay Petroleum,fuel
13.0692445,77.562181,4.659625894177071,SBI,financial
13.0692521,77.5622181,4.659523329139478,ICICI,financial
13.0692615,77.5622483,4.659790333918551,Canara Bank,financial
13.0682388,77.560175,4.607028782159131,Durgashri Upahar,food service
13.0701469,77.5555323,4.9697525626759775,Bank of India,financial
13.0601253,77.5587008,3.8075552733847564,ICICI Bank,financial
13.0601513,77.5586148,3.8137867057155335,HDFC Bank,financial
13.0334247,77.5580362,1.6201347557343504,Canara Bank,financial
13.069463,77.5562587,4.870640390795027,Dhanalakshmi Bank,financial
13.0695997,77.5560764,4.891840757971842,OPAL Solutions,office
13.0099021,77.5691461,2.0891671115939747,Malleswaram 18th Cross,transportation
13.0229372,77.5848295,1.510004895861504,Adyar Ananda Bhavan,food service
13.0423996,77.590674,2.539332726877483,,place of worship
13.0213985,77.6005015,3.1757219062395396,Lakshmamma Petrol / Gas Station,fuel
12.9873459,77.5723926,4.572760092298598,Vijees Auto Gas,fuel
12.9924448,77.5757103,4.024731797153686,,financial
12.9893245,77.5740161,4.35758835183104,Sri Rama Temple,place of worship
13.0107155,77.5551055,2.69937210324497,RMKV Silks,clothes
13.0101543,77.5549659,2.755504175601488,Landmark,grocery
13.0118764,77.5551018,2.606738027761111,,clothes
13.0110782,77.5553337,2.653032184635418,Zara,clothes
13.0110818,77.5549821,2.6789659048365486,Zara Men,clothes
13.010998,77.5553637,2.657320765009054,Reebok,clothes
13.0109524,77.5549746,2.6899289144734726,Nike,clothes
13.0108832,77.5550139,2.6925772000876065,Puma,clothes
13.0107847,77.5548474,2.7129376440406525,Tommy Hilfiger,clothes
13.0107337,77.5549727,2.707730921908383,Wills Lifestyle,clothes
13.0102981,77.5548904,2.749247873312711,Chemistry,clothes
13.0101323,77.5548867,2.763096200263128,Levi's,clothes
13.0102817,77.5549652,2.745102083187011,United Colors of Benetton,clothes
13.0104166,77.5549615,2.7343421445918867,Jack & Jones,clothes
13.0105752,77.5549709,2.7207270137041473,Mango,clothes
13.0104931,77.5551673,2.7129785393343386,Westside,clothes
13.0105114,77.5553655,2.6969992590041447,Balckberrys,clothes
13.0104421,77.5553842,2.7013509836530334,Bata,shoes
13.0101086,77.5551093,2.7488349172758424,Lee,clothes
13.010094,77.554969,2.7602376114324607,Wrangler,clothes
13.0101286,77.5548006,2.769702982177505,Central,clothes
13.0106061,77.555373,2.6886644822968853,PVR Orion Mall,cinema
13.0113825,77.554954,2.6570632128232976,U.S. Polo Assn.,clothes
13.0112805,77.5549147,2.6681542691199795,Provogue,clothes
13.0112384,77.5553907,2.6358313988388833,Rockport,shoes
13.0118174,77.5548097,2.6337966845010987,Arrrow,clothes
13.0117593,77.5548097,2.6383424816659895,Celio,clothes
13.0118562,77.5550328,2.6136112308561557,Zodiac,clothes
13.0118755,77.5549378,2.619390094063342,Louis Phillippe,clothes
13.0118153,77.5549732,2.6213938266200683,Van Huesen,clothes
13.0118346,77.5553934,2.5878379059087075,You Mee,food service
13.0116926,77.5552758,2.6080349732932615,Pepe,clothes
13.0114881,77.5553553,2.61837380026144,Vinegar,food service
13.0114494,77.555384,2.6193281353332036,Star Bazar,grocery
13.0117399,77.5551543,2.6135046989816875,Colorplus,clothes
13.0115118,77.5549135,2.6498825448000662,Mochi,shoes
13.0114838,77.5549511,2.649240737269278,Clarks,shoes
13.0115398,77.5551521,2.6295545833604073,Allen Solly,clothes
13.0115096,77.5550527,2.63948310577547,Hush Puppies,shoes
13.0200701,77.5544961,2.1234697243994916,Hotel Grand Bee,lodging
12.9984083,77.5823672,3.5227973767058947,Shri Anjaneya Swamy Temple,place of worship
12.9985477,77.5510414,4.03415220970101,New Prashanth Hotel,food service
12.9937001,77.571322,3.8670135355796016,The Basil,lodging
13.0209593,77.5844241,1.5747530797974645,Hotel Check Inn,lodging
13.053347,77.5980418,3.9433444071823742,Kerala Coast,food service
13.0514047,77.6011967,4.0545560112425285,Sri Kalyana Lakshmi Venkateshwara Temple,place of worship
13.0499598,77.5976135,3.653694999455791,ICICI Bank,financial
12.9888891,77.5933559,4.9671595622527525,Au Bon Pain,food service
13.0039535,77.5836175,2.9979859096491777,Citibank,financial
12.9943529,77.5946809,4.5139500523408,Canara Bank,financial
12.9943998,77.5945632,4.50266311356341,Watson's Pub,bar/club
13.0019713,77.5723357,2.946490614950543,Canara Bank,financial
13.0020277,77.5707457,2.943766098084181,Maiyas,food service
13.0040275,77.5712572,2.7192734645646297,Sri Raghavendra Swamy Mutt,place of worship
13.0046507,77.5719519,2.6484925750390182,,place of worship
13.0371532,77.5896694,2.1342830502455072,Saaga,food service
13.0364837,77.5895892,2.0937861136398914,The Royal Senate,lodging
13.0292523,77.5829489,1.1785330378199363,UAS School,education
13.0267368,77.5871118,1.6376559340136845,,food service
13.0279465,77.5734212,0.1544794132640282,Nupur Kholapur,food service
13.0273584,77.5763017,0.4716486892878659,Cafe Rossini,cafe
13.0290865,77.5664915,0.6114328427608932,,financial
13.0290286,77.5664063,0.6199256689880839,,financial
13.0298041,77.570686,0.21332269216851796,,financial
13.0271442,77.578158,0.6726237662818858,Axis Bank,financial
13.0273425,77.5716941,0.13271989808578122,Hav Mor,food service
13.0282068,77.5729312,0.09465878479593566,,financial
13.0274551,77.5716885,0.12119862706527101,,financial
12.9902879,77.5645516,4.32355850796414,Government Public Library,education
12.9915519,77.5639515,4.198815871134032,Muneshwaraswamy Temple,place of worship
12.9960866,77.5543901,4.080014279028277,Raghavendra Swamy Mutt,place of worship
13.0345701,77.5681316,0.8031690092264081,U4IA,bar/club
13.0400516,77.5573893,2.0489901803907062,Union Bank of India,financial
13.0403573,77.5574215,2.0678415903954166,Vijaya Bank - Gokula,financial
13.0271868,77.5718405,0.14528583084220667,Wang's,food service
13.0282886,77.5714981,0.06819268490322919,Relish,food service
13.0169921,77.5914678,2.4558341453012624,Empire Hotel,food service
13.0174207,77.5916073,2.444462353720498,Coral Tree by Goldfinch,lodging
13.0174262,77.5916716,2.4501806524231156,Kudla,food service
13.0168458,77.591398,2.4578920022714232,Adiga's,food service
13.0184767,77.5918916,2.414910270830184,,fuel
13.0192552,77.5707254,1.0352612157250465,Divecha Centre for Climate Change,education
13.0610953,77.5540677,4.120345303599115,Rajarajeshwari School,education
13.0365347,77.5620534,1.4102818911074908,Muthuraiswamy Ayappa Temple,place of worship
13.0349227,77.5614892,1.3550930287503067,Shiva Temple,place of worship
13.0356902,77.5634153,1.2368919876474418,Lakshmi Tent,cinema
13.0108784,77.5788998,2.090088219659332,Chevron Orchards Hotel,lodging
13.0053577,77.5810409,2.7463280528703766,Cafe Coffee Day,cafe
12.9896328,77.5751613,4.331077710620023,Hanuman Temple,place of worship
12.98415,77.5781517,4.971445557546847,Hotel Sanman,food service
12.9955091,77.5546879,4.121932265568637,City Central Library,education
13.063134,77.579815,3.9441643106281417,Krishna Dairy,grocery
13.0124022,77.55478,2.5908241256739033,District 6,bar/club
13.062591,77.582191,3.9485518593430595,Hopcoms Fruits N Vegetables,grocery
13.0285702,77.5714972,0.06625013412317889,Chung Wah,food service
13.0268022,77.5794516,0.8177150319611026,Brahmin's Thatte Idli,food service
13.006693,77.5792022,2.5406689253210457,Pulimunchi,food service
13.02565,77.579972,0.9085914000871523,,place of worship
13.0230972,77.5848995,1.5098070725881365,Union Bank of India,financial
13.010788,77.5549164,2.7075265866909115,McDonald's,food service
13.0199268,77.5951979,2.6765191177794585,,financial
13.0189413,77.5708021,1.0686894011261276,Coffee Club,cafe
12.9891614,77.5722338,4.370799782878071,Swathi,food service
12.9897351,77.5720458,4.30698712147037,State Bank of India,financial
12.9896751,77.5720525,4.313657887330155,Ganesh Veg,food service
13.0041482,77.5498362,3.6236792656186396,Eshwari Matching Center,clothes
12.9894264,77.5544249,4.744879279731922,Vinutha Jewellers,jewellery
13.0086858,77.5434159,3.8073174332537727,HDFC Bank,financial
12.9899339,77.5526805,4.773531352269003,New Sagar Fast Food & Party Hall,food service
12.9874289,77.5541838,4.959080312482486,State Bank of India,financial
12.9893934,77.5736314,4.348145800211716,Sri Sai Mens PG Hostel,lodging
13.0019334,77.5784395,3.0294790165169707,Aditya Hotel,food service
13.0019072,77.5775638,3.0122453798324145,Government Central Library,education
13.0019405,77.5777151,3.0118828767393175,,place of worship
13.0183459,77.5572174,1.9663283291465867,F A Tea stall,cafe
13.0069934,77.5693219,2.406837350043714,Five Star Veg,food service
13.0188238,77.5574002,1.9199402565535209,New Sagar Fast Food - Vegetarian,food service
12.999115,77.5695329,3.275811544167997,Kanchipuram Varamahalakshmi silks,clothes
13.0682911,77.5601527,4.613288320541657,J K Mart,home furnishing
13.0244173,77.5489753,2.545341913373404,KFC,food service
13.0070927,77.5693166,2.3959549348205638,Five Star Chicken,food service
13.0018587,77.5711353,2.9607448501340685,Mohan Bhandar,grocery
13.0035401,77.5713502,2.773126578770922,McDonald's,food service
12.9902802,77.5568905,4.554874143619483,Himalai IAS coaching center,education
12.9893195,77.5567369,4.660542546439554,Bethesda AG Church,place of worship
12.9898332,77.5561709,4.629739437076104,Cafe Coffee Day,cafe
12.9897505,77.5560235,4.64423927694039,Spiders Software Testing Training Institute,education
12.9893375,77.5561073,4.683476801471566,Just Books Lending Library,education
12.9894943,77.5560074,4.67131145129176,Khadi Gramodyog Bhavan,clothes
12.9894159,77.556053,4.677561971110386,Raikar Jewellery Works,jewellery
12.9894133,77.5560959,4.6761049821443805,Toddler's Den,clothes
12.9895753,77.5545027,4.7263287504633915,Lidkar Leather Emporium,shoes
12.9894068,77.5545323,4.742191426090531,Gurukrupa Bhavan,residential
12.9895463,77.5547376,4.719077862229285,Veta English Language Center,education
12.9895692,77.5551044,4.701035718871848,Sri Sai Ganesh PG Accommodation for Ladies,residential
12.9890068,77.5559058,4.725721464097997,Bhairav Jewellers,jewellery
12.9890694,77.5558999,4.719496464339995,Syndicate Bank,financial
12.9893394,77.5559942,4.687827653680377,Sri Raghavendra Condiments,grocery
12.989092,77.5559747,4.714154531461382,Kailash Fashion Jewellery,jewellery
12.9891135,77.5559765,4.711861819495342,A. Cyber Joint - Browsing Center,cafe
12.9890644,77.5559708,4.717161670812022,Sri Charan stores,grocery
12.9890052,77.5559614,4.7236536587794475,Sri Manjunath Stores,grocery
12.9890226,77.5559646,4.721727956698472,Pradhan Jewellers,jewellery
12.9889846,77.555961,4.725797714367643,Mamatha Jewels,jewellery
12.9889803,77.5559601,4.7262780048630315,Gyan Exports,clothes
13.0105999,77.5953412,3.207434352854755,Elegant Guest House,lodging
13.0346447,77.534307,4.151336857197123,,financial
13.0425009,77.5658935,1.6989932304979698,Vrushi Apartment,residential
13.0374157,77.5661276,1.186724920321718,Ibaco,cafe
13.0216054,77.5587327,1.6369046983708024,Goli Vada Pav,food service
13.0218114,77.5586653,1.6328558411313863,Aastha Mess,food service
13.027416,77.5610663,1.2010092355623188,Thanco's Natural Ice Cream,food service
12.9916712,77.5712761,4.092671723206226,Citibank,financial
13.0033101,77.607122,4.714053752649134,,place of worship
13.0336462,77.5306463,4.527470556288953,,fuel
13.0335377,77.5307804,4.511539432355709,,financial
13.0334985,77.5309521,4.492540883948672,Cafe Coffee Day,cafe
13.0351169,77.5287478,4.7541965049502855,,place of worship
13.0351247,77.5271958,4.920481191990001,Phalahara Darshini Juice Center,food service
12.9878361,77.574957,4.528734089354804,Sri Krishna Devasthana,place of worship
12.9877862,77.5744684,4.53096366512732,Kashi Vishwanatha Temple,place of worship
12.9862102,77.5741379,4.7041193958491165,Bhavani Tiffin Center,food service
13.0279983,77.5726967,0.08317174673939527,Chung Wah,food service
13.0289716,77.5633966,0.9444967689994865,NIAS Main Eating Point,food service
13.0207677,77.5929009,2.410685675461073,Cafe Coffee Day,cafe
13.0207547,77.5929974,2.4209728319648627,Namdhari Fresh,grocery
13.0207547,77.5930859,2.429940843209837,Andhra Bank,financial
13.0343487,77.5273276,4.894100839477298,Hanuman Temple,place of worship
12.9920489,77.5706285,4.052836276100801,INOX Malleshwaram - Mantri Square,cinema
12.9921796,77.5705158,4.038814769377933,Swenson's,food service
12.9913252,77.5713263,4.131022197886505,,financial
13.0302272,77.5627649,1.0300012117359874,Freedom Cafe,cafe
13.0181725,77.5645445,1.4073795311621262,Shubodhaya Children Care Centre,education
13.0374079,77.5654203,1.2294743242382837,Akshaya Deluxe,food service
13.0017604,77.5783235,3.0454109349208105,Atithis,food service
12.997771,77.571072,3.4152476053864826,Adyar Ananda Bhavan,food service
12.9875847,77.573008,4.5471614078255005,,place of worship
12.9876025,77.5736105,4.547064039310534,Sri Manjunatha Condiments,cafe
13.0076007,77.5710725,2.32308660967674,Shree Yummy's Palace,food service
13.0055578,77.5711662,2.5495862412857413,Karur Vysya Bank,financial
13.0055552,77.5708738,2.5513280359072166,South Indian Bank,financial
13.0571395,77.548177,4.108447204907746,St. Mary's Orthodox Valiapalli,place of worship
12.9942736,77.5715823,3.802738316904795,Al Bek,food service
13.0087724,77.5635729,2.3769823816760978,Parota Point,food service
13.0076756,77.5640516,2.471033583161187,Shristi Sagar,food service
13.0079066,77.5639571,2.450682999627453,Corporation Bank,financial
13.0247172,77.5483657,2.604816030285489,More,grocery
13.0125912,77.5823361,2.084894074959305,GTS Baseline Survey Point,attraction
13.0056797,77.5806627,2.6984949693433755,Nature's Basket,food service
12.9985096,77.5700901,3.3384109796089443,State Bank of India,financial
13.0033921,77.5783685,2.86990752754938,Pakvan,food service
13.0041697,77.5822694,2.917923334959283,HDFC Bank,financial
13.0579847,77.5919058,3.921082799322217,More,grocery
13.0305442,77.5951073,2.5031114880899703,Md Guest House,lodging
13.0301654,77.5934939,2.325334670816211,,place of worship
13.0608187,77.5873,3.956095593924893,Freska,food service
13.0611505,77.5871136,3.9813808234255053,Third Wave Coffee Roasters,cafe
13.0591909,77.5875414,3.803692932412078,Hyderabad Biryani,food service
13.0589975,77.5875951,3.786965798906908,Adigas,food service
13.063622,77.5909427,4.4097092594724545,ICICI Bank,financial
13.0623962,77.5930084,4.400240605872349,The Big Market,grocery
13.0632832,77.5917375,4.417163172908461,HDFC Bank,financial
13.0637714,77.5905824,4.406571753605578,Svensens Icrecream,cafe
13.0348482,77.5303833,4.574532973991623,,place of worship
13.0165683,77.5709518,1.3290991616060135,Department of Computational and Data Sciences,education
13.016558,77.5707323,1.3326730214656108,Supercomputer Education and Research Centre,education
13.023272,77.5615952,1.2763080104437932,Sri Varasiddhi Vinayaka Swamy Temple,place of worship
13.00579,77.5932698,3.4087290973980124,Axis Bank,financial
13.0053566,77.5712414,2.5716336970537728,Oye Lassi,cafe
13.0054082,77.5691051,2.584657476092648,Udupi Upachaar Veg,food service
13.0683712,77.5598029,4.632590839929312,Ganesha Temple,place of worship
13.0084103,77.5636893,2.409334708838001,Groceries,grocery
13.0085444,77.5695202,2.233041197981791,Chai Point,cafe
13.0467933,77.5951892,3.226145290807634,Kempapura Masjid,place of worship
13.0025965,77.5981195,4.02773841114092,Nilgiri Supermarket,grocery
13.0360446,77.5268223,4.976766674345654,Home,lodging
13.063575,77.5901585,4.366364389917045,Reliance Trends Footwear,shoes
13.0632045,77.592116,4.429421472582228,Domino's,food service
13.0633532,77.5906518,4.3686520068446635,Reliance Fresh,grocery
13.0631724,77.5914073,4.3892135415845575,Bank of India,financial
13.0607699,77.5896859,4.065661778088762,The Janatha Co-Op Bank Ltd,financial
13.0633333,77.59087,4.377615730734568,IndusInd Bank,financial
13.0004913,77.5417024,4.530261178926996,Home,lodging
12.9954132,77.5981361,4.633228954388466,,residential
13.0018629,77.5988299,4.139871230378109,HDFC Bank,financial
12.9973946,77.5485023,4.298242746319247,Reliance Fresh,grocery
12.9989255,77.5489709,4.131640385145513,Appu's Kitchen,food service
12.9992777,77.5495785,4.060678950354473,Sarayu Fine Dine,food service
13.0016723,77.5506179,3.7808171697940267,Akshaya Mini Bazaar,grocery
13.0038504,77.5534613,3.401609056974783,Domino's,food service
12.9974503,77.5496185,4.222373038107459,Bata,shoes
12.9939186,77.5513274,4.452426877360626,Simply Organics,grocery
13.0038472,77.5495336,3.6704800646750546,Malabar Jewellers,jewellery
13.0253206,77.6035555,3.4256298630081905,Corone Fresh Spices and Dry Fruits,grocery
13.025295,77.6036548,3.4366225394674474,Juba Cafe,cafe
13.0253614,77.6036609,3.4365292297170353,KGN Provision Store,grocery
13.0257661,77.6037904,3.4462694627724577,Dream Wear,clothes
13.025883,77.6038199,3.448344179235282,Manoj Textiles,clothes
13.0266169,77.6040449,3.466827102490687,GM Time Center Watch Repair,grocery
13.026938,77.6041637,3.4777419488820365,Marian Kids,education
13.0270552,77.6041687,3.4776687807438393,Deluxe Bedding and Sofa center,grocery
13.0276254,77.6043712,3.49730585598733,"Mona Nursery, Primary and High School",education
13.0276582,77.604326,3.4923147205796736,Prem Fancy Store,grocery
13.0276805,77.6043445,3.4942549751778196,Sri Vinayaka Hot Chips,grocery
13.0278433,77.6043961,3.4994354867239377,Raghavendra Jewellery Woris,jewellery
13.0243972,77.6032595,3.4058614518172092,Sree Guru Cool Joint,lodging
13.0244213,77.6032614,3.405710133611276,Star Health,financial
13.0252198,77.6034014,3.410193379328341,Citrus Dress Materials,clothes
13.0252496,77.6036506,3.436692392695495,Joy IceCream,cafe
13.0263546,77.6039914,3.462901010666451,Nizam Collections,clothes
13.0267584,77.6040579,3.4673333759051785,Time House,grocery
13.026904,77.6041555,3.4770420530868793,Veena Collections,clothes
13.0272339,77.60426,3.4867092155907478,A1 Ambur Biryani,lodging
13.024064,77.6031704,3.4014341530376533,Cafe Coffee Day,grocery
13.0240911,77.6031919,3.4033065784589684,Manjunatha Condiments,grocery
13.0265159,77.6040547,3.4685725629474518,SR Consultant Real Estate,grocery
13.0266962,77.6040529,3.467179251496658,Yakshini Condiments,grocery
13.0267483,77.6041132,3.473376929627034,,financial
13.0275314,77.6042985,3.489730099539346,MHN Jewellers,jewellery
13.0275936,77.6043528,3.495410127521427,Goli Vadapav No.1,food service
13.0276765,77.6043712,3.4971577537477514,Chitra Darshini,food service
13.0276316,77.604326,3.4923924918127964,Shree Basaveswara Frame Works,grocery
13.0246416,77.603385,3.415843463876443,Mangalore Jewellery Works,jewellery
13.0249623,77.6034912,3.423011967539435,Sri Manjunatha Fast Food Hotel,lodging
13.025264,77.6035286,3.4233807526635833,Fashion House,clothes
13.0252958,77.6035419,3.4244474310514557,Dharmesh Jewellers,jewellery
13.0266474,77.6040449,3.4666271060781435,Golden Choice Footwear,shoes
13.0266933,77.6041031,3.4726271229422285,Seek n Hide Tours and Travels,grocery
13.0269861,77.6041889,3.4802108689435793,,financial
13.0277189,77.6044033,3.500518363252078,Chaitra Pan,grocery
13.0277645,77.604407,3.500801670492402,KGN FootWear,shoes
13.0278097,77.6043901,3.4988621128307784,,financial
13.0234261,77.6028721,3.3805015426996947,Darshan Traders,grocery
13.0248424,77.6034721,3.422502244571871,Shakti Traders,grocery
13.0264161,77.6040116,3.4646266411297555,HMS Fast Food,food service
13.0266014,77.6040359,3.465956760908996,Om Ganesh Juice Center,grocery
13.0274651,77.6042813,3.4880961585932124,Durga Pan Bhandar,grocery
13.0275697,77.6043333,3.493373666036715,Mummy Daddy Garments,clothes
13.0267774,77.6040589,3.467326178647841,Maharaja Hi Fashion,clothes
13.0269118,77.6041118,3.4722704378537963,Bangalore Time Center,grocery
13.027668,77.6043446,3.4943010334291835,Sleep Good Matress,grocery
13.0240447,77.6031596,3.400586264646019,Vinay Bangle Store,grocery
13.0249337,77.6034778,3.4219337959494913,Sri Manjunath Pooja Stall,grocery
13.02502,77.6035096,3.424267489908828,Guru,grocery
13.0273351,77.6042946,3.490029363029526,Pavithra Enterprises,grocery
13.0275755,77.6043124,3.4910919902975595,Cool Corner,cafe
13.0247965,77.6034489,3.4206122548912896,Karnataka Provision Stores,grocery
13.0268892,77.6041118,3.472396798036119,Five Star Chicken,food service
13.0269891,77.6041517,3.476169589301604,All Brands Collections,shoes
13.0270211,77.6041517,3.476002770686301,Sri Kampli Someshwara Tiffin Center,lodging
13.0271564,77.6042369,3.484559458921943,Jagathamba Bankers and Jewellers,jewellery
13.0122683,77.5534545,2.7065295013485606,Reliance Smart Bazaar,grocery
13.0222579,77.5922587,2.2904865915591226,Ujwal Bar and Restaurant,bar/club
13.022359,77.5927417,2.337136952966739,Al Bek,food service
13.0214967,77.5924037,2.332225273953127,Food World,grocery
12.9939183,77.5854854,4.1064274924699,Royal Afghan,food service
13.0002869,77.5718472,3.1337960218111216,Mumbai Spice,food service
12.9971223,77.5731217,3.487321781506921,Hotel Vaishali,food service
13.0007561,77.5723691,3.081641963462962,Asha Sweet Center,food service
12.9992108,77.5722756,3.2533891237689545,Chandu's Deluxe,food service
13.0026752,77.5720532,2.868114121495816,Sri Venkateshwara Hotel,food service
12.9972964,77.5718337,3.466324843314162,New Fishland,food service
13.00764,77.5640167,2.476072584799239,Srushti Coffee,food service
13.0067326,77.5642658,2.5616309002161803,Chetty's Corner,food service
13.0018939,77.5784746,3.0346201958310592,Hotel Ayodhya Upahar,food service
13.008246,77.563189,2.4471277091655352,Brahmins Thatte Idli,food service
13.0078684,77.5570406,2.8122560387693247,1522 the Pub,bar/club
12.9919067,77.5705078,4.069169312785311,Allen Solly,clothes
12.9917884,77.5702636,4.083515252805058,Baboosh,clothes
13.0046726,77.5785939,2.7379468950920156,Chung Wah,food service
13.0056571,77.5690976,2.5573055218798415,1947 Restaurant,food service
12.9916897,77.5711243,4.0910069376407545,Cocopelee,clothes
12.9914885,77.5711733,4.113238955740313,AND,clothes
12.9915734,77.5705023,4.106222651872526,Nike,clothes
12.9914832,77.5710526,4.114167958950004,Columbia,clothes
12.9918688,77.5705197,4.073325430281888,Fila,clothes
12.9916949,77.5710365,4.090685745620988,Celio,clothes
12.9918152,77.570602,4.0789157647703345,Cotton world,clothes
12.9916983,77.5711798,4.089900023501533,Enamor,clothes
12.9914701,77.5706442,4.117081381254885,Fabindia,clothes
12.9916022,77.570586,4.1026505751890685,Favourite Shop,clothes
12.9917024,77.5703066,4.092842910158173,Puma,clothes
12.9920289,77.5712576,4.052951474235897,Fazals,clothes
12.9914706,77.5707615,4.116558621266719,Fusion Beats,clothes
12.9918207,77.5705006,4.078756564538094,Proline,clothes
12.9915868,77.5703571,4.105427346479573,Rebook,clothes
13.0499324,77.5980885,3.6908013512622504,Desi Tadka,food service
13.0373064,77.6052013,3.7181210826907924,Al Khair Restaurant,food service
13.0496657,77.597496,3.6227158966441917,Swastik Bar & Restaurant,food service
12.991691,77.5707302,4.092188112684765,Spar,grocery
12.9916575,77.5703119,4.097802759383736,Bata,shoes
12.991754,77.5711303,4.083842723018323,Oval bar,food service
12.9916587,77.5707137,4.095842501921215,Hush Puppies,shoes
12.9916423,77.5707645,4.09746686385991,inc.5,shoes
12.9915703,77.5703356,4.107367858233399,Mochi,shoes
12.9916252,77.5702927,4.1014891133321125,Rocia,shoes
12.9916252,77.5702927,4.1014891133321125,Rocia,shoes
12.9915977,77.5703852,4.104077680901652,Metro,shoes
13.0044548,77.5493716,3.632238399916247,Aramane Hotel,food service
12.9918159,77.570522,4.079192003291738,Soles,shoes
12.9915402,77.5712596,4.1072740379802966,Woodland,shoes
12.9908258,77.5578843,4.460053441601135,Navarang Kabab Corner,food service
13.0078812,77.5569436,2.817208735116656,White Horse,food service
13.0081283,77.5545993,2.951298465468716,Hotel Fish Palace,food service
12.9992496,77.549677,4.05677790461005,Dwinks Gastropub,food service
12.9903931,77.5584441,4.484868116257139,Kudla beach,food service
12.9967355,77.5543173,4.0202517361943935,Sagar caterers and hotel,food service
12.9891546,77.5500014,4.984207801594291,Shree Nandana Palace,food service
12.9917126,77.5708843,4.089216186146513,State Bank of India,financial
12.9966939,77.5687228,3.552092010705241,Hotel Moon Light,food service
12.9918756,77.5701543,4.074426018795636,Rajhadhani Thali Restaurant,food service
13.0081862,77.5709853,2.258544220402777,Pizza stop,food service
13.012299,77.5559803,2.5064767278581925,High Ultra Lounge,food service
12.9987069,77.5699054,3.3178929892574605,Iyer Mess,food service
12.9916087,77.5704303,4.102637467095711,GINI Jony,clothes
12.9916688,77.5708192,4.094316933543715,GlobalDesi,clothes
12.9915773,77.5706234,4.105257243179716,Go fashion,clothes
12.9917237,77.5707817,4.088355737655643,Identity,clothes
12.9916584,77.5708621,4.0953178776720796,Jashn,clothes
12.991478,77.5708273,4.115491314780861,Jockey,clothes
12.9915068,77.5708648,4.112156499596335,Kalanjali,clothes
12.9914885,77.5710096,4.113709974645562,Kushals,jewellery
12.9917812,77.5705456,4.082940836180057,Lakshitha,clothes
12.9917603,77.5705724,4.0851441885507995,Laven,clothes
12.9916281,77.570791,4.098944524479003,Levi's,clothes
12.9912093,77.5712013,4.144203038020324,Lifestyle,clothes
12.9917551,77.5705993,4.085604927552857,Louis Philippe,clothes
12.9914937,77.5709372,4.113364719020852,MaDAME,clothes
12.9916322,77.5708648,4.098220063131013,Manyavar,clothes
12.991742,77.5706315,4.08692315406709,Marks Spencer,clothes
12.9917237,77.5704196,4.089913953163603,Methiyadi stop,shoes
12.9914911,77.5711143,4.113110901479192,MINC,clothes
12.9982337,77.570518,3.3663468246266093,Antarastriya,food service
12.9917002,77.5704464,4.092396325876639,Reliance trends,clothes
13.0071899,77.5682268,2.4030139787561415,Paakashala,food service
13.0050001,77.5654236,2.707972487560983,Big Straw Boba Bistro,food service
13.0007571,77.563817,3.209394742193894,Sri Raghavendra Store,food service
12.9985408,77.5695317,3.339444433892972,Satvik Grand,food service
13.0012483,77.5723483,3.026893436629138,Suchi ruchi veg,food service
13.0101274,77.5623351,2.297500541070591,KaatiZone,food service
12.9917263,77.5706556,4.088566838304159,Mom & Me,clothes
12.9918779,77.5704357,4.072707167390946,Mufti,clothes
12.9961953,77.5715924,3.5890627056496696,A1 Biryani Restaurant,food service
13.0011281,77.5724061,3.0403204375678934,Holige Mane,food service
12.9916348,77.5709185,4.097745275855451,Neeru's,clothes
12.9917339,77.5706166,4.0878862884139915,UP south,food service
12.9915048,77.5704974,4.113866227158442,Sbarro,food service
12.9985137,77.5523235,3.9604362947105045,Hotel Nalapaka,food service
13.059555,77.5909394,4.01413083944698,New Kritunga Restaurant,food service
13.003897,77.5435549,4.126588802681031,Hotel Aditya,food service
12.9898003,77.5500343,4.919621246506346,Shree Nandini Palace,food service
12.9878305,77.5558493,4.849635320934421,Ambika Veg Restaurant,food service
13.006544,77.5647739,2.563856366026107,viking,food service
12.9914927,77.570894,4.11362183687075,Prapti,clothes
12.9918978,77.5705614,4.06991611104796,Pepe Jeans,clothes
12.9914326,77.5709262,4.12019215398987,PEORA,clothes
12.9916416,77.5709799,4.096787112508337,Spring Summer,clothes
12.9914404,77.571012,4.119048800910591,Pantalons,clothes
12.9914378,77.5708377,4.119921295280635,Rubans,jewellery
12.9914091,77.570968,4.1226668101915,Splash Fashion,clothes
12.9919004,77.5706473,4.069256723693896,Satya Paul,clothes
12.991443,77.571173,4.118297612541776,Spykar,clothes
12.9916486,77.5711196,4.095588697444297,show off,clothes
12.9917995,77.5707731,4.079965033822657,Soch,clothes
12.9914127,77.570647,4.123447703322744,U.S. Polo Assn.,clothes
12.9914676,77.5707087,4.1170974352646175,United Colour of Benetton,clothes
12.9919093,77.5705987,4.068474901698949,V.Dot van heusen,clothes
12.991559,77.5705585,4.107570403779096,Valentine,clothes
12.9914519,77.5711003,4.117507886313459,Vastrra,clothes
12.9914393,77.5708015,4.119886631397048,Voylla,jewellery
12.991729,77.5703768,4.089534241223122,Vijayalakshmi,clothes
12.9916854,77.5707845,4.092601333833398,Wills Lifestyle,clothes
12.991835,77.5705452,4.076965435440171,Allen Solly,clothes
12.998169,77.5496373,4.156153526187681,Bank of Baroda,financial
12.993015,77.5459803,4.8527596701499425,Axis Bank,financial
12.9938105,77.5458656,4.788541186639534,Indian High School,education
12.9977967,77.5474478,4.33186862686222,Onesta,food service
12.9973118,77.5469972,4.404422637906245,Chung's Chinese Corner,food service
12.997569,77.5505796,4.152250482459791,Boots Bazaar,shoes
12.9989871,77.547589,4.2187916711051985,Aaramba Preschool,education
13.0352764,77.5536076,2.1415300788327745,More For You,grocery
13.0235383,77.6090101,4.036034873671112,Ahmeds Retail,grocery
13.0113287,77.5551092,2.6496361937549833,Nike,clothes
13.0435746,77.5532589,2.643321617047232,New Kiran Super Bazar,grocery
13.0112427,77.5551711,2.651881040436479,Puma,clothes
13.0491797,77.5933878,3.259084807358112,Nike,clothes
13.0368102,77.57756,1.1000864369948389,Shopwell Supermarket,grocery
13.0273271,77.5782409,0.6772844397396434,Shopping Day,grocery
13.039288,77.5537006,2.328117479421929,I Mart,grocery
12.9915431,77.5704437,4.109861139803696,Columbia,clothes
13.0116586,77.555137,2.621260543631546,U.S. Polo Assn.,clothes
12.9860742,77.5781146,4.758884556857605,Seasons Serviced Apartments And Guest House,lodging
12.987183,77.5784519,4.642060381924215,Super duba Raggi Dosa,food service
12.9978601,77.5495201,4.191444869190609,,financial
12.9981241,77.5495926,4.163036660846693,,financial
12.9974416,77.550126,4.191694287592619,State Bank of India,financial
13.0056414,77.5689362,2.561318257877377,ICICI Bank,financial
13.0056769,77.5691145,2.5548893377550703,HDFC Bank,financial
12.9889585,77.555959,4.728574235155833,Priya Tiffin Room,cafe
13.0272334,77.571907,0.13894146581642328,Gilly's Resto Bar,food service
13.009057,77.5803021,2.334242697068827,Starbucks,cafe
13.0056782,77.5806895,2.6996510565849783,Axis Bank,financial
12.9887725,77.5885143,4.758797484019567,Bhagawan Sree Maruthi Temple,place of worship
13.0164835,77.6051223,3.817665510680445,Kaval Byrasandra,place of worship
12.9988676,77.5502861,4.052038678316611,Damro Furniture,home furnishing
13.0144425,77.5429328,3.523776088329787,HDFC Bank,financial
13.0153525,77.5440212,3.3734710855960257,ICICI Bank,financial
13.0170171,77.5434268,3.3571576013035638,Axis Bank,financial
12.9974969,77.5501201,4.186997967794862,Rolls Kitchen,food service
12.9978602,77.5519674,4.042428964801594,Empire Plaza,food service
12.9984348,77.5530658,3.9249762216281905,Nisarga Family Resturant,food service
12.9973268,77.5478423,4.347156148162621,Burger King,food service
12.9973971,77.5480936,4.32450327993482,Liberty Exclusive Showroom,shoes
12.9966984,77.5613324,3.7203187924697514,Al-Bek,food service
12.9982685,77.5476352,4.278076535792843,Kangaroo Kids Preschool,education
12.9981587,77.5465007,4.364715588608108,Janatha Co-Operative Bank,financial
13.0017936,77.5488666,3.890181952313459,Udupi Veg,food service
13.0022575,77.5521631,3.6276498158467096,Goli Vada Pav,food service
13.0346821,77.5351685,4.060030028038351,NID Canteen,food service
13.0017261,77.5508671,3.759524778934634,Punjab National Bank,financial
13.0023588,77.5528147,3.5769179970694243,,food service
13.0674182,77.5569653,4.630891108163565,,financial
13.0374651,77.5616603,1.509860210924372,Down bekary,cafe
13.0105439,77.5504232,3.0801750905478547,Hotel Vande Matharam,lodging
13.0042862,77.5488857,3.68179885542019,Kumon Education Center,education
13.0041731,77.6068436,4.633204944276547,Syed Manzil,lodging
12.9962755,77.5733477,3.582275919472348,HDFC Bank,financial
13.0334463,77.5311642,4.469021334113154,McDonald's,food service
13.044455,77.5801705,1.9809637330729462,Brindavan College,education
13.0427167,77.5784812,1.728553736832166,Ideal Home,lodging
13.0264736,77.599251,2.9497243520967604,Kingston school,education
12.9890974,77.5936081,4.95942808260875,Red Latern,food service
13.008043,77.548444,3.4243926574486787,Canara Bank,financial
13.0551593,77.599306,4.182571685509666,Canara Bank,financial
13.0552073,77.6002026,4.2552951368842855,Union Bank of India,financial
13.0552084,77.6008534,4.306097079633507,Nice mart,grocery
13.0569362,77.6004968,4.41391524091773,EuroKids,education
12.9929602,77.5954898,4.691606342309824,Featherlite,home furnishing
12.9907312,77.5959415,4.927505669307365,  ,food service
13.0500016,77.5975254,3.6495285221801335,State Bank of India,financial
13.0055374,77.5711178,2.5520660446596772,,cafe
13.0224361,77.5847518,1.5259821982879918,Hotel Emirates,food service
12.9977103,77.5483913,4.277283843559667,Aruna Silks,clothes
12.9974316,77.5486505,4.285398216010934,State Bank of India,financial
12.9974264,77.5485995,4.289141381892019,State Bank of India,financial
12.9974748,77.5490415,4.256532020711048,,place of worship
12.9977093,77.5495591,4.202616156547213,New Feet Fashion,shoes
12.9983605,77.5491093,4.172800391851035,Manjunath Gobi Corner,food service
13.0056696,77.5692888,2.5533735817382865,Veena Stores,food service
12.9899243,77.5913426,4.766093249928094,Fat Buddha,food service
13.0673396,77.593683,4.914054674343725,Vijaya Bank,financial
13.0661591,77.5971544,4.9930158545095376,Reliance Fresh,grocery
13.0022241,77.5503743,3.749163211522077,Pavan Fancy Store,clothes
13.0115044,77.5552219,2.6271052432302664,Rajdhani Thali,food service
13.0636119,77.5913837,4.431033336030461,The Druid Garden,bar/club
12.9982067,77.5499224,4.134731134872117,United Bank of India,financial
12.9976311,77.5508093,4.132597014582586,Rishabh Jewellers,jewellery
12.9982247,77.5524639,3.979349314329395,Ottetumba,food service
12.9981249,77.5532794,3.9423201457198176,Annappa's Naati Mane Hassan Style,food service
12.9981288,77.5579299,3.706507160278085,Sri Eshwar Fruit Juice Center,food service
12.996421,77.5630308,3.6965150180288058,Kerala Jewels,jewellery
12.9966687,77.5728097,3.536838303056798,Indian Bank,financial
12.9879742,77.5764499,4.527383713276754,Corporation Bank,financial
13.0018615,77.5506272,3.763636131418462,V Stitch,clothes
13.0016822,77.550534,3.785552889655351,Lahari Boutiques,clothes
12.9977034,77.5486648,4.260172171089974,Navkar Jewels and Diamonds,jewellery
12.9974378,77.5497693,4.214108129467353,Liberty Exclusive Showroom,shoes
12.9977114,77.5497952,4.18761386112038,Bharathi Garments,clothes
12.997704,77.5494434,4.210391061697661,Nandini Grand,food service
13.0087266,77.5640845,2.360730737348884,Boston Cotton,clothes
13.0081078,77.5549568,2.9283300923181814,Biryani Day,food service
13.0085363,77.5690421,2.2410037886901852,Kotak Mahindra Bank,financial
13.0037951,77.5488708,3.7229608646057266,Navrathan Jewellers,jewellery
12.9933689,77.5528214,4.426643536098178,Govt. First Grade College,education
12.9873914,77.5544089,4.9534303395046635,Vishwas Jewels (P) Ltd.,jewellery
13.0001729,77.5951454,4.016615299912354,Not Just Wine & Cheese,bar/club
13.0018586,77.5988817,4.144140183260282,HDFC Bank,financial
12.9966741,77.587379,3.903743686738681,HDFC Bank,financial
12.9977029,77.5828216,3.6128332017363487,Prasanna Cloth Center,clothes
12.9975545,77.5821584,3.606103076583488,Indian Overseas Bank,financial
13.0107514,77.5504102,3.066373652208853,Cotton Zone,clothes
13.0047475,77.5487571,3.654131454538855,HDFC Bank,financial
12.9977279,77.5514466,4.085450472123016,7 Colors,clothes
12.9979084,77.5521686,4.026184801147329,HDFC Bank,financial
12.9981821,77.5535026,3.9244083532025704,Titan,watches
12.9985641,77.5552753,3.7920532613679416,Axis Bank,financial
12.9984849,77.5554044,3.7930887748782567,ICICI Bank,financial
12.9969598,77.5613556,3.691936097840578,Tan Shoes,shoes
12.9961986,77.5651338,3.666780596770976,SLN Food Point,food service
12.9966191,77.5675674,3.5753970462738645,Mahendra Diamonds and Jewellers,jewellery
12.9966897,77.5686323,3.553579678465748,SVC Co-Operative Bank Ltd.,financial
12.997507,77.5500266,4.191844856732014,Santhosh Bar & Restaurant,food service
12.9979227,77.5522341,4.0210401330475385,Hotel Nalapaka,food service
12.9983018,77.5527766,3.9540662283766066,Karnataka King Biryani,food service
12.9983443,77.5530904,3.932145810206981,Gopal's Pure Veg and Sweets,food service
12.9981658,77.5533488,3.934541097731059,SRN Gems & Jewellery Works,jewellery
12.9981764,77.5534478,3.9280032363486743,Ideal Decor,home furnishing
12.9969929,77.5613395,3.6889942633558985,Malgudi's Donne Biryani,food service
12.9967846,77.5626479,3.668915756238523,Karnataka Bank,financial
12.9961741,77.5643288,3.6883713903841087,Variety Footware,shoes
12.9967132,77.5693101,3.543964958191547,Indira Canteen,food service
12.9966535,77.5702704,3.5432397705191576,Syndicate Bank,financial
12.9966843,77.57085,3.5368601865326217,Canara Bank,financial
12.9894569,77.5735286,4.340678621700833,Kotak Mahindra Bank,financial
12.988504,77.5740252,4.448768439263298,Roop Kala Silk House,clothes
12.9879136,77.5741488,4.514985365654831,Ajantha Mess,food service
12.9935528,77.5712961,3.883450578477285,New Karavali Bar & Restaurant,food service
12.9934739,77.5713892,3.892009073641295,,financial
12.9974492,77.5488565,4.2706246287775445,Sree Ganesh Fruit Juice Center,food service
12.996966,77.5523974,4.102061841299943,HDFC Securities,financial
13.0039524,77.5481855,3.7608454011909456,Cradle to Crayons,education
13.0066416,77.5488104,3.5009638041451008,ICICI Bank,financial
13.0074466,77.5488708,3.4347138399137553,Indian Overseas Bank,financial
13.007491,77.5488788,3.4307199955576655,Yes Bank,financial
13.0081104,77.5490585,3.369819079460014,HDFC Bank,financial
13.0087675,77.5491545,3.3133641005601153,State Bank of India,financial
13.0108921,77.5505079,3.048214987021451,Minla Hotel,lodging
13.0249519,77.5853313,1.4857965278561485,Allahabad Bank,financial
13.0304194,77.5872271,1.6530638979019157,Hebbal Indira Canteen,food service
13.0345665,77.588793,1.9313280366348935,State Bank of India,financial
12.9923067,77.5944585,4.694305146524679,Ujval,lodging
12.9948258,77.5970478,4.615189644193498,Jayamahal Palace,lodging
12.9956522,77.6015774,4.849172826056858,Canara Bank,financial
12.9978121,77.5505122,4.134036460796627,Indira Canteen,food service
13.0021777,77.5528331,3.5921239880769544,Big Mishra Pedha,food service
12.9971501,77.5484803,4.321539960843657,Corporation Bank,financial
12.9978198,77.5488214,4.239671368042639,Sri Ranga Silks,clothes
12.9977063,77.5486255,4.262452229348517,Timex,watches
13.0441606,77.6010657,3.59035158170877,,financial
12.9895036,77.5721251,4.332725638394401,State Bank of India,financial
13.0412616,77.6149928,4.859453555308257,,place of worship
13.012085,77.5527865,2.774302344097553,Fashion Factory,clothes
13.0225676,77.5847474,1.5191810403948676,SM Silks,clothes
13.0534563,77.5747466,2.793245449014837,Indira Canteen,food service
13.0264895,77.6040339,3.466508976318601,Shaji Stores,grocery
13.0705029,77.577765,4.714100462616687,Ganesha Temple,place of worship
13.0419285,77.6132521,4.702537208761463,Country Inn & Suites by Carlson,lodging
13.0029365,77.5535783,3.4765813424490735,Go Gas,fuel
13.0028032,77.553522,3.4922081189573215,Corporation Bank,financial
12.9978875,77.6021182,4.705300940914196,Fairfield Apartments,lodging
12.9866165,77.579997,4.731752797885996,3 Page,food service
12.9885728,77.5772213,4.4707909509213195,Sweet,food service
12.9953339,77.5550415,4.121946028745733,Karnataka Furniture,home furnishing
13.0426855,77.6095271,4.351760933489219,Marriott,lodging
12.9986872,77.5531093,3.8986344291616177,,place of worship
12.9945667,77.5691333,3.7834091817648625,,bar/club
13.0067648,77.5545209,3.074292866770672,Pizza Hut,food service
13.0578349,77.5875037,3.667016218872681,Knopcha,food service
12.9976813,77.546322,4.418049351196731,,jewellery
12.9973139,77.5462296,4.456070885353232,Ramraj,clothes
13.0628795,77.5926056,4.424333376983882,rara avis,food service
12.9927728,77.5889644,4.369548170457096,Cafe Coffee Day,cafe
13.0492695,77.6038518,4.144966389287126,Families Supermarket,grocery
13.0552098,77.6026488,4.448911159480854,Udupi Upahar,food service
13.0494493,77.5970187,3.567829302158392,Syndicate Bank,financial
13.048908,77.596861,3.515717402586214,Brahmins Thatte Idli,food service
13.050471,77.5976521,3.694253395578086,Srinidhi Sagar,food service
13.0499864,77.5977223,3.6645491018085385,Goli Vada Pav,food service
13.0491546,77.5930152,3.228661485124332,Cafe Coffee Day,lodging
13.0488736,77.6120246,4.883995487784525,Athidi,lodging
13.0221222,77.6034687,3.470816344249455,Ganesha Temple,place of worship
12.9867899,77.5745807,4.64226217418143,Hotel Sanman,food service
13.0053314,77.5937908,3.484440872249717,Bharat Petroleum,fuel
13.05809,77.6023671,4.647451520618083,Sannidhy,lodging
13.0557392,77.601085,4.3650701959523435,Anugraha Meadows Apartments,lodging
13.0583019,77.6025696,4.679625298339845,Geeta Bhavan,lodging
13.0586436,77.6026098,4.709689034002754,Balaji Paradise,lodging
13.0590291,77.6026081,4.740192774571802,,lodging
13.0553943,77.601308,4.356032304889487,Vega redidency,lodging
13.0560432,77.6000375,4.308163910101012,Chitrakut shelter,lodging
13.0562676,77.6004766,4.359366276295032,Little Elly Preschool,education
13.0567164,77.6023658,4.540387420344451,Sri Lakshmi Temple,place of worship
13.0557218,77.6006233,4.327878548026834,Tots & teens,education
13.0552023,77.6021755,4.4103447900371275,State Bank of India,financial
13.0554196,77.6027913,4.475989898643323,Santosh Jewellers,jewellery
13.0554077,77.6026614,4.464659774169373,Chings,food service
13.05585,77.6014423,4.401506568035647,New little kingdom,education
13.0560584,77.600139,4.317095697465209,Sai Residency,lodging
13.0556948,77.6003197,4.3023470764965,Kriya preschool,education
13.0551835,77.6014661,4.352457744079791,Fashion wear,clothes
13.0543228,77.6014986,4.290326294690611,Rithu saree collection,clothes
13.0551877,77.6015928,4.362817217964804,Sri sai hot chips,food service
13.0551933,77.6016426,4.367192922576376,Anu Sri,food service
13.0568588,77.6006316,4.417950823841141,Gokulam,lodging
13.0552034,77.6020719,4.402143510776088,Akshaya,lodging
13.0554489,77.6031778,4.5093430081610295,ICICI Bank,financial
13.0604851,77.6032571,4.905662044821971,SLS symphony,lodging
13.0579421,77.6023104,4.631469302030339,Sannidhi,lodging
13.0550911,77.6002206,4.247676002011228,Ruchi curry point,food service
13.0566837,77.6011325,4.442308302770193,Sri Sri Apartment,lodging
13.0553376,77.6021935,4.421935734426901,Bank of Baroda,financial
13.0554214,77.6028101,4.477636777310566,Maa Binduvasini Chats corner,food service
13.0554001,77.6028356,4.478105394970068,Anmol garments,clothes
13.0552092,77.601991,4.396120082336337,,clothes
13.0554447,77.602758,4.475181232711894,Shree Lakshmi gifts and fancy store,grocery
13.0553665,77.6030063,4.489381110499608,Dolly creations,clothes
13.0553978,77.603267,4.512789604363923,Fazil home needs,grocery
13.0551721,77.6013115,4.339364970937846,Axis Bank,financial
13.0551718,77.6012008,4.330605085523436,Klassy Namkeen Mart,food service
13.0551752,77.6011293,4.325229745173029,Santosh Jewellers,jewellery
13.028156,77.558854,1.435374778616955,Comfort Inn & Suites,lodging
13.0292967,77.559646,1.352288583770635,Panchamukha Ganesh Temple,place of worship
13.0307262,77.5582323,1.523123172160141,Raghavendra Temple,place of worship
13.0297077,77.5584857,1.481268297794774,Subramanya Swami Temple,place of worship
13.0297633,77.5583147,1.5002942116075755,Ganesha Temple,place of worship
13.027047,77.5598253,1.3390974523861288,Jamundeshwari temple,place of worship
13.0306296,77.5594066,1.3959168834589513,,place of worship
13.059134,77.6021174,4.711721407077399,Smilee Nest 2,lodging
12.9925545,77.5860651,4.270488139575728,LoCul.Uptown,lodging
13.0019458,77.5518071,3.6784753013958524,,jewellery
12.9976787,77.5493004,4.221722888430476,Jockey,clothes
12.9979072,77.5695359,3.4096205725416606,Aramane Donne Biriyani,food service
12.9878823,77.5558068,4.845944146413612,Vajra Heritage,lodging
12.9877647,77.5558484,4.856488925406639,V. G. Provision Store,grocery
12.9877078,77.5558591,4.861966425879351,Canara Bank,financial
12.9876052,77.5558577,4.872658373305719,Canara Bank,financial
12.9872184,77.555841,4.913439345723281,Himalaya Provision Store,grocery
12.9898647,77.5545636,4.694226344989799,Sri Sai Fashion,clothes
12.9898621,77.5546219,4.691938036153549,,financial
12.9898516,77.5551738,4.669200899014274,HDFC Bank,financial
12.9898418,77.5553763,4.66163226062951,,financial
12.989817,77.5558289,4.645344829157507,N Rich Fashions,clothes
12.9885991,77.555898,4.768156797714357,NKGSB Bank,financial
12.9887846,77.555898,4.748984527831477,,grocery
12.9886337,77.5558993,4.764527921872681,NKGSB Bank,financial
12.9885148,77.5558839,4.777435143781841,Pradhan Jewels & Diamonds,jewellery
12.9884632,77.5557008,4.7900936463432595,GP Footwear,shoes
12.9880953,77.5558457,4.822353692774917,S. K. Fashions,clothes
13.0715699,77.5652901,4.849066121557163,Temple,place of worship
13.0717558,77.5652705,4.86981972749979,Shiva Temple,place of worship
13.0638286,77.5864221,4.226863843205903,Oi Playschool,education
13.0635883,77.5870373,4.227079366666165,Kyara,clothes
13.0638835,77.5880338,4.299608066568401,Breadworks,food service
13.0638295,77.5871557,4.256766364345809,Canara Bank,financial
13.0638577,77.5901963,4.396314234697775,Blyton's Bar,bar/club
13.063911,77.5831924,4.120113441909511,Allahabad Bank,financial
13.0668023,77.594974,4.930367488047954,Sri Vinayaka Hot Chips,food service
13.0666013,77.5955056,4.9403624576084715,Udupi Garden,food service
13.0666891,77.5957734,4.963668897008765,ICICI,financial
13.0668568,77.5956679,4.9737680725108255,Shoba Hyper Mart,grocery
13.0183808,77.564656,1.3815170807713122,State Bank of India,financial
13.0068403,77.5711956,2.4069659143102724,State Bank of India,financial
13.0248469,77.5484619,2.592249042551626,PVR Cinemas,cinema
13.0245352,77.5487375,2.5684353621213982,Unlimited,clothes
13.0110165,77.6144729,4.9838790420498364,Momina house,lodging
13.0122926,77.5562115,2.4896046154806175,Bangalore World Trade Center,attraction
13.0580013,77.5960278,4.183588535896841,Balaji Andhra Mess,food service
13.006448,77.5929997,3.3350246876484992,Temple,place of worship
12.9855047,77.5792404,4.839615347873165,The London Curry House,food service
12.997393,77.5500353,4.201726138289259,MySpace Express Balaji Residency,lodging
12.9970049,77.550213,4.2264573851110105,ICICI Bank,financial
12.9969748,77.5502077,4.2295504313833385,Axis Bank,financial
12.9928703,77.550834,4.58004536381226,Hotel Park Inn,food service
12.9913348,77.5507951,4.730448069388063,Hindi Shikshak Training College,education
12.9910238,77.5505564,4.773256262745325,,financial
12.9899117,77.5532573,4.748548933558627,Sri Devi Lodge,lodging
12.9899111,77.5532211,4.75029652630374,Sri Durga Grand Veg,food service
12.9899287,77.5528993,4.7636512044987045,Axis Bank,financial
12.9899349,77.5527977,4.767848664648685,Hotel Kaveri,food service
12.9899326,77.5527397,4.770837821168548,Aryan Residency,lodging
13.0000437,77.550093,3.9591049244289698,Metro Grand Upahara,food service
13.0260907,77.5849835,1.420557096153228,Indira Canteen,food service
12.9996905,77.5497732,4.011326507201966,State Bank of India,financial
13.0001169,77.5499562,3.961567093055866,State Bank of India,financial
12.997555,77.5445911,4.549516596801173,Bon Aroma,food service
12.9977118,77.5467135,4.3887174703620175,Empire,food service
12.9995622,77.5496994,4.027529546212198,Brahmin's Thatte Idli,food service
13.0240498,77.5506756,2.372402611678825,Kadamba Fast Food,food service
13.0234299,77.5509897,2.3545704843175157,Dakshen Veg Restaurant,food service
13.0632918,77.5910715,4.383720029721552,Swiss Cream,cafe
13.0712071,77.5806832,4.842391032498938,Academic Cafeteria,cafe
13.0048461,77.5540584,3.274135931152437,,place of worship
12.9904646,77.5505346,4.828735079949936,Udupi Upachar,food service
12.9974496,77.5487807,4.275436150979903,Vivek Steel Furnitures,home furnishing
13.0267394,77.5633585,0.966298180855324,IISc-ISRO Space Technology Cell,education
13.0112702,77.5556794,2.611860195110675,Hatti Kaapi,cafe
13.0116766,77.5556861,2.5784546455592827,Chai Point,cafe
13.0109906,77.5549485,2.688808004460001,Cookie Man,cafe
13.010805,77.5553991,2.6704504485162515,Bombay Brasserie,food service
13.0115956,77.5553917,2.6070272733085242,Geist Brewing Taproom,bar/club
12.9976981,77.5493842,4.214665935119255,Khadim's,shoes
12.997802,77.5492702,4.21253168148542,ICICI Bank,financial
12.9977484,77.5473746,4.340987708041903,Hotel Akshaya Non Veg,food service
12.9976327,77.5472526,4.359268634246317,Choice Footwear,shoes
12.9976158,77.5471801,4.365600028145024,My 9 Fashion Footwear,shoes
12.9973525,77.5475825,4.361962351734161,Eastern Super Market,grocery
12.9973198,77.547093,4.397320809707297,Raje Donne Biryani Manne,food service
12.9974694,77.5491408,4.250714029313582,The Nobel House,clothes
13.0152385,77.5536865,2.4786127260554243,Stellar Furniture,home furnishing
13.0128249,77.5533294,2.6760189332963265,,financial
13.0074057,77.5485211,3.465640013988312,Brahmin's Thatte Idli,food service
13.0071032,77.5484867,3.4911909015093268,Udupi Cafe,food service
13.0254093,77.5633894,1.0030767962016716,Centre for High Energy Physics,education
13.0249311,77.5629804,1.0633696587689556,Astronomy and Astrophysics Programme,education
13.0235748,77.5634176,1.0866527157783235,"Molecular Reproduction, Development & Genetics",education
13.0234782,77.5643228,1.0088430835714108,Microbiology & Cell Biology,education
13.0233135,77.5637421,1.0716282526234238,Centre for Ecological Sciences,education
13.0241471,77.5640331,0.9973035628699032,Biochemistry,education
13.0072584,77.5485048,3.4780282355059784,Ambur Hot Dum Biryani,food service
13.0056502,77.5485621,3.5972916202600578,wood masters,home furnishing
13.0168248,77.5653917,1.4847540570804418,Centre for Cryogenic Technology,education
13.0177382,77.559059,1.8492195469208248,Government High School,education
13.0002443,77.5599809,3.401980255114695,Kushi PG for Ladies,lodging
13.0286575,77.543415,3.107568777533838,,education
13.0289162,77.5435142,3.097149382093729,,grocery
13.0286581,77.5436007,3.08745234020048,,food service
13.0175703,77.5625069,1.5964385120075157,Sai South Grand,food service
12.9899287,77.5529918,4.759283513711747,Al-Taj Restaurant,food service
12.9869192,77.5562131,4.930293973679243,by 2 coffy,cafe
13.0071836,77.5794783,2.4981432189064994,Justbe Resto Cafe,food service
13.025596,77.5484722,2.5795093385949786,Cauvery Serenity,lodging
13.0251512,77.548137,2.6220492667161452,Holiday Inn Express,lodging
13.0665131,77.5966238,4.99529801551933,State Bank of India Amruthahalli Branch,financial
13.0665224,77.596578,4.993537567666991,SBI ATM,financial
13.0605479,77.588392,3.9797629496559925,Unmask cold pressed cooking oil,grocery
13.066602,77.5963556,4.988308191002229,Sri Sudha Co-Operative Bank Ltd,financial
13.0189687,77.5575829,1.8945242141026961,Arabian Restaurant,food service
13.0068889,77.5488656,3.477624799164374,Axis Bank,financial
13.010724,77.5502667,3.0802539039720362,Hotel Vande Matharam,food service
13.0141618,77.5542232,2.5062998976681543,Sangam,food service
13.0122579,77.5541209,2.6538687161717345,Jetlag,bar/club
13.0039628,77.5507974,3.5709219758428343,Hassan Iyenger Bakery,food service
13.0080788,77.5489767,3.3787458873063247,stories,food service
13.0010474,77.5499307,3.881441131869357,Bhima Jewellers,jewellery
13.041122,77.5901176,2.4061093857204225,,place of worship
13.0370574,77.5896455,2.127170979773061,Udupi Brahmashree,food service
13.0351773,77.5890219,1.979150114074948,Udupi Park Inn,food service
13.0244568,77.5851944,1.4870728840253307,,place of worship
12.9884809,77.5931015,4.9948055531848015,Black Village Organic Food Store,grocery
13.036702,77.5699098,0.9457387204340372,The Jamun,lodging
12.9900969,77.5545487,4.671284292947337,Shree Sai Silk Sarees,clothes
12.9977994,77.5517734,4.059485891580968,Batte Angadi,clothes
12.9985638,77.5730158,3.3267569604919838,,place of worship
12.9991179,77.5810423,3.404425268944756,,place of worship
12.9975602,77.5837594,3.6616582960188935,Corporation Bank,financial
12.9950709,77.5923814,4.315030409672529,,place of worship
13.0062133,77.5931539,3.3655326319187635,Udupi Veg,food service
13.004793,77.553319,3.327247794000987,Sri Vani Girls High School,education
12.9973706,77.5474267,4.370668810682172,Looking Good Furniture,home furnishing
12.9976465,77.5523655,4.0394638272283645,Cafe 916 & Bake,cafe
12.9955818,77.5538957,4.154793592928157,Canara Bank,financial
12.9921881,77.5546494,4.455251139261477,Karavali Fine Dine,food service
12.988307,77.5558618,4.799807222795594,Spicy Secret,food service
12.9986585,77.5508011,4.0388141383701255,Coffee Day Essentials,grocery
12.9961267,77.5644824,3.689745483370094,Canara Bank,financial
13.0491295,77.601753,3.9492548212528065,Loafer and Co.,cafe
13.0063463,77.5823289,2.6980010327389237,Nature's Cafe,cafe
13.0042121,77.5508621,3.5452597972017994,RBL Bank,financial
13.0039148,77.5501332,3.6218665411790396,Lassi Shop,food service
12.9964898,77.5508565,4.235710967126871,Le Grapes Restobar,bar/club
13.000224,77.5507146,3.902767093460519,ICICI Bank,financial
12.9991338,77.5509354,3.987165917265983,Sree Gajendra Juice and Chaats Center,food service
12.9983967,77.5510859,4.045296034974632,Titan,watches
12.997484,77.5498729,4.203462776834157,Karnataka Bank,financial
13.0206859,77.5521442,2.328657586299276,Hindustan Petroleum,fuel
13.0099126,77.5495425,3.198355407006988,,place of worship
13.0075364,77.5485219,3.455770439776516,Athulya Departmental,grocery
13.0071365,77.5484884,3.488537050537719,Arun Shoes,shoes
13.0279389,77.5617921,1.1182149329372244,Galaxy Suites,lodging
13.0260574,77.5618619,1.1410544020432405,Sri Shaneshwara Swami Temple,place of worship
13.0207983,77.562924,1.309810916985337,Aegis Autogas,fuel
12.990736,77.5870219,4.4963791266689945,,grocery
13.008108,77.5569521,2.796213723468755,Geometry Gastropub,bar/club
13.024189,77.5851756,1.4943455931961802,State Bank of India,financial
13.0252747,77.5854385,1.4880297232176682,Axis Bank,financial
13.0568114,77.5469099,4.1687302510967434,Lassi Shop,food service
13.0576985,77.5465371,4.269869582866775,shop@rite,grocery
13.0592583,77.5458048,4.4536371543828235,,financial
13.0610821,77.5446421,4.690196383510222,,place of worship
13.0296204,77.5611135,1.1970420355378015,Vishal Mega Mart,grocery
13.0306174,77.5604819,1.2810692897369527,Domino's,food service
13.0307271,77.5599951,1.335156486997471,,financial
13.0313098,77.559531,1.3977715080624893,Bata,shoes
13.032069,77.5593775,1.435195017186041,Karnataka Bank,financial
13.0334853,77.5579613,1.6300607490143249,Boots,shoes
13.0336721,77.5578305,1.6505476762020377,Mirchi,food service
13.0401787,77.5574362,2.053971039550118,Lassi Shop,food service
13.0191154,77.5851502,1.7551480878976813,Four Seasons Hotel,lodging
13.0662737,77.5586338,4.449613800664341,Mallikarjuna Flourmills,office
13.063717,77.5906393,4.403991432476262,Watsons,food service
12.9872008,77.556077,4.906161293610022,Malnad Aroma,food service
12.9893831,77.5561236,4.67811268531065,Lassi Corner,food service
12.9902802,77.5504638,4.850392338345583,Navya Residency,lodging
12.996571,77.5508266,4.229897848451045,The Grand Coral,lodging
12.9992734,77.5493702,4.074659636396254,Antarastriya,food service
12.9995256,77.5478742,4.1528352805021695,Apple Kids International Pre School,education
12.9987729,77.5522368,3.9413472444576914,Bank of India,financial
12.9989715,77.5521791,3.926296734679733,Rajbhog,food service
13.0000077,77.552163,3.8315483894240767,State Bank of India,financial
13.0002247,77.5519605,3.824116768331972,Udupi Veg,food service
12.9991492,77.5518914,3.9270960532641133,Singeri Home Made Meals,food service
12.9901417,77.5932464,4.838549944233708,Grand Spicy,food service
12.9915596,77.5942361,4.753456832633896,Bank of Baroda,financial
12.9916615,77.5943595,4.750450192586195,Empire,food service
12.9922679,77.5949737,4.7270232810399175,Punjab National Bank,financial
13.0413814,77.6145735,4.819989333774205,,financial
12.9960502,77.5476876,4.47095427659602,Goutham College,education
13.0405041,77.5899057,2.3476944598174962,,place of worship
13.0280734,77.5715842,0.07108034520725515,Subway,food service
13.0285726,77.5713234,0.08489976104951763,Lassi Shop,food service
13.0312184,77.5705764,0.3474462374714322,Domino's,food service
13.0337165,77.5689791,0.6743840541946897,Burp,food service
13.0359742,77.5734048,0.8464591489031684,,place of worship
13.0368849,77.5747217,0.9779885755571457,Brindavan Vaibhav,food service
12.9862919,77.5724177,4.689975977293913,Aegis Auto Gas,fuel
12.9846702,77.5746091,4.877756335518759,,place of worship
12.9974224,77.5491294,4.2556753548903785,Sri Gururaghavendra Jewellery Works,jewellery
13.006736,77.5488733,3.4887765497003924,Prestige Xclusive,home furnishing
13.0117027,77.5520208,2.8648676761833896,Cafe Coffee Day,cafe
13.0118151,77.552328,2.8314901758504103,Boycott Clothing,clothes
13.0118399,77.5523843,2.825073138478478,Nike Factory Store,clothes
12.9872988,77.5560663,4.89638166531381,,shoes
12.9899013,77.5533586,4.744886309519963,Mathrushree Residency,lodging
12.9960993,77.550948,4.266897597825327,Little Me Academy,education
12.9993792,77.5555868,3.696378924862768,,place of worship
13.0489609,77.6038874,4.1291339655100545,Drishti School of Photography,education
13.0489518,77.6039886,4.137723789061403,Nathaniel School of Music,education
13.0626929,77.5898165,4.262091452645254,Nathaniel School of Music,education
13.0491647,77.6026073,4.02712468287393,Corporation Bank,financial
12.9924782,77.5984472,4.915670664848777,Kengiri,lodging
12.9872877,77.5760803,4.599384029521131,Quills Library,education
13.0468704,77.5758244,2.0855735154287567,,food service
13.0387366,77.5899664,2.2471523367098274,Corporation Bank,financial
13.0387041,77.5905431,2.2993900351656715,Canara Bank,financial
13.038616,77.5899484,2.2386847219459147,Star Hotel,food service
13.0110969,77.5789377,2.068835636744635,State Bank of India,financial
13.0069827,77.5483088,3.5144333373783234,Condiments,cafe
13.0378871,77.5743958,1.0764057536574887,EasyDay Supermarket Ltd.,grocery
13.0007712,77.5518249,3.7828796170786343,Marammadevi Temple,place of worship
13.047544,77.544573,3.6593562692143635,"Orchids The International School, Jalahalli",education
13.0116909,77.5468543,3.310701314910126,Orchids The International School - Mahalakshmi Layout,education
13.0535572,77.5752216,2.8101329215142554,Iyengar Bakery,cafe
13.0543023,77.5685759,2.8978152209917334,Vyasa International School,education
13.0262907,77.5578304,1.5647050501600603,,clothes
13.0203467,77.5559144,1.9723534326636263,State Bank of India,financial
13.0227786,77.5565328,1.8012174979613367,A class PG,lodging
13.0234663,77.5569063,1.7374178490659198,Eco Hispitality PG,lodging
13.0291853,77.5611297,1.1910865366118077,Kotak Mahindra Bank,financial
13.0309414,77.5602591,1.3118643068221583,Domino's,food service
13.030564,77.5601296,1.3175214514048372,South Indian Bank,financial
13.0292268,77.5611013,1.1944729815419604,ICICI Bank,financial
13.0165915,77.5296753,4.7820540274362076,Corporation Bank ATM,financial
13.0092756,77.5375966,4.304312829772798,Axis Bank,financial
12.9928964,77.5897796,4.394834896485587,Corporation Bank,financial
12.990191,77.560667,4.432858163802353,Axis Bank,financial
12.9900506,77.5561739,4.607194655041832,Vijaya Bank,financial
13.0384524,77.5649122,1.3559760820181022,Bank of Baroda,financial
13.0280537,77.5621055,1.0836932367836343,Andhra Bank,financial
13.024748,77.5917987,2.173781835487524,Federal Bank,financial
13.0176903,77.5899085,2.2712614767837382,Dena Bank,financial
13.0144657,77.5678412,1.6239786016419224,Canara Bank,financial
13.0063435,77.5760173,2.4965524329318494,State Bank of India,financial
13.0012148,77.5358056,4.964375826376642,Canara Bank,financial
13.0009024,77.5715721,3.065769162652948,Vijaya Bank,financial
13.0001224,77.5712818,3.1532137100953417,State Bank of India,financial
12.9985128,77.5531829,3.9109359929199323,Union Bank of India,financial
12.9984609,77.5730292,3.3382373173675983,Bank of Baroda,financial
12.9977915,77.5437368,4.591103482822697,State Bank of India,financial
12.9977681,77.5717257,3.413994899302953,State Bank of India,financial
12.9961075,77.5794798,3.686161766447089,Axis Bank,financial
12.9940393,77.5776887,3.875965551407807,State Bank of India,financial
12.9937009,77.5556279,4.258015130630204,IDBI Bank,financial
12.9931411,77.5767129,3.9599188061732735,Indian Bank,financial
12.9927951,77.5898065,4.406243772336483,Corporation Bank,financial
12.9926008,77.5552992,4.3840465255713665,Federal Bank,financial
12.9916668,77.5549016,4.496415974381965,Union Bank of India,financial
12.9910228,77.5576941,4.446692359925303,Andhra Bank,financial
12.9905494,77.5578922,4.488616426457288,Bank of Baroda,financial
13.044658,77.552906,2.7502472054519695,Dashami Fast Food,food service
13.022342,77.5528657,2.1922474194008497,Annapurna Restaurant,food service
13.0203034,77.5923603,2.375284813526782,Vishnu Garden Vegetarian Restaurant,food service
13.0102358,77.5516049,3.006714702272075,Annakuta Prasadam Restaurant,food service
13.004777,77.581093,2.808794857930715,The Orchard Vegetarian Indian Restaurant,food service
13.0066617,77.5449837,3.809174595806534,Anupama College of Management And Science,education
12.9900587,77.5661228,4.3198116253757055,Government Pre University College,education
12.9899167,77.5735756,4.289770870385951,Ayra Hotel,lodging
13.0005017,77.599504,4.299461940566252,Lassi Shop,food service
13.0009956,77.599335,4.2471654970639685,Kotak Mahindra Bank,financial
12.9972714,77.6013547,4.69886284293042,Annunciation Church,place of worship
12.9953897,77.6030767,4.979180818586705,Prestige Supermarket,grocery
13.0006827,77.5368362,4.913407948129595,Bherav Jewellers,jewellery
13.0007003,77.5365438,4.936855119539938,Anand Jewelers,jewellery
13.0044097,77.581653,2.868464198841721,Go Native Sadashivnagar,food service
13.0193484,77.5570913,1.9162856285491552,Garden Restaurant,food service
12.9999594,77.5602699,3.419369134262222,State Bank of India,financial
13.0087525,77.5693951,2.2118399850867805,Coffee Break,cafe
13.0291064,77.5588449,1.4376861368202083,,clothes
13.0193773,77.5571,1.9137864759034835,Garden PG (gents),lodging
13.0250155,77.5576232,1.6146220697089184,Prakash Jewelry,jewellery
13.0327874,77.5965496,2.691865515342715,Sukrupa School,education
13.0369061,77.6148395,4.7241193465219835,Sri Balaji Men's PG,lodging
13.0691806,77.5809502,4.62735619200609,Trupti Thindi,food service
13.0690971,77.5809341,4.617911583908171,Nila Food Corner,food service
13.0310637,77.5711646,0.30581696666532876,Benaka Homes Libero apartments,lodging
13.019726,77.5552398,2.0691174278007507,M.S.Polytechnic,education
13.0338567,77.5539698,2.053394188904967,More,grocery
13.0333661,77.5541308,2.021345564174639,Food Supermarket,grocery
12.9978,77.5407596,4.812285061394688,Fabindia,clothes
12.9977281,77.5408233,4.813093247860944,Equitas Small Finance Bank,financial
12.9976504,77.5404578,4.847157117862488,Sandwich Station,food service
12.9976327,77.5404827,4.846641901203381,Goli Vada Pav,food service
13.0304848,77.5758007,0.45934333165460084,amerikhani,food service
13.0124381,77.5537076,2.6735012904953503,Shell Select,grocery
13.0555416,77.6079033,4.909668557778713,Baohood,food service
13.0327048,77.5549556,1.9160597264170252,,place of worship
13.0354488,77.5551021,1.998270516752889,,place of worship
13.0628968,77.576413,3.856633290861183,Cafe Naturals,cafe
13.0287714,77.555613,1.7863744031501496,Pawan Shine Apartment,lodging
13.0278362,77.5562995,1.713134733083987,L.C.R. English School,education
13.0219436,77.5536336,2.128030219062457,Vijayalakshmi Residency,lodging
13.0219457,77.5536147,2.1298756178614355,State Bank of India,financial
13.0298326,77.5534828,2.022516753205124,,financial
13.0376973,77.5595009,1.7075807497025863,Athumanesar church,place of worship
13.0308986,77.5542479,1.9527165382704537,Nexgen supermarket,grocery
13.0409904,77.5636179,1.6682031855766595,,financial
13.0297929,77.5536843,2.000420315284473,Star collections,clothes
13.0320123,77.5698439,0.4636617032217104,Frozen Bottle,cafe
13.0317577,77.6032463,3.393918484023457,Sri Lakshmi Narasimha Swamy Temple,place of worship
13.0329988,77.5991477,2.9731226206346157,Bharat Petroleum,fuel
13.0278171,77.5572395,1.611487434011819,Ajanta Networld,cafe
13.013775,77.5481048,3.070345216777844,The Circus Canteen,food service
13.0094204,77.5419006,3.8974564886411747,Arihant Apartment,lodging
13.0700921,77.574569,4.636029748735055,#28,lodging
13.0586132,77.5931287,4.052713199970784,Thalassery Restaurant,food service
12.9883109,77.556248,4.784224920027107,Prakriti Deluxe,food service
12.9974681,77.5491837,4.248113301800876,Hasanamba Benne Dosa,food service
13.06375,77.5777442,3.9704588512237025,Naksha Greens Juice and Snack Bar,food service
12.984414,77.578281,4.9442259479930195,HDFC Bank,financial
12.9887173,77.5779605,4.465529996333938,Umesh Refreshments,food service
12.9889048,77.5775568,4.438856936256018,Umesh Dosa Point,food service
13.0296779,77.6066586,3.7462468152855464,Nature View Shruthi Apartments,lodging
13.0299721,77.6067441,3.7568145002384328,Nature View Residency,lodging
