Landmark Latitude,Landmark Longitude,Distance,Landmark Name,Property Type
12.8952509,77.6019087,1.3925455373915752,State Bank of India,financial
12.8772119,77.6025994,3.3972425991806,,education
12.8984603,77.6010688,1.0287118122482173,Snack Corner,food service
12.894213,77.6025681,1.5165467634028815,Athicas Canteen,food service
12.8944356,77.6024475,1.4901104066085464,Chai-Unchai,cafe
12.8973119,77.6015666,1.160667063518743,,food service
12.8922129,77.5985137,1.733378182721145,Adigas,food service
12.9316521,77.5907098,2.8648149442054547,Canara Bank Holiday Home,lodging
12.9309141,77.5850854,3.0710631622590245,Citibank,financial
12.9330058,77.5836988,3.3479710895331016,ICICI Bank,financial
12.9365346,77.627846,4.372775594279721,State Bank of India,financial
12.9365895,77.5804447,3.8747762020317884,Bharat Petroleum,fuel
12.9369025,77.5848426,3.6608790464989216,Mahashakthi Enterprises,fuel
12.9285088,77.6007706,2.3152315230977716,Indian Oil Petrol Bunk,fuel
12.9275361,77.5894406,2.507237622143079,Advaitha Petrol Bunk,fuel
12.9333646,77.6230728,3.765217241593016,Sukh Sagar,food service
12.935703,77.6156133,3.523249725056254,Masjid-e-Mamoor,place of worship
12.9163076,77.6103158,1.4380939765679792,Udupi Garden,food service
12.9328185,77.5830433,3.3696676103895973,Foodworld,grocery
12.9309193,77.5837775,3.150512581437984,Canara Bank,financial
12.9289702,77.5839921,2.9613757568404666,State Bank of India,financial
12.9238284,77.5763354,3.1678004678826515,Citibank ATM Jayanagar 7th Block,financial
12.9353555,77.6148616,3.451439498479445,ICICI Bank,financial
12.9356671,77.6144578,3.46290952154581,Bharat Petroleum,fuel
12.9156177,77.6347321,3.821729343145084,State Bank of India,financial
12.9498004,77.5865608,4.917501667761116,Lalbagh Glasshouse,attraction
12.9141893,77.5933299,1.0550112387128634,Ragigudda Temple,place of worship
12.9344837,77.6130843,3.2801859907481443,Bob's Bar,food service
12.9215957,77.5857204,2.2202682092420742,Ganesh Temple,place of worship
12.932868,77.5872561,3.142292466186336,Ganesha Temple,place of worship
12.8986538,77.5578162,4.725940437037163,State Bank of India,financial
12.8989528,77.5575938,4.7425721864172425,Karur Vysya Bank,financial
12.8986874,77.5577817,4.728801725266957,,grocery
12.8983313,77.5582799,4.684680899811899,Shop and save,grocery
12.9233773,77.598919,1.7519126867541883,Maheshwari,cinema
12.9181989,77.573292,3.1640716520833148,Ganapathi Temple,place of worship
12.9172203,77.5923138,1.3766551712033603,Smart Bazaar,grocery
12.932679,77.6135844,3.1234395422758516,Hyderabad House,food service
12.9351086,77.611565,3.2792753037430735,McDonald's,food service
12.9343669,77.6107742,3.171418519754388,KFC,food service
12.9430867,77.5994637,3.937280394046921,Madrasa-e Arabiya,education
12.9430329,77.5849889,4.2710450723639415,Brigade Homestead,lodging
12.9309204,77.5840319,3.1349079182414665,Ganesh Darshan,food service
12.9330581,77.584422,3.311149633818615,Upahara Darshini,food service
12.9330431,77.5843044,3.316424264098175,Nagarjuna Chimney,food service
12.9261789,77.5848245,2.6615998700054284,La Casa,food service
12.9268754,77.5862909,2.6261149150832064,KFC,food service
12.925064,77.6328706,4.012535183350067,Sathya's,bar/club
12.946945,77.6175314,4.742473273978673,St. Sara's School,education
12.9451797,77.6213677,4.746659284724982,Annamma Temple,place of worship
12.9479784,77.6189413,4.908910229404367,,place of worship
12.9495122,77.6128103,4.840332270272549,Kalikamba Temple,place of worship
12.9497089,77.6128657,4.863011319744246,,place of worship
12.9500299,77.6132833,4.909970563445914,Shiva Temple,place of worship
12.9496275,77.6139658,4.8887806418618664,Government School,education
12.9497624,77.6143357,4.915240892654115,Methodist church school,education
12.9500555,77.6148988,4.965215344913697,,place of worship
12.9499206,77.6151518,4.959743453489844,Adithya public school,education
12.9494647,77.6154126,4.921033899791845,Church statue,place of worship
12.9081047,77.5925498,0.8544404945625008,Vasavi Education Trust School,education
12.9356995,77.6145787,3.4719169351940113,Cafe Coffee Day,cafe
12.9165004,77.5922463,1.3209257155284106,Bangalore Central,mall
12.9310045,77.5830947,3.2011278607152693,Pizza Hut,food service
12.9241534,77.5870587,2.3342595744102597,Raghavendra Swamy Mutt,place of worship
12.8762947,77.6164979,3.9017479293827786,Mamata,grocery
12.9062825,77.6276456,2.9548241479263373,Ganesha Temple,place of worship
12.8985118,77.617863,2.1483174723167737,Hanuman Temple,place of worship
12.8981899,77.6181991,2.1974243530884467,Shanishwara temple,place of worship
12.8986161,77.6179121,2.147528169033718,Sweet City Bakery,grocery
12.9242835,77.6181188,2.6614348217739336,Ayyappa Swamy Temple,place of worship
12.9380122,77.6265834,4.4053777845995965,Ganesh Temple,place of worship
12.8989097,77.6219897,2.5333888208556545,,grocery
12.9431459,77.5893564,4.120850574357775,Ganesha Statue,place of worship
12.9429538,77.5927317,4.008725647551947,Masjid Abu Bakr (RAA),place of worship
12.9130435,77.6099326,1.1903543890384354,Trends Woman,clothes
12.9356089,77.6151797,3.492231189481134,HDFC Bank,financial
12.9104601,77.5823629,1.9813802738060577,Sri Kalyana Venkateshwara Temple,place of worship
12.9150732,77.6197271,2.247676657561719,Vinayaka Temple,place of worship
12.9093013,77.614205,1.504603570909136,ICICI Bank,financial
12.9066923,77.6129725,1.3648413159875155,Lord Shiva Temple,place of worship
12.9080346,77.613565,1.4250524311501886,Masjid Quba,place of worship
12.9057731,77.6125928,1.336284529025459,Durga Temple,place of worship
12.9140567,77.6099682,1.2536861671701172,Jockey,clothes
12.9141469,77.6116922,1.4169028211948134,"St Josephs Eng Pri Sch, B T M Layout W No 65",education
12.9149626,77.6149914,1.7741279098476959,Sri Ganesh Food Point,food service
12.9140156,77.6092776,1.1899537096408928,Allen Solly,clothes
12.913127,77.6101684,1.217138439907453,Beijing Bites,food service
12.9127285,77.6064015,0.8566881745322578,Indian Bank,financial
12.9136099,77.6102033,1.2478928019258324,Mom & Kid,clothes
12.9136689,77.6099505,1.2282388689944577,Punjabi Swag,food service
12.9099963,77.6101216,1.0821410513981629,Sri Chamundeshwari Temple,place of worship
12.9279136,77.5866159,2.70105409128028,Vijaya Pre-University College,education
12.9217736,77.5925109,1.7853516480919482,Holy Saint English School,education
12.923826,77.5846934,2.4748910632662904,Holy Christ English School,education
12.9340338,77.5874849,3.247535630175695,Saraswati Vidya Mandir,education
12.9240904,77.5846782,2.4974118888384234,MES School 4th Blk Jayanagar,education
12.9229013,77.5816474,2.645979921007067,Good Shepherd School,education
12.9268857,77.5833568,2.8242759190931093,RV Dental College,education
12.9271452,77.5778773,3.263430370380286,Nehru Smaraka Vidya Kendra,education
12.9387689,77.5841184,3.8813062147368034,Community English High School,education
12.9355883,77.5808383,3.7587110537043626,City Central Library,education
12.934729,77.6125976,3.2834269784860908,Hungry Panda,food service
12.9318576,77.5648659,4.698007148429561,Muneshwara Temple,place of worship
12.944337,77.620028,4.59567410678564,Hotel Ganga Sagar,lodging
12.9377655,77.6267552,4.396483331571885,Gangothri Restaurant,food service
12.9398542,77.6251855,4.471492532594865,Pizza Hut,food service
12.9376227,77.6269262,4.396503973561391,Taco Bell,food service
12.9455764,77.5965053,4.234081415384327,Shanti Church,place of worship
12.9349444,77.6293498,4.3604610731584925,Barista,cafe
12.9355492,77.6287026,4.357846393776145,Rendezvous,bar/club
12.9353574,77.6293981,4.396238126725206,Maple's,lodging
12.916193,77.6053993,1.0885579250443027,Karnataka Bank,financial
12.9344118,77.6109865,3.184289721131503,Cafe Coffee Day,cafe
12.9001507,77.630134,3.327754490253872,The Oxford Dental College & Hospital,education
12.8895751,77.5630383,4.525014329426273,,financial
12.9040043,77.5734008,2.957225631065506,Pizza Hut,food service
12.8940827,77.5679951,3.826518956556362,Domino's,food service
12.8941977,77.5680809,3.812928566248156,ICICI Bank,financial
12.894203,77.5681238,3.80842209361007,Sri Krishna Upahar,food service
12.894433,77.5683437,3.7764672372987604,HDFC Bank,financial
12.8910036,77.5646686,4.296533175258843,Mobil Petrol / Gas Station,fuel
12.9362306,77.6254307,4.173480922952256,Kota Kachori,food service
12.9370423,77.6245906,4.184932234899096,Coast to Coast Sea food restaurant,food service
12.9342471,77.6234716,3.8679246147838238,Tamrind Restaurant,food service
12.9370998,77.6245424,4.186656580591138,Kubey Seafood Restaurant,food service
12.9089347,77.5626077,4.100802011175081,Polar Bear,cafe
12.9083281,77.5639541,3.9531782612335284,,financial
12.9075699,77.5640131,3.9461757954418597,Udupi Swada,food service
12.9089138,77.5625218,4.110029565980525,NJAC,cafe
12.9134732,77.5590565,4.529202908395577,Kadirenahalli Petrol Pump,fuel
12.9109843,77.5791221,2.3374234899558113,Prasiddhi,food service
12.895836,77.5818445,2.406616798811625,Indian Oil,fuel
12.9119447,77.5581363,4.607422755283271,Prarthana School,education
12.9107281,77.5792052,2.324218584651138,Reliance Fresh,grocery
12.9113882,77.5747186,2.8159980598467285,,financial
12.9056456,77.5855728,1.6253857345752165,Nandhini Deluxe,food service
12.9022616,77.5827185,2.0114941780294755,Ganesha Temple,place of worship
12.9027732,77.5837541,1.887461643415627,Inchara,food service
12.9083213,77.5641425,3.932748314961181,,financial
12.9084259,77.5639762,3.950992771102478,,financial
12.9019316,77.5611814,4.301047500323317,State Bank of India,financial
12.8929689,77.5596739,4.710179804058961,Insight Academy,education
12.8988366,77.5572943,4.776997415604585,Vinayaka Temple,place of worship
12.8830441,77.565967,4.632214675210379,Reliance Smart Point,grocery
12.9089389,77.5664343,3.6863366741462102,Dayanand Sagar College of Engineering,education
12.9354349,77.6058672,3.1410136920328977,Christ University Library,education
12.9363255,77.5767626,4.088196550087021,U D Residency,food service
12.9359939,77.6151031,3.5265875907726025,Sweet Chariot,cafe
12.9342871,77.6161496,3.413509553811705,Terminus,lodging
12.9334642,77.6151016,3.277939307468222,Latte Tude,cafe
12.9365445,77.6142714,3.5422040969301753,Lucky da dhaba,food service
12.9338202,77.6193658,3.5577380189950913,Lazeej,food service
12.9345967,77.6162526,3.4489180466016736,Meghna Biryani,food service
12.9336119,77.6152238,3.2987284704030624,Zheng,food service
12.9338304,77.6194655,3.564909383024576,Golmal Paratha,food service
12.9345246,77.6162996,3.444507752476566,Costa,cafe
12.9365369,77.614409,3.5477851308685215,Aalishan,food service
12.936364,77.6147769,3.5477164660578846,The Juke Box,bar/club
12.9336331,77.622557,3.7519154110883783,Ping,food service
12.9366058,77.614973,3.5812074972816696,Sixtyfour,bar/club
12.9359336,77.6146718,3.499727463051844,Daawat,food service
12.9362549,77.6145138,3.524367850711264,Atithya,food service
12.9338227,77.6193019,3.553973157266569,Tunday Kabab,food service
12.9358653,77.6149483,3.5062670694651756,Udupi Upahaara,food service
12.9354363,77.6147873,3.455814285825551,Friends,cafe
12.9332689,77.6147839,3.2422995409801794,Purple Haze,bar/club
12.9333951,77.6155122,3.2930967373024616,Cuppa,cafe
12.9363343,77.6151183,3.561143674959865,Coorg,food service
12.9337973,77.6189966,3.5327046662422883,KC Das,food service
12.9358031,77.6147343,3.489717595958898,Adyar Ananda Bhavan,food service
12.9363805,77.6151025,3.564974466508567,Zingron,food service
12.9334311,77.6217925,3.6819977786202784,Beijing Bites,food service
12.9335142,77.6151725,3.2865322438254334,Blue Petal Business Hotel,lodging
12.9341001,77.6164042,3.4094461450472653,Lazeez Express,food service
12.936529,77.6146211,3.556876017680333,Ammi's Biryani,food service
12.9338857,77.6194174,3.566913294750134,Tandoor Hut,food service
12.9127092,77.6061623,0.8358118360468648,City Union Bank,financial
12.9106552,77.6063086,0.7181948104309231,Homeneeds,grocery
12.9116247,77.6026978,0.5022557465286495,Rama Temple,place of worship
12.9052591,77.5951539,0.6317157489997138,MK Ahmed Bazar,grocery
12.9070833,77.6351607,3.7658015861602445,Mangammanapalya,transportation
12.9332952,77.591203,3.017363077869548,Masjid Umar Farooq (Byrasandra),place of worship
12.9450769,77.5903688,4.29760684821891,Masjid e Inayat,place of worship
12.9365,77.582432,3.7501709004487003,HDFC Bank,financial
12.9353703,77.582448,3.6425254033397625,Temple,place of worship
12.9353912,77.5827887,3.6248873968714217,,place of worship
12.9433387,77.5850711,4.298897485082789,Cafe Coffee Day,cafe
12.921943,77.620248,2.6700417782338444,Mac,food service
12.934708,77.6126855,3.2851317390496266,State Bank of India,financial
12.9287707,77.5824139,3.0501906309020645,Canara Bank,financial
12.932818,77.5842985,3.295513431558518,Corporation Bank,financial
12.9420282,77.5802856,4.397862133119459,Indian Oil,fuel
12.9356059,77.6143393,3.4511650690310844,Axis Bank,financial
12.9361984,77.6214666,3.905234191389203,China Pearl,food service
12.9346877,77.6116748,3.240269455404874,PVR,cinema
12.934745,77.611659,3.2455302435394073,Westside,clothes
12.934792,77.6113,3.2359975249880497,Reebok,clothes
12.934525,77.610909,3.193038668847433,Pizza Hut,food service
12.934546,77.61107,3.20146943813814,Metro,shoes
12.935016,77.611357,3.2614454604470233,Sahib Singh Sultan,food service
12.934504,77.613547,3.303517846619613,Gramin,food service
12.934323,77.613299,3.2738165721239403,Om,food service
12.9324379,77.5862539,3.1512341243445605,Addidas,clothes
12.9306133,77.5825147,3.2036888073975396,Nandini,food service
12.9341298,77.6109889,3.1551448729075067,More,grocery
12.933604,77.613126,3.193549839569167,Standard Chartered,financial
12.9355699,77.6142407,3.4429031194559956,Axis Bank,financial
12.9221435,77.5599636,4.670171229708495,Devegowda Petrol Bunk,fuel
12.9372017,77.6244522,4.189428495207791,Madurai Idly shop,food service
12.9165317,77.5923697,1.3145923851139083,Pantaloons OnLoop,mall
12.9062514,77.6097829,1.0271542705873409,Madinanagar Mosque,place of worship
12.9177491,77.5924251,1.414991205597772,Ganapati Temple,place of worship
12.9170955,77.5905046,1.499679134458321,,education
12.9162428,77.592424,1.2867727015584205,Inox,cinema
12.934295,77.6300787,4.368384301547055,Maharaja Restaurant,food service
12.9338627,77.6304381,4.36493003508426,Axis Bank,financial
12.9312186,77.6342399,4.503169196684447,,food service
12.9353385,77.6138382,3.4008747673111097,State Bank of India,financial
12.9423147,77.6150065,4.161914896161492,More Supermarket,grocery
12.9375475,77.6279931,4.466690348180698,Lifestyle,clothes
12.9344222,77.6240149,3.9209522239488885,Canara Bank,financial
12.9331413,77.6228508,3.7307047762865664,Fiorano Ristorante,food service
12.9336643,77.6231619,3.796807489912604,Kotak Mahindra Bank,financial
12.9338891,77.6232852,3.8245004900738504,IDBI Bank,financial
12.935716,77.6218199,3.884558921076168,Nilgiris,grocery
12.9404971,77.6207624,4.262320271615682,Bethany High School Koramangala,education
12.9337444,77.6301835,4.335603409069127,Levi's and Nike,shoes
12.9284497,77.5733648,3.7319856891043273,Namma MTR,food service
12.933506,77.6303939,4.334996875908034,HP Petrol Pump,fuel
12.9139266,77.5854371,1.7659398240503672,State Bank of India,financial
12.936103,77.6251968,4.146241199904111,Karur Vysya Bank,financial
12.9358758,77.6259621,4.181462130639927,Dhanalakshmi Bank,financial
12.9378758,77.6266672,4.399647381402167,Sri Prasanna Veeranjaneya Temple,place of worship
12.9376456,77.626351,4.357975074937199,Manyavar,clothes
12.9328395,77.5638317,4.8524593350627905,SSM Public School,education
12.9166102,77.5914577,1.3884120147299066,Shiv Sagar Signature,food service
12.9153417,77.5948673,1.0422498111317227,SLV,food service
12.9163528,77.5921287,1.3174626883766651,Food Court,food service
12.9165527,77.5921175,1.3346184476092444,McDonald's,food service
12.9231515,77.5893938,2.0938650590996972,Shanthi Sagar,food service
12.9200217,77.5892754,1.8274594897603305,Saibaba Temple,place of worship
12.9144392,77.5858525,1.7483205355317168,HDFC Bank,financial
12.9198321,77.5927344,1.5865019444862676,,financial
12.9226921,77.5935766,1.8256692888919466,ICICI Bank,financial
12.9373618,77.6244338,4.2021515964995775,HDFC Bank,financial
12.9352032,77.6228947,3.9104384114878257,Sowbaghya traders,grocery
12.9371376,77.6241392,4.162816356554462,Navya shree sarees,clothes
12.9354469,77.6154094,3.487752474468223,McDonald's,food service
12.9365646,77.6207273,3.8925035932934344,Banana Beach bar,bar/club
12.9362976,77.6213531,3.9070378795795113,Nandhana Grand,food service
12.9366384,77.6206523,3.8946931589802154,fulki,clothes
12.9365443,77.6205772,3.881463533276587,U Fashion store,clothes
12.941685,77.621969,4.443214998724637,"Ganapathy, Anjaneya, Raghavendra Swamy temple",place of worship
12.9418577,77.6159961,4.157329619939395,Forum bakery,grocery
12.9372141,77.568841,4.742594568562598,Syndicate Bank,financial
12.9370677,77.568849,4.7307141356430265,Syndicate Bank,financial
12.9365631,77.567363,4.810859062677446,,financial
12.9228555,77.5600873,4.6854874223101675,D Mart,clothes
12.9449911,77.618272,4.576648166777089,Mookambika Bar& Resturant,bar/club
12.872045,77.5931718,4.040716691411119,South Indian Bank,financial
12.8662035,77.5905325,4.736013729140386,Immaculate Conception Church,place of worship
12.9422358,77.6178071,4.278518392469524,Dim Sum,food service
12.9309662,77.6004616,2.588176725191608,Classic Auto Gas,fuel
12.9301626,77.6011209,2.499965655792889,Spar,grocery
12.9284331,77.5900599,2.565372814254225,Brews & Bites,cafe
12.9100191,77.5925018,0.8966071578036129,Karnataka Bank,financial
12.9104894,77.5907795,1.090432452403853,Vignesh Jewellary,jewellery
12.9309732,77.5901342,2.818830707330837,Nandini Milk Diary,grocery
12.9307824,77.5905204,2.7829514372203263,Hopcoms,grocery
12.9351927,77.6136464,3.3773524230958656,F M Silks,clothes
12.9393809,77.5712615,4.733411721226675,Bhavani Bangles,jewellery
12.9336342,77.6176324,3.4353466996150486,Krishna Temple,place of worship
12.9335033,77.606469,2.944162773486993,Christ University Library,education
12.93091,77.608255,2.7179198487516927,Anjaneya Temple,place of worship
12.9309532,77.6084387,2.728757589267974,Srirama Temple,place of worship
12.9140071,77.5993825,0.7113803390044672,Gopalan Cinemas,cinema
12.9321895,77.5862459,3.1275693790720323,Nike,clothes
12.9322783,77.5862513,3.1358869482953295,United Colors of Benetton,clothes
12.9318182,77.5862459,3.091674654616266,MAX,clothes
12.9305893,77.5862057,2.9761244930531268,she,clothes
12.9330961,77.5823147,3.4397381873287034,Lassi Park,cafe
12.9339482,77.5664867,4.695914393811151,Kamala Nehru Patashala (Emmanual English School),education
12.9333966,77.5660039,4.699453981555801,Sri Lakshmi Venkateshwara Provision Stores,grocery
12.9321898,77.5656194,4.652786805216894,Sharadamba Temple,place of worship
12.9343751,77.565952,4.7708137221250615,Dattatreya Temple,place of worship
12.9327754,77.5660244,4.65598715057652,Abhaya Lakshmi Narasimha Temple,place of worship
12.9332872,77.5679132,4.5292966456698585,Plague Ammana Temple,place of worship
12.9342938,77.5660221,4.759243056105103,Balamuri Ganapathi Temple,place of worship
12.9318604,77.5672556,4.488198602142633,Shanimahatma Temple,place of worship
12.9141661,77.590697,1.2764954836676599,BESCOM,office
12.943764,77.6071874,4.077691477879892,Adigas,food service
12.934104,77.6164798,3.4139892200961253,Adaa Restaurant,food service
12.9364646,77.614012,3.5223105326028374,Shri Someshwara Temple,place of worship
12.9368528,77.6203487,3.8960841844833585,Willy Vanilli,food service
12.9366057,77.6205137,3.883245479866023,Chung wah,food service
12.93567,77.6152337,3.5009517174856013,,financial
12.9364151,77.6144033,3.5352802707854236,Safal Supermarket,grocery
12.9363015,77.6151475,3.5592999452998266,Sathyas Biriyani,food service
12.935901,77.614926,3.5087310006447727,Madan Pub,bar/club
12.9360411,77.6148636,3.5196525598491535,Red fort restaurant,food service
12.936049,77.6150661,3.5302517017030057,Corner House Icecreams,food service
12.9373691,77.6243143,4.194781733516037,Bhojohori manna,food service
12.9368986,77.6198954,3.873336902996529,Krishna Cafe,food service
12.9364077,77.6250803,4.163999858812809,Imperial Hotel,food service
12.9373234,77.624368,4.194383807189499,heritage of Bengal,food service
12.9390944,77.6229075,4.258264953987648,The boutique,clothes
12.9369809,77.6197694,3.8736042158667243,Anand Sweets and Restaurant,food service
12.9368711,77.6248696,4.189162804122396,Ocean restaurant,food service
12.9397911,77.6222423,4.281783506178767,Aanchal,clothes
12.9189547,77.607059,1.4444327327629294,Ganesha Temple,place of worship
12.9168527,77.6034541,1.0705230079062622,Juice Burg Cafe,food service
12.9180449,77.6018824,1.1622232128483683,Saibaba Temple,place of worship
12.9168632,77.6045592,1.1142154518154423,,financial
12.9348451,77.6128809,3.307667462806903,N.E Diner,food service
12.9350385,77.6130633,3.335381811308198,Thanco Fresh Fruitz Ice-Creams,food service
12.935577,77.6130901,3.3912387923617047,Mangoa Coastal cuisine,food service
12.9353286,77.6128207,3.354198154666661,Baby's day out,grocery
12.9371352,77.619779,3.8886023292986436,Flambe,food service
12.9365549,77.6165979,3.657205316613399,Aangan restaurant,food service
12.9364451,77.6170968,3.6727971258836596,Nandini Shoppe,grocery
12.9123969,77.6407671,4.404009749678811,Coffee Bean,cafe
12.9123516,77.6411691,4.446684873306753,HDFC Bank,financial
12.936869,77.6247225,4.17891614613386,Naati oota,food service
12.9370938,77.6199696,3.8959216409017214,F square,clothes
12.9368481,77.6198784,3.8676248780041247,Sizzlers and more,food service
12.9357659,77.6217238,3.8828096265078686,Swiss Embroideries,clothes
12.9366613,77.6253726,4.205960311038973,Indian Bank,financial
12.9372193,77.619574,3.884562017365354,4 Seasons Suites,lodging
12.936937,77.6202003,3.8950055282020033,China Bowl restaurant,food service
12.9368167,77.619975,3.8704208541727554,Shubh Jewellers,jewellery
12.9368899,77.6197711,3.8652002951655327,Malabar cafe,food service
12.9369893,77.6201144,3.8947529214173238,Desi Tadka,food service
12.9368847,77.6246206,4.173322553204025,Chinese Cottage,food service
12.9368533,77.6201144,3.882112298632452,Reid & Taylor,clothes
12.9377944,77.6266966,4.3948103071673215,Chalo Punjab,food service
12.9382962,77.626001,4.389457844889749,Namdhari's fresh,grocery
12.9361835,77.6258638,4.200164862121426,Ambrosia restaurant,food service
12.9364455,77.6255862,4.202596642813369,OM Stationery and xerox,grocery
12.9380577,77.6261445,4.378814355788426,Kwality Walls,food service
12.9401157,77.6250336,4.4849723995198465,IndusInd Bank,financial
12.9362155,77.6259241,4.207139994281114,B52 Bar,bar/club
12.937363,77.626659,4.355723979929315,Brown Tree Super,grocery
12.9367383,77.6259938,4.256052559666212,Bank of Baroda,financial
12.9120524,77.6379776,4.099265684157817,Jharoka,food service
12.9143549,77.6383198,4.1738545719342195,Kottayam,food service
12.9121865,77.6379811,4.10143224938109,McDonald's,food service
12.9362945,77.6149366,3.5484120639234433,Babys Planet,grocery
12.9255307,77.6371758,4.450088284158113,ICICI Bank,financial
12.8900232,77.6250769,3.316723032830844,Infant Jesus Church Hongasandra,place of worship
12.9352294,77.6076048,3.1596277038629332,Kairali Restaurant,food service
12.9272988,77.6375732,4.5789577772583945,Kidzee Play school,education
12.9246365,77.6384508,4.531969825470724,Kripanidhi Cambridge Public School,education
12.9343755,77.6090481,3.111072765159499,Little Italy,food service
12.913486,77.6374501,4.064698254428684,Safa,grocery
12.935785,77.6076261,3.2200977410693534,Karavali Fine Dine,food service
12.8889212,77.6252612,3.4065094494551427,St Francis ICSE school,education
12.9335261,77.6152234,3.2903744243967794,Sultan of Spice,food service
12.9286689,77.6354869,4.459210121714609,,education
12.9062634,77.6298345,3.1918657138019344,Tharavad,food service
12.9258752,77.6170606,2.709401640970471,MAS,food service
12.936209,77.6171253,3.651495792227637,Deutsche Bank,financial
12.9364168,77.6164628,3.63671410961008,Reliance Footprint,grocery
12.933536,77.6155026,3.306189725082709,Ammis Biriyani,food service
12.9352797,77.6157628,3.489397889823967,Chung Wah Restaurant,food service
12.9338184,77.6192443,3.549991258330172,Gia Garments,clothes
12.9338001,77.619424,3.559558739707438,Mama mia,food service
12.9416947,77.621508,4.418083611798728,Boca Grande,food service
12.9420162,77.6219426,4.473094584768581,Federal Bank,financial
12.9365946,77.6176725,3.7182563703432163,Hopcoms,grocery
12.9227705,77.6142078,2.245965391729902,Tasty Restaurant,food service
12.9232149,77.612864,2.190548774102159,Food City Super Market,grocery
12.9348619,77.6112385,3.2408199774760362,Soch,clothes
12.9154345,77.6321713,3.547242804965499,Fooddays,grocery
12.9333166,77.5726226,4.14693804735944,Sri Kumaran Children's Home,education
12.935381,77.570171,4.497729674305769,Sai Baba Temple,place of worship
12.9356689,77.5699296,4.538718036284733,SSM Primary School,education
12.9383716,77.5700155,4.743273602752593,Srinivasa Cool Corner,food service
12.9329243,77.5712761,4.22505129438178,Ganesh Mandir,place of worship
12.9329402,77.5717482,4.188120680373971,Kumaran Children's High School,education
12.9149827,77.605687,0.9915682590697853,Sir M. Visvesvaraya Co-Operative Bank Limited,financial
12.9134789,77.6065671,0.9262589013471829,Union Bank of India,financial
12.9345459,77.6114217,3.2153959909064675,United Colors of Benetton,clothes
12.934891,77.6110462,3.2363631349731596,Levi's,clothes
12.9341695,77.6110462,3.1615151438833133,Raymonds,clothes
12.9198254,77.6127816,1.9014014660169842,Sweet Revenge Cafe,food service
12.9366298,77.6132797,3.5067161981998294,Sri Sai Vijay Mess,food service
12.9367971,77.6130007,3.511946605235386,The Look Shoppe,clothes
12.9367971,77.6131509,3.5182977186664575,463 Cross roads,clothes
12.9360965,77.614653,3.51509632059734,Leher Casuals,clothes
12.9360233,77.6153074,3.5395423852772923,Cantabil Showroom,clothes
12.9370062,77.6120888,3.4964423538506466,Hot Chips,grocery
12.9366085,77.6181363,3.7451104057560634,Oriental Bank of Commerce,financial
12.9364753,77.621053,3.9044248277322096,Oye Amritsar,food service
12.9362348,77.6210315,3.881191375824124,Hot Chips,grocery
12.9367367,77.6206239,3.9020036579975703,Pizzeria Romano,food service
12.9363256,77.6222355,3.9658292629113516,Casa De Bengaluru,lodging
12.9375575,77.618462,3.8538809308821143,Chamundeshwari Temple,place of worship
12.9161642,77.6029009,0.9798299171294511,Sri Lakshmi Venkateshwara Siddi Vinayaka Varadanjeya Swamy Temple,place of worship
12.916875,77.6024995,1.0458367660931993,Lord Shiva Temple,place of worship
12.9146789,77.6055734,0.9569026972780087,Mahalaxmi Provisional Store,grocery
12.8944566,77.636249,4.1527068983130695,Temple,place of worship
12.911884,77.6379067,4.089459122674135,IndusInd Bank,financial
12.9147654,77.6383124,4.181409291568279,Mast Kalandar,food service
12.910865,77.637973,4.085259562420722,,financial
12.90536,77.630729,3.295080191606664,St Marys Church,place of worship
12.9347915,77.6109681,3.223014157140415,Ayesha,jewellery
12.9377559,77.6239822,4.20675726937277,Corporation Bank,financial
12.9388934,77.6188923,4.005701439849804,Just Books,education
12.9388779,77.61893,4.006252892312941,Kiwi kiss,food service
12.9364715,77.6169229,3.666122255212639,Janodhaya Working women's hostel,lodging
12.9386399,77.6188173,3.9772304426201117,State Bank of India,financial
12.93893,77.6189888,4.014459164822936,Booster Juice,cafe
12.9165198,77.6355672,3.933678184833288,Canara Bank,financial
12.9165149,77.6355307,3.9297114694503046,Canara Bank,financial
12.9169457,77.6340911,3.7915446757055427,Chowdeshwari Temple,place of worship
12.9184754,77.6321554,3.642473645648527,New Sapna Store,grocery
12.9170218,77.6292559,3.2928979079808776,Aranya Restaurant,food service
12.9170321,77.6289637,3.2632213613301366,,financial
12.9180673,77.6306713,3.4756675292585237,Suma Provision Store,grocery
12.9332663,77.6153051,3.269542173430792,Ande ka funda,food service
12.9254095,77.6173387,2.6914199641470784,Federal Bank,financial
12.9140237,77.5587479,4.57133833826526,Kaappi,cafe
12.9196818,77.559736,4.606812648809527,Shop Rite,grocery
12.9206561,77.5601874,4.592844688210528,Sri Sai Gold Palace,jewellery
12.9324841,77.6137336,3.1116405837588204,Bhima,jewellery
12.927395,77.621901,3.1968946843507333,State Bank of India,financial
12.9262515,77.6168174,2.72349962108286,Royal Comforts,lodging
12.9090166,77.6280806,3.001432489118111,Bharat Petroleum,fuel
12.9314867,77.5761365,3.732179449529091,New Shanti Sagar,food service
12.9335885,77.6107455,3.0894865746327818,@home,home furnishing
12.9322408,77.6320676,4.383576211729446,,financial
12.9345413,77.6268856,4.140129028111997,Kormangala Methodist Church,place of worship
12.9409092,77.6278297,4.739984781602837,,lodging
12.9251163,77.6337167,4.095894368769277,Aishwrya Departmental Store,grocery
12.9252403,77.6337162,4.102386834678616,Kanyaka Clothes,clothes
12.9168445,77.6322947,3.6013462541560504,Sri Kaveramma and Munishwara Temple,place of worship
12.9154792,77.6344183,3.7850912298642068,,financial
12.867378,77.6162668,4.800287780477345,Government Primary School Yelenahalli,education
12.9257639,77.6290836,3.699825339739556,Seva Sadan,place of worship
12.930445,77.5896349,2.7872465161887487,,financial
12.9318149,77.5889456,2.956861467708887,,grocery
12.9284223,77.589782,2.5776258300672064,SLV Swagath,food service
12.9286469,77.5923821,2.487855865270362,Mahashakti Mari Amma Temple,place of worship
12.938682,77.6299136,4.700219560383909,Cube Multi-cuisine Restaurant,food service
12.9375545,77.6281177,4.476312948188312,Polynation,food service
12.938785,77.6300973,4.722160024127318,Shilton Royale,lodging
12.9375258,77.6285425,4.504964099185267,Max,clothes
12.9386872,77.6304956,4.743758780086861,HDFC Bank,financial
12.9376735,77.6264373,4.366380398500615,Taste of Bihar,food service
12.9285393,77.6001599,2.318487774880197,ICICI Bank,financial
12.9447798,77.6191001,4.594198308070311,Sri Srinivasa temple,place of worship
12.9404194,77.6289278,4.773811058270409,Sri Sai Balaji PG For Girls,lodging
12.9383855,77.6310907,4.764212487302305,CHef Inn Residency,lodging
12.9385893,77.6292121,4.641217399882637,Jaipuri Bandhani Fashions,clothes
12.9052334,77.5799866,2.2316563272180647,Frank Public School,education
12.9347018,77.583688,3.5086218157324627,Malabhar Gold,jewellery
12.9322759,77.5858767,3.1557374800577036,Prince jewellery,jewellery
12.9309688,77.5857909,3.035546497719426,Favourite Shop,clothes
12.9300904,77.5858231,2.9508282057958417,Khazana Jewellery,jewellery
12.9288216,77.5861538,2.8128900893459954,Reliance jewellery,jewellery
12.9285577,77.5819646,3.0635992885644994,Maiyas,food service
12.9271168,77.5861609,2.6561398019796667,Kalamandir,clothes
12.9265874,77.5839026,2.7605666019070543,Cafe Coffee Day,cafe
12.9287808,77.5856675,2.838456112139292,Shanti Sagara,food service
12.9168936,77.5816496,2.277455524392289,Krishnaiya Chetty and Sons,jewellery
12.9201877,77.574944,3.091298425841906,CCD,cafe
12.9244542,77.5643439,4.331763042763335,Pizza Hut,food service
12.9257822,77.5640113,4.429404192644476,J cubeez,bar/club
12.9423037,77.5713284,4.975482188141605,Rama Rao & sons,jewellery
12.9408398,77.5732596,4.717297340771761,,education
12.9317341,77.6228586,3.6140193177753597,Nandini Andra Style,food service
12.9285616,77.5820034,3.0611839100028817,Kolhapuris,food service
12.9276361,77.5779238,3.2961360545171905,Polar Bear,food service
12.9278474,77.5782069,3.289466909220425,Gelato Italiano,food service
12.9285276,77.5826445,3.013426624677294,Sukh Sagar,food service
12.928559,77.5823467,3.0368313983360786,Union Bank of India,financial
12.9287733,77.58578,2.830914457632131,Pavitra paradise,food service
12.9277143,77.5861502,2.711108270978021,1947,food service
12.9279957,77.5861533,2.7366741841774402,McDonald's,food service
12.922039,77.620302,2.6810925709320106,Ohris,food service
12.921876,77.620493,2.6870780201207936,Silver Metro,food service
12.889924,77.638912,4.616016596993999,IDBI Bank,financial
12.9425192,77.5854098,4.200669160482705,Adigas,food service
12.933221,77.5825309,3.4378832942701725,Bhima jewellers,jewellery
12.932994,77.5852313,3.2599163364377572,Reliance Fresh,grocery
12.9329962,77.5850947,3.2676286632255676,Subz,food service
12.9313369,77.5862297,3.0462354262343765,Awesome,clothes
12.9294525,77.5861468,2.8721577286691797,Boots Bazaaar,shoes
12.9306365,77.5862902,2.9758923267666315,Vasudev Adigas,food service
12.9243848,77.5858198,2.43938549784203,Beijing Bites,food service
12.9258312,77.5858477,2.562033606206607,Kalanjali,clothes
12.9232135,77.5850336,2.4002055681761134,Namdhari's Fresh,grocery
12.91702,77.5782971,2.61272647463743,More,grocery
12.9112343,77.5784318,2.4157231901837424,Jagadamba Jewellers,jewellery
12.9287644,77.5858624,2.825097172213669,Cool joint,food service
12.928945,77.5859387,2.837192911168537,Kalaniketan,clothes
12.9298539,77.5861419,2.910143631064686,Raymond,clothes
12.9290329,77.5859122,2.8469252570234986,Roop sangam,clothes
12.9295627,77.5861454,2.882570546307981,Van Heusen,clothes
12.9264034,77.5858296,2.613608576632358,Pai Vijay,lodging
12.9161449,77.6054538,1.0868678329917398,,financial
12.9055718,77.6058341,0.6321525148371361,Cafe Coffee Day,cafe
12.9160306,77.6171846,2.0398338998469354,Shree Karumariyamma Temple,place of worship
12.9366448,77.612113,3.4599669308281635,Kor 901 Library,education
12.9372827,77.6245142,4.200660382391782,Sumith Provision & Condiments,grocery
12.9356619,77.619186,3.716153910514707,DHL couriers,grocery
12.9365507,77.6204895,3.8767113816162206,Olio,food service
12.9372461,77.6198029,3.900385016351405,Sthra,clothes
12.9368121,77.6200764,3.876021557494602,Gini & Jony,clothes
12.9374604,77.6242714,4.199909969911726,Crystal Stationeries,grocery
12.9367494,77.6200067,3.866046361426722,Coffee Lounge,cafe
12.9166125,77.6202564,2.367638375707489,Pizza Hut,food service
12.9215958,77.6202694,2.6491926781733133,McDonald's,food service
12.9377454,77.6188695,3.894388223158899,New meena cotton sale,clothes
12.9346333,77.6124687,3.268079461430861,Kota Kachori,food service
12.9373532,77.6195239,3.8942657057269328,Meena Fashions,clothes
12.9370761,77.6204976,3.925695015309969,Anubhav Play school,education
12.9361926,77.6147442,3.529037911426265,Sports Planet,grocery
12.9330194,77.6105953,3.024616227650286,Inn,lodging
12.9345952,77.6094985,3.1492864890566694,Manchester United,bar/club
12.9340524,77.6102738,3.1197585824922127,Mom & Me,clothes
12.9339607,77.6104356,3.116243640564223,Shiva Sagar,food service
12.9164249,77.6164112,1.9866062394709123,Kataria Home Food,food service
12.9256315,77.6152769,2.5636172757315903,Shanti Sagar,food service
12.9227715,77.6138446,2.2200562111278876,Akshaya Ladies Hostel,lodging
12.9229035,77.6134614,2.204308424080426,Aswini Hotel,food service
12.9231702,77.6126406,2.171785591521151,Andra Curry Point,food service
12.9245296,77.6094944,2.114945696418383,,financial
12.9243597,77.6094434,2.095653604513324,,financial
12.9325892,77.6101676,2.96328582812729,Ayyappa Swami Temple,place of worship
12.9395395,77.5959949,3.573830276611815,State Bank of India,financial
12.9429045,77.5977165,3.926612142178475,Ganesha Temple,place of worship
12.9459429,77.5956857,4.284362700635688,Jade Empress,food service
12.9459575,77.5951685,4.293047797754424,Keys Hotel,food service
12.9467025,77.5942807,4.3887273279566985,Raghavendra Swamy Temple,place of worship
12.9494002,77.5926204,4.71437359019327,Bhagini Hotel,food service
12.9231276,77.5860269,2.3196120699126386,Domino's,food service
12.9218725,77.5857558,2.2390857792539536,State Bank of India,financial
12.9198472,77.5782896,2.7534114132862397,Syndicate Bank,financial
12.9169431,77.5822354,2.223460235324736,Angadi Silks,clothes
12.9169333,77.5802356,2.417221236579779,Canara Bank,financial
12.9172523,77.5821549,2.247258812402275,Nalli Silks,clothes
12.921875,77.620121,2.65447723358075,Adigas,food service
12.9353977,77.6090855,3.22084235556107,Libra,lodging
12.9151822,77.6059587,1.0267196455788565,Ashirwad Super Market,grocery
12.924405,77.5647251,4.292134381801407,McDonald's,food service
12.9243475,77.5652656,4.236608339108371,SnapFitness,grocery
12.9243266,77.5653238,4.229919470859491,State Bank of India,financial
12.9243318,77.5653613,4.226517900421117,Natural Salon,grocery
12.9245828,77.5649697,4.276898871207612,Bangalore One For Senior Citizens,grocery
12.9245932,77.5648877,4.285391931253238,Nandini Milk Booth,cafe
12.9247045,77.5648373,4.295737020248338,Hopcoms,grocery
12.9244834,77.5641605,4.351106286269783,,food service
12.9243632,77.5641391,4.347485710749534,,grocery
12.9246664,77.5642101,4.355031439795064,Baskin Robin's,food service
12.9247449,77.5642316,4.356723452629176,Goli Vada Pav,food service
12.9257017,77.5644655,4.381506266093059,Mobile store,grocery
12.9257906,77.5640961,4.421643066423219,Cafe Coffee Day,cafe
12.9260154,77.5641098,4.431756874006862,Tandoor,food service
12.9260625,77.5646983,4.37765591295954,Kati Zone,food service
12.9261618,77.5645588,4.396180739707401,Anand Bhavan,food service
12.9268619,77.5641149,4.475323821948162,SLV Swadisth,food service
12.9241331,77.5663009,4.125363631105964,SLV fast food,food service
12.9241122,77.5664449,4.110346208224665,Stationary,grocery
12.9239606,77.567255,4.0242693093316655,HOPCOMS,grocery
12.9478373,77.5970782,4.47883599437562,Hotel Mayflower,lodging
12.9139161,77.6102112,1.2668993492819074,Swadista Ahara,food service
12.8948991,77.6093817,1.722235918694313,Smart Supermarket,grocery
12.911762,77.637224,4.014405044311463,Joy Of Learning,education
12.8946896,77.6092646,1.734478307452724,Daily fresh supermarket,grocery
12.9491363,77.5893864,4.76124841110166,Peninsular Gneiss National Monument,attraction
12.9055748,77.6057437,0.6229447445121536,More,grocery
12.89267,77.5801634,2.758777364902476,Elita Promenade,residential
12.9441664,77.5969354,4.073529093817597,Bangalore Institute of Dental Sciences,education
12.9481696,77.5986927,4.50500263509326,Corporation Bank,financial
12.9488718,77.5977625,4.588244872043275,Karnataka Bank,financial
12.8896145,77.639937,4.731186361101738,National Co-operative Bank Ltd.,financial
12.9210356,77.6201026,2.5984664816386953,ICICI Bank,financial
12.9246131,77.5850005,2.516830269382531,Subway,food service
12.9236001,77.5879513,2.226306110647826,Corporation Bank,financial
12.9087203,77.6275079,2.937969907484818,Indian Oil,fuel
12.9168408,77.5851479,1.9431243765155533,Cable Car Restaurant,food service
12.9331034,77.585029,3.2815132092250665,Chutney Chang,food service
12.9331092,77.5851373,3.276118072442501,Ameoba Bowling Alley,attraction
12.9311975,77.6228542,3.569781768769613,Utsav,food service
12.9256885,77.6250527,3.336422974972618,State Bank of India,financial
12.9266971,77.6236359,3.285865274239682,Nilgiri's,grocery
12.9220691,77.5755122,3.137668873374452,JSS Composite PU College,education
12.9131153,77.6383089,4.1504390026435765,KFC,food service
12.9269543,77.5885571,2.4983986837392673,Bangalore Educational Society,education
12.9308154,77.5862906,2.992943315701868,Vijaya Bank,financial
12.9282849,77.5868566,2.721340337713332,Bangalore High School(BHS),education
12.9307984,77.5865311,2.978058309886601,Karur Vysya Bank,financial
12.9244905,77.5653351,4.236821102030441,Pegs and pints,bar/club
12.9244383,77.5654289,4.225137629009931,Lakshmi bar,bar/club
12.9382713,77.63156,4.790814840816137,Temple,place of worship
12.9255356,77.6012383,1.9862906862288163,State Bank of India,financial
12.9223393,77.5953285,1.7198981844933516,State Bank of India,financial
12.9381356,77.6277657,4.499234339108692,Citibank,financial
12.9347196,77.61367,3.330895434699997,Citibank,financial
12.9341965,77.6164502,3.4212117613154702,Goli Vada Pav,food service
12.9341648,77.6164835,3.4200111796791206,Jumboking Vadapav,food service
12.9363897,77.613793,3.504866762378813,Sai Baba Temple,place of worship
12.9417658,77.6158811,4.142937135200715,Corporation Bank,financial
12.9411165,77.5854351,4.056222545839455,ISPG Technologies,office
12.9395349,77.5853734,3.898502879545299,Simpli Namdhari's,grocery
12.934392,77.5895053,3.196144256888982,Amrutesh Darshini,food service
12.9345803,77.5893442,3.2220689975114505,State Bank of India,financial
12.938312,77.5843066,3.826789569482127,Sree Rama Vidyalaya,education
12.9376941,77.6270393,4.410524713478933,KFC,food service
12.9000882,77.6215142,2.437419793514887,Ganesh Temple,place of worship
12.8914338,77.6080737,1.9888216426430299,Cafe Coffee Day,cafe
12.9118641,77.5867606,1.5516840320849927,Adithya,food service
12.91411,77.5856235,1.7555702896511596,Corporation Bank,financial
12.9206732,77.6123589,1.9385506409291327,Pongal Veg Cafe,food service
12.9197873,77.6122951,1.8615648879354938,Domino's,food service
12.9252469,77.5648035,4.3259034928294335,Public Library,education
12.9294812,77.5637259,4.657096150028681,Laxmi Sagar Deluxe,food service
12.9301278,77.5636876,4.698418421688286,,financial
12.931931,77.5640576,4.774729271170111,,financial
12.9239653,77.5705721,3.706916640498721,,financial
12.9170457,77.5931523,1.3049699555940226,Raghavendra Upahara,food service
12.9165024,77.6034897,1.0347552567031553,ICICI Bank,financial
12.9269195,77.5682037,4.094472043715636,,financial
12.9264381,77.5691045,3.983264761811642,,financial
12.9365165,77.6274121,4.339462127858296,Great Indian Thali,food service
12.9179899,77.5920869,1.4586619809468995,Jain Animation School,education
12.9156658,77.5902764,1.4126492598337703,Jumbo Kids,education
12.915569,77.5902817,1.405467849340402,Podar Happy Kids,education
12.9166803,77.5898443,1.5210421069110187,Pai Princess,food service
12.9456792,77.5960812,4.250296065780751,Canara Bank,financial
12.9348525,77.6157906,3.4491636031027184,Hotel Empire,food service
12.9340146,77.6163371,3.3975631386119183,Khawa Karpo,food service
12.943062,77.6175679,4.350048603572932,Manasa Veg,food service
12.9417545,77.6215457,4.4258877062779485,Sagar Fast Food,food service
12.943452,77.6178697,4.4032443054955674,HDFC Bank,financial
12.9434676,77.6178331,4.403109487017009,ICICI Bank,financial
12.9173594,77.5931667,1.332020922627633,Corner House,food service
12.9170404,77.5934403,1.2858883285592417,UpSouth,food service
12.9063265,77.5960973,0.4926208342645683,Chaithanya Restaurant,food service
12.9180303,77.5571707,4.826614981901103,Ice Cafe,food service
12.917953,77.5571384,4.827976872999296,,financial
12.9168415,77.6201032,2.3634227083133683,St. Mira's School,education
12.9184077,77.5591112,4.633236680033779,Sahakari Vidya Kendra,education
12.9295981,77.5681912,4.25869208030146,Pin Ball,clothes
12.9297811,77.5682637,4.263938356403449,Indian Oil,fuel
12.9334671,77.5833269,3.4129235605496855,The Guha,food service
12.9164891,77.559186,4.575099323718866,Venkateshwara Temple,place of worship
12.9306129,77.5862225,2.977428436411975,Luois Phillepe,clothes
12.9294468,77.5856396,2.9016093628020547,Reliance Trends,clothes
12.9291985,77.5861975,2.8454221626205727,Allen Solly,clothes
12.9294521,77.5850281,2.93920685536049,Pin Ball,clothes
12.942312,77.60802,3.936857462385056,Manokamana Cermanic,mall
12.9219463,77.5934768,1.754833142815707,Tahini Garden,food service
12.9218974,77.5934723,1.7501327348774638,Cafe Coffee Day,cafe
12.9220228,77.59341,1.7656250469100934,Corporation Bank,financial
12.9230467,77.593202,1.878312968640548,Eeshanya,food service
12.9214393,77.5933817,1.7086564394473776,State Bank of India,financial
12.9169487,77.6194004,2.3002169910345858,Alliance Business School Admin Office,education
12.9066302,77.592944,0.8189992672922963,Emilion HHI Select,lodging
12.9064987,77.5930188,0.8132313380385371,The Onyx,food service
12.9065766,77.5907568,1.0548273777882482,Hindustan Petroleum,fuel
12.8903823,77.5819754,2.7751384757945874,Everfine Super Market,grocery
12.8880679,77.5810131,3.0308722994761346,Capitol Public School,education
12.8922498,77.5817101,2.657255409409363,IndusInd Bank,financial
12.8872149,77.5817813,3.043962480612554,Smart Bazaar,grocery
12.902875,77.6242515,2.63773554235399,,financial
12.9055194,77.6273464,2.9282166513746213,Bommanahalli Mosque,place of worship
12.8997257,77.6203217,2.331635177517774,Block J,residential
12.8993989,77.6202867,2.3421918346512873,Block H,residential
12.8990015,77.620858,2.416564568449102,Block E,residential
12.8999008,77.6213408,2.4271593054182694,Block A,residential
12.8990196,77.6202438,2.3548706569373925,Block G,residential
12.8993229,77.6212684,2.4435703168467224,Block C,residential
12.8989988,77.6211264,2.443375970470472,Block D,residential
12.8996079,77.621306,2.435466625899739,Block B,residential
12.8997806,77.6206166,2.35895126232086,Block K,residential
12.8998381,77.6208904,2.38416435023262,Block L,residential
12.8990041,77.6205201,2.3829226935356917,Block F,residential
12.897393,77.6209332,2.50071632593158,Muneeshwara Swamy Temple,place of worship
12.9029172,77.6242687,2.638612946240081,Mega Mart,clothes
12.8931908,77.6199692,2.6623969975872708,PK Home Needs,grocery
12.892272,77.6104915,2.0323679764061113,Euro Kids,education
12.8926145,77.6107222,2.014098366728081,Little Millenium,education
12.8923796,77.6112261,2.066345685333092,Vijaya Bank,financial
12.8945443,77.6203167,2.6051309879194275,Adda,food service
12.9410968,77.5853528,4.0577970083812005,Andhra Bank,financial
12.8915522,77.6045379,1.8490942013541039,HDFC Bank,financial
12.8927015,77.6192826,2.6376040530752487,Rayen Kids,education
12.8770168,77.599844,3.4113012198403023,Cave Temple,place of worship
12.8929275,77.5816768,2.612004567147822,Aditya,food service
12.8950856,77.581582,2.4767190386486866,Citibank,financial
12.8894723,77.5820065,2.843881049723366,Andhra Bank,financial
12.8891563,77.5820091,2.868820894003889,State Bank of India,financial
12.8902358,77.581971,2.7868029392355917,Bata,shoes
12.9171903,77.585952,1.8908666485217287,Standard Chartered,financial
12.8868474,77.5819283,3.0642010460635247,Axis Bank,financial
12.8865339,77.5819949,3.0859751572914083,Kabab Mehal,food service
12.8931436,77.5856019,2.279585569899026,Arive,clothes
12.8844534,77.5825987,3.226158138385263,HDFC Bank,financial
12.8920259,77.5791107,2.8929790563674187,Bangalooru Tiffany's,food service
12.8908929,77.5819348,2.739286045623897,SLV,food service
12.8872845,77.5821065,3.0148524690595493,Kakal Kai Ruchi,food service
12.8823536,77.5835185,3.3606482577782586,Corporation Bank,financial
12.9255152,77.6370763,4.439668130960553,Barbeque Nation,food service
12.8960869,77.5860483,2.0228048254409954,Magadha,food service
12.8972071,77.5818847,2.322838093993587,Khadim's,shoes
12.8831879,77.6102566,2.925653402234857,Pearl City Super Market,grocery
12.92545,77.5768905,3.225535624373464,Jalpaan,food service
12.8849462,77.5818317,3.2335801497739607,Capitol College of Nursing,education
12.8906906,77.5799648,2.9136809371772516,Dr. P. Vivekananda layout mini temple,place of worship
12.886025,77.5856544,2.89233018459076,Cambridge School Kothanur,education
12.8852909,77.5876008,2.852135609610341,Sri Gowri Shankara Temple,place of worship
12.8836176,77.5821892,3.3272318071202514,Edify Kids,education
12.8943291,77.5818071,2.50558893421546,Sarovara,food service
12.8904007,77.5824633,2.7358459778008557,ICICI Bank,financial
12.8921693,77.5836432,2.507157148332851,,financial
12.8815935,77.5835331,3.43096875654079,Green Mart,grocery
12.8850998,77.5823163,3.1876360849851224,ICICI Bank,financial
12.8860743,77.5821092,3.117206121113399,Kotak Mahindra Bank,financial
12.8896231,77.5823913,2.8027205467984486,Aura Montessori House of Children,education
12.890184,77.5823622,2.7605916239594457,UCO Bank,financial
12.8842357,77.5826768,3.240546804815369,Syndicate Bank,financial
12.925974,77.5641049,4.430114264599057,Punjab National Bank,financial
12.8919415,77.5817506,2.676212819837567,Canara Bank,financial
12.8958786,77.5819849,2.39129408587826,Central Bank of India,financial
12.9164567,77.5859615,1.8456622112885852,State Bank of India,financial
12.8887979,77.5793878,3.100123954458425,Shri Varadanjaneya Swamy Temple,place of worship
12.8835246,77.5831316,3.276071305418973,Indian Bank,financial
12.937055,77.5784773,4.039552942092954,Citibank,financial
12.9222964,77.6194432,2.6244926180363737,Anjaneya Temple,place of worship
12.9180956,77.557202,4.825055739634392,SLV,food service
12.9165327,77.55716,4.7908264015383475,Anjaneya Temple,place of worship
12.9146638,77.559228,4.531561346288495,Prarthana School,education
12.8883745,77.5820587,2.928239440717527,Beiging Bites,food service
12.891182,77.5816478,2.740486228101173,Papa John's,food service
12.9178136,77.5561808,4.925320085641875,,grocery
12.8953157,77.5863222,2.0563960861253863,Ten Ten Nimma Supermarket,grocery
12.933447,77.6219099,3.691386427384449,Chianti,food service
12.8967177,77.5858102,1.9991825655475743,Indian Overseas Bank ATM,financial
12.8967847,77.5858129,1.99441206478442,Indicash ATM,financial
12.8875501,77.5706995,3.9234938860818023,,financial
12.895317,77.5816317,2.457783226514896,HDFC Bank,financial
12.8803576,77.5796579,3.7818339725810683,Bangalore Scottish School,education
12.8881605,77.5820229,2.9483613503721315,Karnataka Bank,financial
12.9247295,77.5773618,3.136264718465408,Food World,grocery
12.9274299,77.5782051,3.258157436663494,Sufiyan Dry Fruits,grocery
12.9259569,77.5768459,3.2641294241005134,ICICI Bank,financial
12.8921409,77.5721791,3.515713145537508,HDFC Bank,financial
12.8828036,77.5704042,4.271270226987055,Srinidhi Public School,education
12.8822735,77.572507,4.140322559239078,,financial
12.8835009,77.5698955,4.264087464026092,,financial
12.8920876,77.5817631,2.664581948781408,Punjabi Food Corner,food service
12.8893056,77.5817421,2.8772086220231983,Domino's,food service
12.9313893,77.623888,3.662328065470691,Login Serviced Apartments,lodging
12.9306091,77.5853075,3.02951841912622,The Royal Comfort,lodging
12.8843474,77.596172,2.63615637927422,Featherlite,home furnishing
12.8839325,77.5961397,2.6821971822804707,Bharat Petroleum,fuel
12.884425,77.5962042,2.6270512454218484,Bata,shoes
12.885152,77.595731,2.5571862047026857,Euro Kids,education
12.8846171,77.5961943,2.606207648203106,Aishwarya Parkland,food service
12.8836585,77.5959959,2.714920833988217,Benison,grocery
12.8844132,77.596128,2.629792425305108,State Bank of India,financial
12.9216283,77.5701608,3.6274957157861953,Kadamba Bar,bar/club
12.8894502,77.5940375,2.142990928858983,Arekere MICO Layout Bus Station,transportation
12.9347958,77.6298075,4.384889412963228,HDFC Bank,financial
12.9347383,77.6298155,4.3811277629364005,HDFC Bank,financial
12.9299126,77.621549,3.3688339035899517,Bank of Baroda,financial
12.9355043,77.6314571,4.569361689022704,Supriya Stores,grocery
12.9334024,77.6298023,4.279457262051703,Food Mall,grocery
12.8766254,77.5958823,3.4891156405234307,Domino's,food service
12.8728322,77.5945186,3.928491035148475,Reliance Smart Point,grocery
12.8755826,77.5952263,3.6143424124874897,Cinepolis,cinema
12.876118,77.5953397,3.5536216399645495,HyperCITY,grocery
12.875838,77.5952566,3.585778488750592,KFC,food service
12.8757152,77.595244,3.599479108850155,Kalmane Koffees,cafe
12.8759805,77.5952792,3.5697450402793187,McDonald's,food service
12.8762432,77.5957831,3.5327090715380796,Oye Amritsar,food service
12.8759927,77.5960602,3.5561647652165544,Rajdhani Thali,food service
12.8762457,77.5955916,3.535448058796008,TGIF,food service
12.876231,77.5959821,3.531047646999479,The Pint Room,bar/club
12.9274214,77.5771125,3.3460015063616058,Venezia,food service
12.9372585,77.6301293,4.601762293968585,Taxila Mansions,residential
12.9339929,77.6069283,3.008539215700181,Christ University Block I,education
12.935551,77.6058881,3.154119075525758,Christ Junior College,education
12.8714422,77.6193465,4.522563823786076,Vesta Summit Apartments,residential
12.8758604,77.6169923,3.968977668559953,Corporation Bank,financial
12.8759179,77.6167938,3.9535728263765484,Ample Mart,grocery
12.9055105,77.595119,0.6237516015369292,Pizza Stop,food service
12.9056098,77.595119,0.6195445747067386,Gelato,food service
12.9063288,77.5965004,0.4511665578468016,Daily Bread,cafe
12.9064308,77.5968652,0.410122155798559,Barbeque Nation,food service
12.9061118,77.5967632,0.43363411364308285,Au Bon Pain,food service
12.9061458,77.5968786,0.42066955804324285,Domino's,food service
12.9117616,77.5990109,0.4778446808442699,MTR 1924,food service
12.9114243,77.5990217,0.44207043112862154,Park View,food service
12.900724,77.5869656,1.651401187340972,Royal Supermarket,grocery
12.9004538,77.5859289,1.7649253508373275,Grills and Rolls,food service
12.9437857,77.6236824,4.7396602533917305,Canara Bank,financial
12.9422696,77.6253883,4.701692318858686,State Bank of India,financial
12.8985271,77.6448289,4.919831523565389,HDFC Bank,financial
12.9043833,77.6455159,4.9013872944221974,,financial
12.9051894,77.6396903,4.265229429971544,HDFC Bank ATM,financial
12.9056019,77.6444964,4.782704026892961,Veg Sagar,food service
12.9063471,77.6445546,4.785695427853316,Grand Supermarket,grocery
12.9034741,77.6255722,2.76598303725391,,financial
12.9034741,77.6256178,2.7708540612044485,,financial
12.8980692,77.6178984,2.1754710693937183,Udaya General Stores,grocery
12.8982417,77.6178957,2.165846493364783,,food service
12.9037635,77.626806,2.892830332933906,Vardhman Textiles,clothes
12.9031858,77.6245476,2.662449708030847,Sri Krishna Upahara,food service
12.9444702,77.5847747,4.427382143053429,Horticulture Training Center,education
12.9458279,77.585024,4.5572402112392725,,attraction
12.9480567,77.5879713,4.686978940883985,Pigeon Hole,attraction
12.91201,77.6323154,3.489987632336828,Allahabad Bank,financial
12.9189584,77.6426733,4.747663857422314,,financial
12.9038463,77.6271871,2.9323130112001485,,financial
12.8999647,77.6214378,2.4344669424205216,Rayen Kids,education
12.8994582,77.6221231,2.5239811134348957,,grocery
12.9112592,77.6259903,2.7995087422761933,,food service
12.9027884,77.6240135,2.6144728804605877,,shoes
12.9003958,77.622738,2.551163338947963,,financial
12.9143397,77.6234849,2.6067367127940524,July Systems,office
12.8997405,77.6207679,2.3758312152724246,Royal Home Needs,grocery
12.8985404,77.6216903,2.51977593880072,,financial
12.9126193,77.6329409,3.566925308621022,Syndicate Bank,financial
12.9152651,77.5592492,4.541216937400252,Total Auto Gas,fuel
12.8965036,77.634968,3.9455960692638246,Gogas Auto Lpg,fuel
12.9062783,77.6274095,2.929295600087853,,financial
12.9062993,77.627329,2.9204584325224547,,financial
12.90295,77.6242795,2.6390285744358213,,financial
12.933237,77.612127,3.111079963372966,Big Bazaar,grocery
12.8918378,77.5795358,2.8691279168366517,Mayia Express,food service
12.8979208,77.6108339,1.566425780699109,,place of worship
12.8978553,77.6147901,1.9029678529806116,,place of worship
12.892932,77.6117539,2.0497977215406142,HDFC Bank,financial
12.8901353,77.5819686,2.7947836724872515,Instring,clothes
12.8896247,77.5817501,2.851491125697231,Vesture,clothes
12.8907146,77.58194,2.752432878733987,Andhra Bank,financial
12.9290137,77.6276776,3.787891199968383,Grand Mercure,lodging
12.9322822,77.5981308,2.7457544839149297,New Baldwin School,education
12.9441545,77.5991339,4.057046548121052,Prince of Peace Disciples Church,place of worship
12.9303605,77.6228604,3.5026762372149496,Cafe Coffee Day,cafe
12.8912734,77.5941509,1.9478943370536461,,financial
12.9305918,77.6229717,3.5295723888326918,Sagar Fast Food,food service
12.9308637,77.623075,3.559160260369675,Food Triangle,grocery
12.9311839,77.6234063,3.609705410565965,State Bank of India,financial
12.9306861,77.6230253,3.541161121241008,Syndicate Bank,financial
12.8985744,77.6217071,2.519918652092664,Ammi's Biryani,food service
12.9167048,77.6069253,1.2254054561352343,Corporation Bank,financial
12.8900044,77.6398044,4.699870978502919,Ekaa,lodging
12.8917971,77.5777119,3.0301833366156674,E K Retail,grocery
12.8899711,77.6398117,4.702140218489928,Melange,food service
12.8966122,77.6357401,4.021384804586765,Domino's,food service
12.8875244,77.582032,3.000185726732849,FSquare,clothes
12.8861649,77.5822896,3.0969993077346247,Nandi Bidadi Thatte Idli,food service
12.8922631,77.5814764,2.6756901889362283,Green Chillies,food service
12.927382,77.5764857,3.394756565123069,Dosa Corner,food service
12.9318708,77.5837602,3.2388645128070936,Bhavani Kangan Stores,jewellery
12.9306281,77.5857408,3.0061782341146697,W,clothes
12.9263326,77.5870601,2.528676743711776,ibaco,food service
12.9237751,77.5969146,1.8285033185438966,Chefmaster,food service
12.9302771,77.5831394,3.1330866102476356,New Shanthi Sagar,food service
12.9306647,77.584134,3.1052185581458716,Goli Vada Pav,food service
12.8760411,77.616299,3.9174802705606484,Canara Bank,financial
12.8763027,77.613762,3.777813482954029,Andhra Bank,financial
12.8763432,77.6160768,3.876728427944127,State Bank of India,financial
12.8768928,77.602155,3.4296643724265845,Temple,place of worship
12.8785368,77.6038179,3.2625444919716755,,place of worship
12.9351849,77.6135299,3.371226942646764,Starbucks,cafe
12.9228822,77.5849781,2.378081546054102,Corner House,food service
12.9327614,77.5849863,3.251202373604332,PC Jeweler,jewellery
12.9198922,77.5900138,1.7644742214085918,Ace Iyengar,food service
12.9218455,77.5854901,2.257525595751184,Adyar Ananda Bhavan,food service
12.9218091,77.5893861,1.973653062385422,Cafe Coffee Day,cafe
12.9302745,77.5878322,2.8579989039925797,Big Bazar,grocery
12.9076665,77.596728,0.4003509825010772,Ekya School,education
12.9204407,77.5835732,2.3118612666307743,Indian Overseas Bank,financial
12.9210453,77.5835608,2.3547305529201394,Athithyam,food service
12.9200207,77.5811039,2.5027009940787415,State Bank of India,financial
12.9200199,77.5810595,2.5066795077539568,ICICI Bank,financial
12.921123,77.5812781,2.5565451111032043,Euro Kids,education
12.8890439,77.582025,2.8766178729906327,Liberty Exclusive Showroom,shoes
12.9250286,77.6143616,2.449399092605632,New Surya Sweets,food service
12.9219827,77.6200068,2.651691909455031,KFC,food service
12.9308439,77.6226408,3.525254801601468,Ambur Biriyani,food service
12.924596,77.6184995,2.7152621058652486,State Bank of India,financial
12.9122652,77.5937771,0.8817238021039203,,place of worship
12.8914778,77.6197053,2.7601589481537316,Rayen Kids,education
12.9003488,77.6271298,3.0077036306448695,Sri Ram Driving School,education
12.9249951,77.5882111,2.3353810165495505,Ample Mart Supermarket,grocery
12.9245669,77.5882045,2.2967216441407756,Canara Bank,financial
12.9245755,77.588035,2.3081394292561446,ICICI Bank,financial
12.9246342,77.5880408,2.3130872415692947,Canara Bank,financial
12.9378451,77.5852156,3.7361810115823113,Cafe Coffee Day,cafe
12.9409838,77.5850433,4.059952224884772,Cuppa,cafe
12.913749,77.6146127,1.6791538736721334,Srinivasa Shelter,residential
12.9249779,77.6194667,2.8206139423285013,FabIndia,clothes
12.9344918,77.6160061,3.425553456362143,Black Pearl,food service
12.8911903,77.5981332,1.8513969565200914,Guru Garden Restaurant,food service
12.9017134,77.5824365,2.059527526288517,Just Books CLC,education
12.882713,77.5864966,3.1609717211473796,Sai Baba Temple,place of worship
12.8847019,77.5917498,2.7235218596179287,Aradhana Academy,education
12.883362,77.5831729,3.28837049420365,Uth Fashions,clothes
12.8947594,77.6150069,2.1369372907698896,New Arvind Memorial School,education
12.9104004,77.5947964,0.6801081387971282,Indian Oil Corporation,fuel
12.8985525,77.6218042,2.5305344855996292,,financial
12.9117776,77.6006489,0.45516474848417676,Udupi Krishna Vihar,food service
12.9171114,77.6337407,3.7600976693495918,Manjunatha Refreshments,food service
12.91519,77.6355368,3.896193220313753,Empire hotel,food service
12.914592,77.6367272,4.0090639473478396,Star Biryani,food service
12.9165146,77.6355216,3.928748103389542,Swathi Spice and Ice,food service
12.8730251,77.6260135,4.748966860784881,St Teresa Hps Begur,education
12.8737507,77.6259345,4.678647365546558,St Teresa Hs,education
12.8914338,77.62642,3.3478658510581156,Galaxy Paradise,cinema
12.9219037,77.6203113,2.672980151349784,Total Mall,grocery
12.8923977,77.5817117,2.6465259827975083,Five Star Chicken,food service
12.9099094,77.5998609,0.254139393336886,Yes Bank,financial
12.9088379,77.5999309,0.1382613548996453,Axis Bank,financial
12.8924249,77.5985953,1.7089284318621958,Ammis Biriyani,food service
12.8910556,77.5950031,1.9406872598150917,Vijaya Bank,financial
12.8908414,77.5982928,1.8876576427292528,Corporation Bank,financial
12.8778945,77.5836549,3.7788499802441815,Ganesha Temple,place of worship
12.8923478,77.5981069,1.7243478635015508,Just Books,education
12.9297035,77.5859202,2.9089065294455434,South Indian Bank,financial
12.93021,77.5850977,3.0047920869050815,South Indian Bank,financial
12.916348,77.5591356,4.577111178152269,Prasanna Ganapati Temple,place of worship
12.9164737,77.596929,1.0474756981111117,Denny's,food service
12.9156738,77.5967485,0.9729181185398543,Ganesha Temple,place of worship
12.9165607,77.5972018,1.046271794650794,HDFC Bank,financial
12.9162927,77.5966944,1.0383610729423542,Indian Overseas Bank,financial
12.9162385,77.5970407,1.0187167879905108,Kabab Magic,food service
12.9166518,77.5967457,1.0731808603907291,Ujjivan Small Finance Bank,financial
12.9158974,77.5967626,0.9950462893385363,The Pongal,food service
12.9166472,77.5972012,1.0553657003158354,HDFC Bank,financial
12.9136778,77.5856582,1.7331122601003746,Liberty Exclusive Showroom,shoes
12.9136768,77.5859029,1.7086128605745314,Shanthi Sagar,food service
12.9123213,77.5855908,1.6879054222514907,Siddhas Veg,food service
12.9147454,77.5859258,1.756091399156481,Foodworld,grocery
12.9145899,77.5857184,1.7686625136817924,ICICI Bank,financial
12.9156187,77.5859244,1.8016979462539917,Indian Overseas Bank,financial
12.9152396,77.585919,1.7819677575775121,KFC,food service
12.9151486,77.5857021,1.798048969338789,State Bank of India,financial
12.8925844,77.6116519,2.074364185597451,Andhra Bank,financial
12.8779083,77.6025132,3.31934672365645,Sri Rama Temple Hulimavu,place of worship
12.9338837,77.6072471,3.0050545383881975,Hot n Cool,food service
12.8957721,77.5994431,1.3294701968358253,Axis Bank,financial
12.8913095,77.5816605,2.7299843740550287,Blak,shoes
12.891268,77.5816626,2.732896173033583,Clay Oven Restaurant,food service
12.8914002,77.5816698,2.722512859318893,Raymonds,clothes
12.8910593,77.5816806,2.747014049051103,Canara Bank,financial
12.891081,77.5776033,3.0867286016606204,Chabili,clothes
12.8867178,77.581977,3.07167731502372,Feet Fashion,shoes
12.8886473,77.5820373,2.9076515781102317,Karthik Fashions,clothes
12.8893554,77.5817524,2.872490117531252,Megamart,clothes
12.8911005,77.5816814,2.743867770768833,Miss World,clothes
12.8886352,77.5820313,2.9090771532774116,Niharika Collections,clothes
12.8855103,77.5824089,3.1455509201600154,PP Fashion,clothes
12.8857556,77.5823701,3.1268400306577444,Podar Jumbo Kids,education
12.8918806,77.5817562,2.6801907920952877,Punjabi Food Corner,food service
12.8848113,77.5826946,3.188097715586064,Star Biriyani Ambur,food service
12.8922462,77.5817355,2.6554136291440398,Rolls on Wheels,food service
12.8841397,77.5827195,3.246406686111086,Bachpan,education
12.8879862,77.5820232,2.9626441330501607,People,clothes
12.882941,77.5831498,3.328396199015209,Time N Vision,watches
12.8868724,77.5821857,3.043908616183065,xdrax,shoes
12.8962593,77.5818602,2.3797222038301924,Bombay Dyeing,clothes
12.891665,77.5785483,2.9658165612548855,Touch Stone,education
12.8835046,77.5829231,3.2908687312694984,Ashok Jewellers,jewellery
12.8833962,77.5829675,3.2979634366908557,Laxmi Fashions,clothes
12.8923303,77.5985791,1.7195801434441365,World of Titan,watches
12.8923687,77.597989,1.7239568762923152,Axis Bank,financial
12.8922835,77.5982384,1.7294140329230803,Bejing Bites,food service
12.8924256,77.5977824,1.7212842818533465,Corporation Bank,financial
12.8920786,77.5983413,1.7505147491881987,Five Star Chicken,food service
12.8921315,77.5981942,1.74681393267692,Goli Vada Pav,food service
12.8923153,77.5981397,1.7274106897867656,Juice Junction,food service
12.8920738,77.5814809,2.6888617633285414,Fusion Intimates,clothes
12.8920613,77.581495,2.688593350366391,Vandana New Fashions,clothes
12.8906339,77.5819363,2.758886000782913,S N Times,watches
12.8907955,77.5819391,2.7463424312641562,S V Provision Store,grocery
12.915303,77.6448585,4.890042212067244,King Ambur Hot Biriyani,food service
12.9245786,77.5866621,2.3980115305966265,Pattabhirama Temple,place of worship
12.8885561,77.5790692,3.1437418157729855,Roots Montessori,education
12.9092276,77.5630344,4.05582063483245,Liquor Paradise,bar/club
12.9094955,77.5642924,3.9210079843563963,Axis Bank,financial
12.9117561,77.5671503,3.6343274519660485,UCO Bank,financial
12.9117471,77.5671495,3.6342891958632717,UCO ATM,financial
12.9117262,77.5671334,3.635733249344203,SBI ATM,financial
12.9112765,77.5670395,3.6400191592368554,Ganesh Juice Center,cafe
12.9111406,77.567002,3.642437410302126,Five Star Chicken,food service
12.9093837,77.5664401,3.6878996705437626,Bank of Baroda,financial
12.9094255,77.5655013,3.789755641948991,State Bank of India,financial
12.9089445,77.5652653,3.81297437820339,Oriental Bank of Commerce,financial
12.9060149,77.5645008,3.897759854277549,Shri Vasavi Kaniyaka Parameshwari Temple,place of worship
12.9058829,77.5649045,3.854793521870613,Udhbhava Kumarswamy Temple,place of worship
12.9051908,77.5647732,3.873770379925687,Shri Shri Shri Gangaparameshwari Temple,place of worship
12.904979,77.5646338,3.890596225870981,Shri Shri Chamundeshwari Temple,place of worship
12.9046865,77.565528,3.796701573603428,Axis Bank,financial
12.9048653,77.5657348,3.77266610000968,Shri Banashankari Darshini,food service
12.908434,77.568877,3.4199726916462088,,place of worship
12.9091739,77.5687268,3.4392061722138845,Mother Mary School,education
12.9287313,77.589322,2.630820369034536,,place of worship
12.9290557,77.5913715,2.5702558025744473,Inox,cinema
12.9271848,77.5910268,2.3949351538992887,Axis Bank,financial
12.9270197,77.5903523,2.410534518462384,Andhra Bank,financial
12.9288646,77.5913626,2.5509987638851808,DMart,grocery
12.9287251,77.5912567,2.541153555745023,Cafe Coffee Day,cafe
12.9287251,77.5911273,2.546668271104004,,financial
12.9310772,77.5888627,2.886538338696034,Sri Lakshmi Venkateshwara Temple,place of worship
12.9055717,77.5855866,1.625075769584903,Yes Bank,financial
12.9363204,77.6222034,3.9632918726755864,Black Pepper Lounge,food service
12.9049455,77.5856013,1.6350565948659568,Bank of Maharashtra,financial
12.9059571,77.58558,1.620127938503125,Linen Club - The Ramp,clothes
12.9386176,77.6288681,4.618577848136662,Mark & Spencer,grocery
12.9060964,77.5855631,1.6201788344269121,McDonald's,food service
12.9104179,77.5950737,0.6542003702122033,State Bank of India,financial
12.9205278,77.6131342,1.9839483296958753,,financial
12.9020984,77.5859455,1.6877330787104894,Allahabad Bank,financial
12.903812,77.5858613,1.636001806253966,IDBI Bank,financial
12.8887777,77.5791574,3.1200486386455495,Little Elly,education
12.9061288,77.593146,0.8074669639064694,Pizza Hut,food service
12.9145163,77.5987874,0.7794219564251893,St. Marks School,education
12.9009848,77.5859587,1.7358816830533854,Yes Bank,financial
12.9165191,77.5987455,0.9983968788132808,Axis Bank,financial
12.8931345,77.5816811,2.597235631708751,Wood City,home furnishing
12.8885816,77.5970487,2.1560029349863665,Athithi Andhra Style Restaurant,food service
12.8897004,77.5974903,2.0254509474796625,Bengaliana,food service
12.8884874,77.5970745,2.165856358317602,Canara Bank,financial
12.890105,77.5976831,1.9777869061721955,Domino's,food service
12.8897164,77.5975027,2.023483288726891,Dadi's Dum Biryani,food service
12.8896402,77.597468,2.0324416182824403,Liberty Exclusive Showroom,shoes
12.8895058,77.5974312,2.0478285738558424,Pizza Hut,food service
12.890143,77.5976943,1.973427241493916,Zanghs Dynasty,food service
12.8852127,77.5968148,2.529775420899557,Axis Bank,financial
12.8900746,77.5976753,1.9812558598863401,,financial
12.8922596,77.5983606,1.7302867455782343,Sufiyan,food service
12.892252,77.5983398,1.7314171390547686,Hot Burg,food service
12.8944662,77.5815515,2.519020966043385,Prachi Fashion,clothes
12.90602,77.5937277,0.7489251157896908,Starbucks,cafe
12.8971318,77.5858778,1.9655364074986588,The Big Market,grocery
12.9166304,77.6147547,1.844308157959107,State Bank of India,financial
12.9165155,77.6162625,1.977542395860239,,financial
12.9166044,77.6148886,1.8550021258947638,,financial
12.9061196,77.5926081,0.8647008240566555,Wangs Kitchen,food service
12.9234752,77.5852645,2.4040469336894814,Eden Park Restaurant,food service
12.9179404,77.5860042,1.934122445808788,State Bank of India,financial
12.904523,77.5803913,2.19939114349428,Axis Bank,financial
12.9048841,77.6016207,0.33800475187309215,KFC,food service
12.9025994,77.601482,0.5776188920685115,State Bank of India,financial
12.9230428,77.6144646,2.2870869565667706,,financial
12.9140657,77.5949385,0.9250690492146146,ICICI Bank,financial
12.9215034,77.5950833,1.641319470200553,HDFC Bank,financial
12.9296028,77.5628234,4.747824826260599,Wine Baron,bar/club
12.9278968,77.5622171,4.710983766789744,SBI ATM,financial
12.9272865,77.5615907,4.739186058151544,IDBI Bank,financial
12.9368412,77.5837992,3.7084303127924225,Malabar Gold,jewellery
12.9394185,77.5839616,3.953394569547334,Goli Vada Pav,food service
12.9394558,77.5839638,3.956988778650092,Karnataka Bhel House,food service
12.9241055,77.5671349,4.043147966065774,Kwality'S Ice Cream Parlour,food service
12.9240481,77.5673878,4.015814917927101,Indian Bank,financial
12.8896399,77.5633218,4.494296322942443,Ammys Biriyani,food service
12.8896722,77.5633449,4.490452376168272,Canara Bank,financial
12.9321815,77.6337015,4.519496245372059,Bethany Special School,education
12.9245905,77.5867571,2.3926611609339608,Uttara Karnataka Speciality Food Stores,grocery
12.9353301,77.6091895,3.2169642654886097,Stellar,home furnishing
12.9137923,77.6374114,4.066099150393829,Adyar Ananda Bhavan,food service
12.9122107,77.6377107,4.07267634085312,Pizza Hut,food service
12.9122576,77.6375965,4.061042306977042,Calvins,food service
12.9135892,77.6383047,4.157971450560531,Krispy Kreme,food service
12.9169799,77.6338738,3.7699226349216715,ICICI Bank,financial
12.9180396,77.631926,3.6032408500997333,HDFC Bank,financial
12.9180092,77.6319312,3.6026971035511672,Axis Bank,financial
12.9327941,77.602333,2.7991017178134836,"Red Hat India Pvt. Ltd, IBC Knowledge Park",office
12.9240664,77.6388883,4.549398154191787,DCB Bank,financial
12.9382385,77.6328181,4.8852843380873505,Axis Bank,financial
12.9226172,77.5932227,1.8340487996350001,Taaza Tindi,food service
12.9045002,77.5888265,1.305854265902583,Nammoora,food service
12.9341751,77.6170762,3.454126357750844,California Burritos,food service
12.8872703,77.5817854,3.0390621288015707,Amaravathy PU College,education
12.9020523,77.631261,3.4008411700266583,The Oxford College of Engineering,education
12.921883,77.5675933,3.8923066952657654,BNM Institute of Technology,education
12.90648,77.5901751,1.1187051686076788,Canara Bank,financial
12.9058455,77.5858943,1.5878650566775423,Citi Union Bank,financial
12.8917386,77.5790448,2.9179943457899515,Easy Take Retail,grocery
12.9001563,77.585937,1.7794768479005056,Funky Punjab,food service
12.9043815,77.5858999,1.6163856076053065,Vasantha Grand,food service
12.9058961,77.5802982,2.19020115669853,Vinaya Cafe,food service
12.914181,77.5949195,0.9362407376737748,Andhra Bank,financial
12.9156159,77.5951971,1.0475381071901233,Kunchum Foods,grocery
12.9160519,77.5951937,1.0888322944755966,US Pizza,food service
12.9100858,77.5920685,0.9437329071720154,ING,financial
12.9044659,77.5802459,2.2159671780963266,Karavali Garden Restaurant,food service
12.9168242,77.6037973,1.0795398397778646,Citibank,financial
12.9168242,77.6038323,1.0808313271237668,,financial
12.9168388,77.6033703,1.0662949187230848,Karur Vysya Bank,financial
12.9168388,77.6034052,1.0674346915780795,State Bank of India,financial
12.9167733,77.6110998,1.5360644752017336,Good To Excellence,education
12.9263463,77.5647627,4.386318249231416,Jalsa,food service
12.9080649,77.5625213,4.108049378454215,Ganesha Temple,place of worship
12.9078395,77.5625176,4.1082745062954595,Kalabairaveshwara Temple,place of worship
12.9072506,77.5600169,4.379557621723865,Shop & Save,grocery
12.9127356,77.6380054,4.11192667335348,HSR Layout,transportation
12.9110059,77.6444953,4.791099702632808,Nandini Cool Joint,food service
12.9302178,77.5890874,2.789946444514838,provision store,grocery
12.9098297,77.5811845,2.0985466540944113,The Oxford Secondary School,education
12.9099238,77.5813562,2.0812803416931254,Bank of Baroda,financial
12.9099264,77.5810745,2.1116312914253186,Bank of Baroda,financial
12.8907997,77.5817018,2.7648429562346477,Compete,clothes
12.9092617,77.5817945,2.0264539976589204,HDFC Bank,financial
12.9105018,77.5816131,2.062395497180065,Sri Upahara,food service
12.9104906,77.5815408,2.069953815650755,State Bank of India,financial
12.8922269,77.5811949,2.701737039824027,State Bank of India,financial
12.9466123,77.6218766,4.913010750441344,Syndicate Bank,financial
12.9460609,77.5949139,4.3081804140146085,Lakshmi Venkateshwara Temple,place of worship
12.9460933,77.5950233,4.310122997150171,Aegis Autogas,fuel
12.9078405,77.6005127,0.01940594275841548,Maramma Temple,place of worship
12.9096963,77.5808492,2.133056101286163,The Oxford College of Hotel Management,education
12.9098009,77.5808465,2.134594201275106,The Oxford Pre-University College,education
12.9095133,77.5812489,2.0879041007940806,The Oxford English School,education
12.9098297,77.5812542,2.0910411158226583,The Oxford Senior Secondary School,education
12.9095343,77.5808465,2.1315395601792946,The Oxford Evening Polytechnic,education
12.9098532,77.5808465,2.135241219495476,The Oxford Polytechnic,education
12.910501,77.5818478,2.0372416131607585,Hot N Cool,grocery
12.9100822,77.5815125,2.0666541482980874,The Oxford Primary School,education
12.910505,77.5820811,2.0123276985598024,H.S.M Iyengar,cafe
12.9107057,77.5835123,1.8631380950243146,Indian Bank,financial
12.9106315,77.584622,1.7433955009519808,Vasudeva's House,food service
12.9106137,77.5805904,2.173849787363776,Spicy Tree,food service
12.9109471,77.5793168,2.315933844223289,Canara Bank,financial
12.9109649,77.5792295,2.325588879646715,Zuari Furniture,home furnishing
12.9110032,77.5788747,2.364236721369736,State Bank of India,financial
12.911014,77.5788106,2.37128638177386,Western Union,financial
12.9110226,77.578561,2.398159767459098,Rolls of heaven,food service
12.9108461,77.5782827,2.4250485756981135,Sri Devi,food service
12.9110549,77.5781943,2.437983214728271,Kotak Bank,financial
12.9110743,77.5780397,2.4548719553865115,Sunrise Restaurant,food service
12.9110743,77.5780949,2.44896001113259,Nayana Fabco,clothes
12.9403442,77.6024598,3.6376715882705954,Safal Fresh,grocery
12.9426929,77.6026966,3.8999236885770143,HDFC ATM,financial
12.9424288,77.6015084,3.8645511035407303,State Bank of India,financial
12.9107273,77.5829611,1.9223546657338635,Nishara Public School,education
12.9365182,77.583828,3.6755508309842786,V V Silks and Sarees,clothes
12.9263525,77.5970518,2.107049082946889,Branded Sale,home furnishing
12.9102709,77.5993958,0.30775002812727514,Laguna Clothing,clothes
12.9256581,77.6006309,1.998067971203604,Swathi hotel,lodging
12.9296663,77.6009087,2.4442007858720887,Your kids r our kids,education
12.9115865,77.6002227,0.4337853336569209,Hotel Aradhana,food service
12.9123494,77.6004812,0.5181195371415487,Shoppers Stop,grocery
12.9109162,77.600202,0.3595043062692928,New Kabab Zone,food service
12.9109842,77.6001833,0.36718635494671736,Brahmashree Juice and Condiments,food service
12.9416428,77.5842724,4.1613230064500195,Sagar Vajra,jewellery
12.940504,77.5840047,4.0594236268453745,Arnav,jewellery
12.9387218,77.584117,3.876713071430275,Community English Higher Primary School,education
12.937957,77.5840951,3.80232247995603,Sri Kodanda Rama Swamy Sannidhi,place of worship
12.9392065,77.5827357,3.9943999227873133,Canara Bank,financial
12.9388406,77.5832721,3.9309342740479747,Kidzee,education
12.9381478,77.5828269,3.8866705835446984,BOI (Bank of India),financial
12.9284692,77.5839834,2.917631966673095,Karnataka Bank,financial
12.9300273,77.5842892,3.0374637679421204,Canara Bank,financial
12.9110992,77.6001886,0.3799045027206637,Kebab,food service
12.9112404,77.6001886,0.3955718470989861,Sri Nanjundeshwara bar and restaurant,bar/club
12.9113058,77.6001591,0.40304257694949897,Shri Lakshmi Darshini,food service
12.9112273,77.6001377,0.39451023938391194,Kebab,food service
12.9113345,77.6001135,0.4066021360397753,Prasanna bar and restaurant,food service
12.9110469,77.6001538,0.37437571711860945,Kebab,food service
12.9115035,77.6322824,3.4791362936876853,Vasudev Adigas,food service
12.9099986,77.5928725,0.8575346942902785,Punjab National Bank,financial
12.9101446,77.5904634,1.1132967860652747,Karur Vysya Bank,financial
12.9161526,77.6001688,0.9413750842822483,Amaan Restaurant,food service
12.9165473,77.6001273,0.9853813335929265,Ambur Chicken Biriyani and Chinese food,food service
12.9311572,77.6070088,2.705308785393764,Ande Ka Funda,food service
12.9103456,77.6097988,1.0583551738521455,Holy Smoke,food service
12.9102961,77.6063748,0.7073026265194131,Aahar Bhavan - Veg Hotel,lodging
12.9436693,77.62521,4.81900185563011,,grocery
12.9440787,77.6247551,4.829764649731509,Nami Designer,clothes
12.9423718,77.6251542,4.696463768206689,State Bank of India,financial
12.9399696,77.6212817,4.241955713170452,279,residential
12.9397604,77.6212358,4.2196299672546465,275/A,residential
12.9408979,77.6221327,4.378509080303024,326,residential
12.9419581,77.6227858,4.515964790907832,Eye Level Learning Center,education
12.941634,77.6229948,4.497879198544938,#314,residential
12.9252297,77.6190939,2.8105373015105,Fabindia,clothes
12.9320659,77.6182289,3.327347094194675,,food service
12.9319665,77.6179178,3.2988542533449867,Food Basics,grocery
12.9254221,77.6194529,2.8534222985636375,Sanjeevanam,food service
12.9175165,77.5780372,2.660791641477655,ICICI Bank,financial
12.9417768,77.6215095,4.425982838613353,Juice Maker,cafe
12.9371896,77.6176798,3.7759825403417775,Dyu Art Cafe,cafe
12.9360891,77.6159498,3.578268663881984,Juicy,cafe
12.9359584,77.6162475,3.580791974275894,Momoz,food service
12.9346905,77.6159203,3.440242470444583,Chai Point,cafe
12.9344396,77.6160195,3.4212223475715384,California Pizza Kitchen,food service
12.934947,77.6139133,3.3651023396264526,Inmark,clothes
12.9051816,77.6015721,0.3055427243056273,Tanishq,jewellery
12.935925,77.6061828,3.2010516092440917,South Indian Bank,financial
12.9374554,77.6195629,3.90613850698613,Vasthraa,clothes
12.8877343,77.5886419,2.5601119035401703,"B2 Block, L&T South City",residential
12.8876178,77.6030677,2.2502999826326273,Anjaneya Temple,place of worship
12.8865458,77.6063814,2.4382748169795763,Family Food House,grocery
12.9344183,77.626046,4.067615272351462,Mango Hotels,lodging
12.8828416,77.5891237,3.0222535961247003,Oak's Paradise,lodging
12.919533,77.6128458,1.8834362419834132,Gangothri Bar,bar/club
12.9105402,77.6327109,3.5139695273845155,Southinn,food service
12.9311314,77.6007942,2.6068551444635917,Seashell Savoury,food service
12.871224,77.5843851,4.41173382225304,BMTC Bus Depot 34,transportation
12.8741518,77.5948911,3.7771746629503027,Islamia Institue Masjid,place of worship
12.8900223,77.6004461,1.9645826245859548,Jamia Masjid,place of worship
12.9210143,77.6015318,1.4864495567789815,Masjid Salafia,place of worship
12.9202457,77.6002095,1.3962973233902902,Panchami Garden,food service
12.9306608,77.6005582,2.5542570244144653,Chicken County,food service
12.9172247,77.6143995,1.849079293849434,"Iqra International School, Bangalore",education
12.9195986,77.608563,1.5912161408086312,Wisdom International School,education
12.9335629,77.614322,3.247490664117132,Truffles,food service
12.9472236,77.598734,4.39971710977803,ICICI Bank,financial
12.9474456,77.5987375,4.424365493452652,Sahana hotel,lodging
12.9480956,77.5999568,4.493157990371935,Shree Sai Baba Condiments,grocery
12.9227933,77.5835861,2.479875040720029,Dena Bank,financial
12.89488,77.586103,2.106566713851503,Brigade Palmsprings,residential
12.893592,77.586205,2.1981729680396795,Reliance Smart Point,grocery
12.900609,77.594713,1.0014172938701442,ICICI Bank,financial
12.900542,77.594905,0.9946381039949768,State Bank of India,financial
12.9012855,77.623539,2.6048493668032298,Lakshmi Vilas Bank,financial
12.9366381,77.5752413,4.220026983002603,Reliance Fresh,grocery
12.9342864,77.6301111,4.370321544143357,1522,bar/club
12.937762,77.6271125,4.421424704457101,Ichin Restaurant,food service
12.8917806,77.5792737,2.8954773723272798,Chiah Hok,food service
12.9369895,77.5810697,3.8746605213937677,PSR Silks,clothes
12.9372349,77.581058,3.8983143829109923,Nandini Silks,clothes
12.9364297,77.5816412,3.7888400424429536,Vijaya High School,education
12.9364469,77.5814468,3.8018084573504534,Vijaya Composite Pre-university College,education
12.9368947,77.5819858,3.8128473973310983,Josco Jewellers,jewellery
12.935048,77.5743056,4.155173436436058,State ATM,financial
12.9351238,77.5741634,4.171845580509923,State Bank of India,financial
12.9354545,77.5739623,4.213609885613646,Karnataka Bank,financial
12.9067021,77.6396204,4.249986474346827,911 E&F,residential
12.9309095,77.6138689,2.9648079315404576,Seekers Cafe,cafe
12.9337036,77.6229616,3.7860896878351777,Nature's Basket,grocery
12.9326431,77.6317085,4.381381817423576,Allahabad Bank,financial
12.9326766,77.6316676,4.380313722973288,Axis Bank,financial
12.9327888,77.6315663,4.379770228605659,Mustard,clothes
12.9204291,77.5972998,1.4563523130098195,We Mart Super Market,grocery
12.9476948,77.600799,4.44849649830982,Sri Maramma Temple,place of worship
12.9487921,77.6009276,4.570651610936202,Bharathi Restaurant,food service
12.9489334,77.6001044,4.586163522860205,Axis Bank,financial
12.9484634,77.5989705,4.536500095036799,State Bank of India,financial
12.9482223,77.5990903,4.509273083334889,Srs English Nursery School,education
12.9240707,77.640498,4.709977724048198,Bhagini,food service
12.9310409,77.6081159,2.7271030991597733,Jose Mess,food service
12.9274912,77.6373711,4.569976065220737,Mani's Dum Biriyani,food service
12.9272827,77.6379132,4.610548752552889,,financial
12.9147113,77.6024933,0.8123557228680257,"Shantiniketan English High School, B M P 64",education
12.8918925,77.579749,2.847173430915893,State Bank of India,financial
12.917697,77.6154889,1.9760806386973806,,lodging
12.9286014,77.5928375,2.4662312905769523,Paani Kum Chai,food service
12.9476142,77.5797544,4.972395988961927,Meera Delicacy,food service
12.8824167,77.5839245,3.330938873834126,State Bank of India,financial
12.8824311,77.5838923,3.331463719869726,State Bank of India,financial
12.9105778,77.5807084,2.1606083807105785,Crunch Sip,food service
12.8835004,77.5900214,2.9164570490617208,,grocery
12.9416121,77.6172504,4.189750818784867,,financial
12.9411724,77.6172571,4.146108865551264,Ksheera Sagar,food service
12.940484,77.6183624,4.132505177542789,,financial
12.9414316,77.6174359,4.180519632547629,,financial
12.9177769,77.5961824,1.2120538932811038,Public Distribution Shop,grocery
12.918707,77.5964054,1.300053532891105,Shiva Temple,place of worship
12.9185951,77.5961373,1.2984416625332824,Sri Devi Karimariamma Temple,place of worship
12.9189327,77.5964279,1.3229282986474848,Street side food,food service
12.9204794,77.5956182,1.5143947920900456,Donne Biriyani Hotel,food service
12.9188764,77.5958387,1.3393612034740932,JMR Pasha,clothes
12.9204873,77.5957,1.5121964785765167,Public Distribution Shop,grocery
12.9203644,77.5956075,1.502795481460498,Safa Furniture,home furnishing
12.9199487,77.595865,1.4497929104738936,,place of worship
12.9288993,77.5818811,3.0983285809498535,Mane Holige Kuruk thindi,food service
12.9062859,77.6290719,3.10918903754998,Swati Bakery,food service
12.9357351,77.5867892,3.4507499086246636,Banad place,lodging
12.9311576,77.6234768,3.612869893047464,Muffets and Tuffets,cafe
12.9378029,77.5755637,4.297637842675234,ICICI Bank,financial
12.940402,77.5766481,4.457479184425114,Federal Bank,financial
12.9404668,77.5757675,4.51912542753298,IDBI Bank,financial
12.9378558,77.5755369,4.304041637646994,ICICI Bank,financial
12.916485,77.5982924,1.0047988252152886,AL-BEK,food service
12.9230018,77.5972171,1.7376373999216097,Curry Leaves,food service
12.9239069,77.5969076,1.8429977885913242,Parimala,grocery
12.8823914,77.5834957,3.358474713268311,Corporation Bank,financial
12.9370786,77.5752292,4.258344907514504,Presto,food service
12.8826056,77.5834699,3.3400869890980913,Delicacy,food service
12.8867108,77.5821914,3.0571970904987595,Goli Vadapav,food service
12.8867949,77.5820014,3.063449136670137,Axis Bank,financial
12.8873668,77.5821022,3.008278507844948,Lovely Fashion,clothes
12.8866632,77.5822067,3.0601676862085685,Momo Jojo,food service
12.8827588,77.5848287,3.2468287202848614,Parilok,education
12.8819897,77.5825547,3.452145468356101,Little Aryans,education
12.9288555,77.5818153,3.099258594693952,Holige Mane,food service
12.9253813,77.6337008,4.108401861022119,Pingara Restaurant & Bar,bar/club
12.8866506,77.5822279,3.0597568348512314,Athithi Gruha,food service
12.9355231,77.6189666,3.6902416454610547,Pahala Rasagola shop,cafe
12.9385338,77.5774383,4.238764408475396,Ajji's House,lodging
12.9229815,77.5894385,2.075590155475671,Pratik Comforts,lodging
12.9229279,77.5699054,3.7161569129832963,Repco,financial
12.88809,77.5802594,3.086398557638122,State Bank of India,financial
12.9364231,77.6151528,3.5716474748864733,Maria's Goan Kitchen,food service
12.9085614,77.5859107,1.5757549725389977,24th Main Pan Indian Bistro,food service
12.9171866,77.586079,1.879234874810943,,financial
12.9104062,77.5951099,0.6501211958136636,State Bank of India,financial
12.9010386,77.5859577,1.7334184253741471,HDFC Bank,financial
12.9065707,77.5875216,1.4037131404650807,Damro,home furnishing
12.9030809,77.5855786,1.68845563273449,Zaitoon,food service
12.9017285,77.5857629,1.721564741727312,Sea Salt,food service
12.9061462,77.5906223,1.0758993912208419,Egg Factory,food service
12.9100655,77.5921205,0.9376891543680237,Kotak Mahindra Bank,financial
12.9061407,77.5918526,0.9446124964881796,Cafe Coffee Day,cafe
12.9061034,77.5920152,0.9280698872348195,Pipe Yard,cafe
12.9095608,77.6043781,0.476597841676213,Sri Sai Bala Ji PG,lodging
12.9451931,77.5969836,4.186745955008755,Imperial Blue Garden Bar and Restaurant,bar/club
12.9434782,77.5817744,4.463204819496012,Siddharda Ashrama,place of worship
12.9434737,77.5829251,4.407686904785562,,place of worship
12.9221578,77.576215,3.077518191912317,Madhura Bhavan,food service
12.9232169,77.5766524,3.1011879118435837,Syndicate Bank,financial
12.9162662,77.5856417,1.864260753659631,Peter England,clothes
12.9118329,77.5859133,1.6385653832321234,Namma Adda,food service
12.930974,77.5799552,3.4093065992667246,Sri Nimishamba Temple,place of worship
12.9437347,77.5799634,4.580375057209148,,financial
12.9472769,77.5799705,4.9283631926781375,Bank of Baroda,financial
12.9382297,77.5802736,4.037315415624728,South Point,bar/club
12.947717,77.5798294,4.978955250719886,,financial
12.9259212,77.6389613,4.6429069551934505,"Sai ram Ladies PG, Koramangala",lodging
12.9083472,77.6446906,4.798641923214737,Aishwarya Supermarket,grocery
12.9046749,77.6406296,4.370845028503807,Shiva Temple,place of worship
12.9048595,77.6403067,4.334410663659173,Ayyappa Temple,place of worship
12.9051847,77.6397082,4.267199537270973,Canara Bank ATM,financial
12.9056484,77.6414765,4.4555377675037064,GHPS Yellukunte,education
12.9371939,77.6198328,3.8972439158690473,Upsouth,food service
12.9365073,77.6197375,3.8275405693084155,Swadist,food service
12.9367073,77.6206344,3.899937288004901,,financial
12.9017851,77.5563991,4.816421020202954,Shanmukh Dixit Astrologer,place of worship
12.8655685,77.6001278,4.683827680956285,Bank of Baroda,financial
12.9350497,77.6114296,3.267801216714506,Chumbak,clothes
12.9077046,77.6080359,0.8252678651589564,North Indian Restaurant,food service
12.9153987,77.6010351,0.8597204995835405,Paratha Junction,food service
12.9371526,77.5728792,4.432041245695973,Presto,food service
12.9326403,77.5656287,4.681478155344281,Koli Mane,food service
12.8920481,77.5719005,3.5470861874086013,Greenvalley high school,education
12.9120592,77.637908,4.091864883665495,Earth Plate,food service
12.9118357,77.6385521,4.158363307966396,The Punjabi Rasoi,food service
12.9188109,77.5687298,3.650661029881856,Sea Spice,food service
12.9271751,77.561435,4.7485139594631445,The Platter,food service
12.8867987,77.5675026,4.25766803920945,Hani Foundation Montessori,education
12.9256357,77.5646389,4.36143755682145,Swadesh Tadka,food service
12.9269753,77.5643645,4.457608356625122,Rasoi Restaurant,food service
12.8963221,77.5784799,2.693290675047417,Narayana e-Techno School,education
12.9247336,77.565329,4.249399225667235,Ayda Restaurant,food service
12.9418834,77.5707551,4.979312180818613,Nisarga Garden Restaurant,food service
12.9406714,77.5703714,4.904700879197014,Puliyogare Point,food service
12.9243553,77.5648981,4.272841897691245,Vinny's,food service
12.9394749,77.5776672,4.30962579808537,Cafe Mondo,food service
12.9222433,77.5618332,4.484450690020451,Vi Ra's Bar and Restaurant,food service
12.9379147,77.5748672,4.354942037334127,Thindi Katte,food service
12.9387861,77.5799087,4.11074232643183,New Shanthi Sagar,food service
12.937747,77.5758056,4.276392501209508,Imperial Plaza,food service
12.911789,77.6432674,4.6661122211332415,Helloo Delhi,food service
12.9240662,77.5642334,4.3242353862143785,Smacznego,food service
12.875504,77.5953765,3.6204810136965495,Nike,clothes
12.9153185,77.6367517,4.027899257997028,CINNAMON,food service
12.9073279,77.6283365,3.0258206358165265,Dandes Hyderabad Biryani,food service
12.8757393,77.5953738,3.5946637048037773,Cafe Coffee Day,cafe
12.9124928,77.6264129,2.867204225339575,Sardarji Ka Dhaba,food service
12.8759903,77.5954284,3.5661784836779806,Metro,shoes
12.9025398,77.6253423,2.7610977857887593,Ammis Biryani,food service
12.9257484,77.5642118,4.408342389484699,Tandoori Knight,food service
12.9329124,77.5684358,4.459051652370482,Sea Rock,food service
12.9385441,77.5699295,4.763548936725799,Harshi Super Sandwich,food service
12.9365742,77.5739529,4.3063409627298705,Vybhava,food service
12.937044,77.5753259,4.248676613915272,The Other Crescent,food service
12.9373404,77.579911,3.9763401628600192,Hotel Sanman,food service
12.9363723,77.5682018,4.729210930579629,Amand Patisserie,food service
12.8760834,77.5954874,3.554978734251368,Woodland,shoes
12.8762037,77.5957797,3.537109025539929,Allen Solly,clothes
12.8761932,77.595879,3.536750162830324,Fab India,clothes
12.9266174,77.5646489,4.411489055164508,Roving Feast,food service
12.9234527,77.5697585,3.757196150287108,Pure and Natural,food service
12.9303018,77.5666608,4.4396027514721474,New Prashanth Hotel,food service
12.9216335,77.5702729,3.6167623419787405,K27 - The Pub,bar/club
12.925663,77.5644456,4.381460444345952,Rolls on Wheels,food service
12.9245511,77.5655512,4.2188019538364525,Ammi's Biryani,food service
12.9256305,77.5649466,4.331544318446334,Hari Super Sandwich,cafe
12.9170843,77.5596138,4.544565668322409,Udupi Ruchis,food service
12.9152705,77.5609497,4.360358710795064,Sri Banashankari Nati Style,food service
12.9409856,77.6085956,3.8067887298634635,Ambur Biriyani Center,food service
12.943229,77.6091984,4.064600629807319,Sri Sathya Sai Food Corner,food service
12.939969,77.6091099,3.7106962599741653,Taj Food Point,food service
12.9438907,77.6073926,4.095594883713876,Hruday's D- 3,food service
12.9424172,77.6079042,3.9456986645557626,D3 multi cusine,food service
12.9414978,77.6087872,3.8670174359824467,Shri Ganesh Upahar,food service
12.9378405,77.574857,4.349282374338766,Presto,food service
12.9415138,77.6083283,3.8573947858533026,iLounge Cafe,food service
12.9415832,77.5770807,4.538990503610961,The Rogue Elephant,food service
12.9403117,77.5798319,4.258773430681419,Kabab Magic,food service
12.9377243,77.5794545,4.039428149102664,Leanin Tree Art Cafe,food service
12.9376671,77.5676462,4.87120371187069,Hotel Dwarka,food service
12.9375122,77.5759985,4.242945921508805,Gandharva Family Restaurant,food service
12.9328003,77.5688005,4.420509330788674,Koli Mane,food service
12.938888,77.5755794,4.391248962142466,South Thindies,food service
12.8762429,77.5953023,3.5405349864891043,hanes,clothes
12.8761932,77.5959662,3.535446659475849,jockey,clothes
12.8762903,77.5960641,3.5233128809239576,Lee,clothes
12.8761282,77.595946,3.542905872962616,Levi's,clothes
12.8761125,77.5960185,3.5435682215637425,liberty silks,clothes
12.8760994,77.5956161,3.5511468591094912,Louis Phillipe,clothes
12.8761282,77.5956939,3.5467508622305655,Mother Earth,clothes
12.8760524,77.5955732,3.5570006386372395,Mother Earth,clothes
12.8760001,77.5955142,3.563701374143896,Peter England,clothes
12.8761308,77.5958361,3.5442704128558216,UCB,clothes
12.8761073,77.5961821,3.5417967507676815,show off,clothes
12.8760888,77.5961161,3.5447712398688163,Van Huesen,clothes
12.8759384,77.5960999,3.5615806141324695,w,clothes
12.8759894,77.5955735,3.563924401762613,Wrangler,clothes
12.8759398,77.5955547,3.56968006684999,U.S. Polo Assn.,clothes
12.8760769,77.5959487,3.548516537032502,Biba,clothes
12.8761109,77.5958548,3.5461778313390426,shopper stop,clothes
12.9353486,77.6249595,4.065817809378187,Dialogues Cafe,cafe
12.9013643,77.5885613,1.4653712215724852,Ayodhya Nagar,lodging
12.9306322,77.5841581,3.1007606844445497,BN Sreekantaiah and Sons,grocery
12.8756821,77.5954793,3.599230262715099,Swagger,clothes
12.8756925,77.5958039,3.5930166349340853,Max,clothes
12.8757945,77.595879,3.580657201161452,Reliance trends,clothes
12.8757108,77.5956993,3.592599485798212,home stop,clothes
12.9233799,77.6341276,4.048315341103522,Ira Residency,food service
12.8827967,77.5693891,4.356153684471958,,financial
12.9233777,77.5700231,3.7279448145381853,Bata,shoes
12.9237659,77.5696566,3.7832962950862896,MVJ PU College,education
12.8792546,77.5672683,4.7865554718083345,Corporation Bank,financial
12.8799338,77.567328,4.732094828618955,State Bank of India,financial
12.8831848,77.566088,4.612386664744761,,financial
12.9030471,77.5851583,1.7330321225016647,"CMS Business School, Jain University",education
12.8830444,77.5696076,4.320367954601151,Bhuvaneshwari Traders,grocery
12.8922387,77.5655484,4.152029143587422,RMS International School,education
12.8947916,77.5687362,3.721787042281817,Indian Overseas Bank,financial
12.8852815,77.5669092,4.40490821090136,Surabhi Veg,food service
12.8844123,77.5665775,4.489626367953514,,financial
12.9079578,77.5783267,2.3949538291278567,ICICI Bank,financial
12.8854655,77.5668774,4.396216158220829,Thindi Potha,food service
12.8915698,77.5652629,4.211340962026271,NIIT,education
12.8912738,77.5649779,4.253337721304131,Athithi Grand,food service
12.9074342,77.578346,2.3928489713383496,Karnataka Bank,financial
12.9062397,77.578546,2.376487764524663,Aurick Boutique,lodging
12.8835026,77.5714748,4.132546284940228,Mahalakshmi Provision Store,grocery
12.8852473,77.575691,3.6623915368271645,Temple,place of worship
12.9330476,77.5822333,3.4403577908482785,Standard Chartered,financial
12.9330908,77.5814924,3.4908735142808736,Empire,food service
12.9301342,77.6181807,3.1516476058614633,South Indian Bank,financial
12.9301613,77.618137,3.151146243571314,Bank of Baroda,financial
12.9304666,77.6183064,3.189256504834703,Federal Bank,financial
12.9261828,77.5643228,4.4198972620056685,Casa Blanca,food service
12.8830723,77.5755888,3.839044395758945,,financial
12.8801126,77.5681771,4.6495788441455295,,financial
12.9035208,77.5843442,1.8031956824512654,Canara Bank,financial
12.9349175,77.5829015,3.573727112635811,Java City Jayanagar,cafe
12.8901975,77.6258846,3.376454409445655,,financial
12.9040892,77.5847141,1.7489365993317123,Axis Bank,financial
12.8797355,77.5678057,4.70749846359093,,financial
12.8959006,77.6219225,2.6738443200442057,DMart,grocery
12.8857953,77.5705791,4.048476334906105,,financial
12.8850398,77.5703422,4.119839256530191,,financial
12.9268233,77.6164922,2.7495308763193433,Puma,clothes
12.934232,77.6111578,3.172404704667319,Puma,clothes
12.9343711,77.6109597,3.179022581813425,Nike,clothes
12.9164396,77.5925822,1.2916861055206614,Puma,clothes
12.9114996,77.6241693,2.6084902512358266,SLN Super Market,grocery
12.9452356,77.6184676,4.610253776773373,Puma,clothes
12.8974942,77.5998505,1.1354326119081701,Vishal Mega Mart,grocery
12.8908667,77.597713,1.8935864762871484,South India Shopping Mall,mall
12.8758755,77.5958084,3.5727991781874557,Hypercity Retail India Pvt Ltd,grocery
12.908192,77.6297356,3.177678664788997,Nisar Manzil,residential
12.9149937,77.6352099,3.856937696776267,Shoba supermarket,grocery
12.9164819,77.6048556,1.0893233695108482,Reliance Fresh,grocery
12.878889,77.5957702,3.241991588322379,Foodworld,grocery
12.8977213,77.6209903,2.489752591440588,The Big Market,grocery
12.8925021,77.6116554,2.082003239720974,Span Retail,grocery
12.9051928,77.6113706,1.2187630357696173,Heritage Fresh,grocery
12.9193503,77.6158536,2.116234835229137,Allday Supermarket,grocery
12.8949631,77.6090105,1.6939232328159544,Ever Fine Super Market,grocery
12.9228872,77.6174916,2.5056483329749786,Pick N Save The Wholesale Market,grocery
12.8964974,77.6109057,1.685302402609084,Day To Day Super Market,grocery
12.9367017,77.6104595,3.404427931625193,Star Bazaar,grocery
12.8985629,77.6267808,3.031900268454113,Reliance Fresh,grocery
12.936323,77.6148832,3.5486930294840566,The Chocolate Room,cafe
12.9345661,77.6116372,3.2262090568531483,Pantaloons,clothes
12.9205227,77.5951235,1.5381192632626008,Karnataka Bank,financial
12.924386,77.6000893,1.8568377743408622,,financial
12.9174899,77.5732745,3.137594972803852,,financial
12.9205691,77.5951275,1.5427455515418582,,financial
12.9231214,77.5970987,1.7532609166694704,Curry Leaves Andhra Restaurant,food service
12.9135341,77.5588078,4.556846729349918,Vanani Bar and Restaurant,food service
12.9174334,77.5732706,3.1358155847247327,Shri Krishna Bhavan,food service
12.949078,77.5978259,4.610703870748429,Annapurna benne dosa,food service
12.9459795,77.5885235,4.448565595476516,Abc Resto,food service
12.9137104,77.6088524,1.1327222810383684,The Little Blue Window Hostel,lodging
12.8956232,77.6068313,1.5109723062296596, ,place of worship
12.9160728,77.6272019,3.048521392369104,Clay Station,grocery
12.8941551,77.5864565,2.1345490845915043,Hakuna Matata,food service
12.9370636,77.5851757,3.6603448170398143,Toscano,food service
12.9304984,77.6338469,4.422164601881222,,food service
12.9087932,77.5984614,0.245325799086393,Mass Residency,lodging
12.916778,77.5925291,1.3239703242695817,Upahara Darshini,food service
12.9148191,77.5982088,0.8281869273078398,Brahmins Special,food service
12.9331913,77.6230591,3.749656196082822,The Tower Of Pizza,food service
12.9236826,77.5734024,3.426042933692304,Aaradhya Food Line,food service
12.8698557,77.597124,4.222162489951985,Galaxy mart,grocery
12.8671553,77.59804,4.514662507979396,Patanjali Store,grocery
12.8698577,77.5970827,4.222322267810809,Galaxy mart,grocery
12.8663845,77.59779,4.60183423459791,Canara Bank,financial
12.8663259,77.5979475,4.607312475627984,,financial
12.9114527,77.5870878,1.504525531608425,Ranga Shankara Cafe,cafe
12.9348261,77.6158067,3.4474370010425406,Karama restaurant,food service
12.9456273,77.5952951,4.254844980427046,Hotel Empark,lodging
12.9230869,77.6192348,2.6624381889966244,Shri Balamuri Mahaganapati Temple,place of worship
12.9236536,77.6184482,2.6396799467721714,,food service
12.9493419,77.6058431,4.668577521370042,,place of worship
12.9132492,77.6351438,3.813745650717584,Agarwal Bhavan,cafe
12.8763018,77.6030612,3.501937297139461,Government School,education
12.8809055,77.6010003,2.9789829785161976,State Bank of India,financial
12.8810319,77.5988542,2.9691328760424294,More,grocery
12.8807806,77.6012639,2.9936031724657557,E K Mart,grocery
12.8775041,77.6031664,3.3696997676372527,S L V Bhavan,food service
12.8808233,77.6009711,2.9880564299276817,State Bank of India,financial
