Landmark Latitude,Landmark Longitude,Distance,Landmark Name,Property Type
12.8952509,77.6019087,3.6401742124089242,State Bank of India,financial
12.8984603,77.6010688,3.4172916136480347,Snack Corner,food service
12.894213,77.6025681,3.693445383800428,Athicas Canteen,food service
12.8944356,77.6024475,3.6803835511589487,Chai-Unchai,cafe
12.8973119,77.6015666,3.480775707744363,,food service
12.8922129,77.5985137,4.131113169723512,Adigas,food service
12.9563674,77.6046266,4.275895986738608,Haydon Manor,residential
12.9185225,77.6518418,3.285813125081083,ICICI Bank,financial
12.9189346,77.65183,3.2799261089270497,Karnataka Bank,financial
12.9187503,77.6518327,3.282203162614765,Angel Heart Montessori Play School,education
12.917181,77.6493619,3.0398177695441415,Bank of Baroda,financial
12.9212938,77.6635656,4.537584114021874,Gangothri Residency,lodging
12.9214046,77.6639051,4.574270960705254,Ringview Residency,lodging
12.9174059,77.64853,2.9467777746805535,Priti Departmental Store,grocery
12.9316521,77.5907098,3.5362354490086996,Canara Bank Holiday Home,lodging
12.9309141,77.5850854,4.098317732338799,Citibank,financial
12.9330058,77.5836988,4.30604067999316,ICICI Bank,financial
12.9365346,77.627846,1.7789369581330416,State Bank of India,financial
12.9365895,77.5804447,4.767774797526325,Bharat Petroleum,fuel
12.9369025,77.5848426,4.337420866953424,Mahashakthi Enterprises,fuel
12.9285088,77.6007706,2.3912953327403303,Indian Oil Petrol Bunk,fuel
12.9275361,77.5894406,3.5559202044575957,Advaitha Petrol Bunk,fuel
12.9333646,77.6230728,1.3055494303324324,Sukh Sagar,food service
12.935703,77.6156133,1.6910308205243558,Masjid-e-Mamoor,place of worship
12.9163076,77.6103158,1.3718043862537912,Udupi Garden,food service
12.9328185,77.5830433,4.368096940421306,Foodworld,grocery
12.9309193,77.5837775,4.235851341722281,Canara Bank,financial
12.9289702,77.5839921,4.165878971404454,State Bank of India,financial
12.9238284,77.5763354,4.922246010957447,Citibank ATM Jayanagar 7th Block,financial
12.9353555,77.6148616,1.6896343266359208,ICICI Bank,financial
12.9356671,77.6144578,1.7401341315687961,Bharat Petroleum,fuel
12.9156177,77.6347321,1.5659988702109253,State Bank of India,financial
12.9604812,77.6385098,4.681265573397217,IDBI Bank,financial
12.9606568,77.6385011,4.698892796324922,Shanti Sagar,food service
12.9588137,77.6382484,4.49967766442368,Family Mall,grocery
12.9591813,77.6382984,4.539339365574338,Spencers Express,grocery
12.9595527,77.638381,4.580810214554195,More,grocery
12.9593353,77.6385869,4.5675031668826955,Srinidhi Sagar,food service
12.9621752,77.6373877,4.811029714360863,,grocery
12.9619513,77.6419064,4.982706527944164,Nandhini,food service
12.9601353,77.6431187,4.863459736737775,Axis Bank,financial
12.9559416,77.6412371,4.356583510500342,Pizza Hut,food service
12.9558995,77.6411692,4.348918148856807,Nandhana,food service
12.9602773,77.6373781,4.613830153013915,Vijaya Bank,financial
12.9606833,77.6381838,4.688400222562523,Union Bank of India,financial
12.9613667,77.6346913,4.6299781413636065,Indian Oil,fuel
12.9600367,77.6452495,4.968396027157217,Kotak Mahindra Bank,financial
12.9600398,77.6452145,4.966744649261739,Citibank,financial
12.956044,77.6119244,3.963099415476444,,place of worship
12.9543746,77.5930172,4.781498746552026,Adyar Ananda Bhavan,food service
12.9498004,77.5865608,4.925971281606719,Lalbagh Glasshouse,attraction
12.9141893,77.5933299,3.186173301161166,Ragigudda Temple,place of worship
12.9344837,77.6130843,1.7007289750239796,Bob's Bar,food service
12.9215957,77.5857204,3.8994543589763966,Ganesh Temple,place of worship
12.932868,77.5872561,3.934054377810979,Ganesha Temple,place of worship
12.9233773,77.598919,2.476010142383776,Maheshwari,cinema
12.9522306,77.5897955,4.845593473189547,,food service
12.9172203,77.5923138,3.223596191462737,Smart Bazaar,grocery
12.932679,77.6135844,1.504649125444496,Hyderabad House,food service
12.9351086,77.611565,1.851878156077233,McDonald's,food service
12.9343669,77.6107742,1.8400942376546885,KFC,food service
12.9603346,77.6382904,4.657022998866178,MintLeaf,food service
12.9547341,77.593073,4.808038273628701,,transportation
12.9430867,77.5994637,3.38565876246222,Madrasa-e Arabiya,education
12.9250029,77.664274,4.62869428357817,,grocery
12.9430329,77.5849889,4.6320332345959665,Brigade Homestead,lodging
12.9309204,77.5840319,4.209134902667118,Ganesh Darshan,food service
12.9330581,77.584422,4.232870341737896,Upahara Darshini,food service
12.9330431,77.5843044,4.244540781468494,Nagarjuna Chimney,food service
12.9261789,77.5848245,4.027409260969875,La Casa,food service
12.9268754,77.5862909,3.8804754815005986,KFC,food service
12.925064,77.6328706,1.2671216473735079,Sathya's,bar/club
12.9600242,77.6015444,4.78864092667211,Sandhya Sagar,food service
12.946945,77.6175314,2.8432362769539425,St. Sara's School,education
12.9451797,77.6213677,2.6110718797105497,Annamma Temple,place of worship
12.9479784,77.6189413,2.9372796179194887,,place of worship
12.9495122,77.6128103,3.2391620135679267,Kalikamba Temple,place of worship
12.9497089,77.6128657,3.2582814253028403,,place of worship
12.9500299,77.6132833,3.279541619206371,Shiva Temple,place of worship
12.9496275,77.6139658,3.216524478412663,Government School,education
12.9497624,77.6143357,3.2208421301575,Methodist church school,education
12.9500555,77.6148988,3.237992892860705,,place of worship
12.9499206,77.6151518,3.217229535421437,Adithya public school,education
12.9494647,77.6154126,3.1615926531117093,Church statue,place of worship
12.9499142,77.616417,3.189090100074837,Jewellery shops,jewellery
12.9503648,77.6156719,3.2536397115379017,,place of worship
12.9503747,77.6159015,3.249815186294211,temple,place of worship
12.9505235,77.6162762,3.2584809281063336,St merry statue,place of worship
12.9502096,77.6166557,3.216911897016342,Church statue,place of worship
12.9081047,77.5925498,3.5024086516569066,Vasavi Education Trust School,education
12.9356995,77.6145787,1.7374906771626202,Cafe Coffee Day,cafe
12.9554112,77.5918509,4.95129172040236,Mysore Resham Emporium,clothes
12.9165004,77.5922463,3.2441347588471428,Bangalore Central,mall
12.9310045,77.5830947,4.309952312827573,Pizza Hut,food service
12.9241534,77.5870587,3.7642725647280795,Raghavendra Swamy Mutt,place of worship
12.9622135,77.6414116,4.985702499008969,Barbeque Nation,food service
12.9062825,77.6276456,1.8314578539573314,Ganesha Temple,place of worship
12.8985118,77.617863,2.611732545961179,Hanuman Temple,place of worship
12.8981899,77.6181991,2.6415976471008435,Shanishwara temple,place of worship
12.8986161,77.6179121,2.599437729765248,Sweet City Bakery,grocery
12.9242835,77.6181188,0.4828730864437155,Ayyappa Swamy Temple,place of worship
12.9380122,77.6265834,1.8894680607950902,Ganesh Temple,place of worship
12.8989097,77.6219897,2.534360248492975,,grocery
12.9431459,77.5893564,4.23948566807184,Ganesha Statue,place of worship
12.9429538,77.5927317,3.929534519901443,Masjid Abu Bakr (RAA),place of worship
12.9130435,77.6099326,1.5978323893832815,Trends Woman,clothes
12.9356089,77.6151797,1.7003867981048377,HDFC Bank,financial
12.9104601,77.5823629,4.4428321114780145,Sri Kalyana Venkateshwara Temple,place of worship
12.9150732,77.6197271,0.7672633029976145,Vinayaka Temple,place of worship
12.9093013,77.614205,1.6001887639538157,ICICI Bank,financial
12.9066923,77.6129725,1.9182197265712835,Lord Shiva Temple,place of worship
12.9080346,77.613565,1.7567937703395242,Masjid Quba,place of worship
12.9057731,77.6125928,2.0274855588396723,Durga Temple,place of worship
12.9140567,77.6099682,1.5293917010416185,Jockey,clothes
12.9141469,77.6116922,1.371804268578606,"St Josephs Eng Pri Sch, B T M Layout W No 65",education
12.9149626,77.6149914,1.0439806719316873,Sri Ganesh Food Point,food service
12.9140156,77.6092776,1.594606091753793,Allen Solly,clothes
12.913127,77.6101684,1.571860667359666,Beijing Bites,food service
12.9127285,77.6064015,1.9350357897599255,Indian Bank,financial
12.9136099,77.6102033,1.5368186910409054,Mom & Kid,clothes
12.9136689,77.6099505,1.5553393141560001,Punjabi Swag,food service
12.9099963,77.6101216,1.8078605577126379,Sri Chamundeshwari Temple,place of worship
12.9279136,77.5866159,3.8645991889153963,Vijaya Pre-University College,education
12.9217736,77.5925109,3.163498209613454,Holy Saint English School,education
12.923826,77.5846934,4.017685474512206,Holy Christ English School,education
12.9340338,77.5874849,3.953602125456471,Saraswati Vidya Mandir,education
12.9240904,77.5846782,4.0211641456493075,MES School 4th Blk Jayanagar,education
12.9229013,77.5816474,4.342908667099773,Good Shepherd School,education
12.9268857,77.5833568,4.195373246377421,RV Dental College,education
12.9271452,77.5778773,4.78785170074616,Nehru Smaraka Vidya Kendra,education
12.9387689,77.5841184,4.493438497587144,Community English High School,education
12.9355883,77.5808383,4.689977279873614,City Central Library,education
12.934729,77.6125976,1.7527271942933693,Hungry Panda,food service
12.944337,77.620028,2.5236332694460635,Hotel Ganga Sagar,lodging
12.9377655,77.6267552,1.8685243907561773,Gangothri Restaurant,food service
12.9398542,77.6251855,2.053693369912778,Pizza Hut,food service
12.9376227,77.6269262,1.8589120600829288,Taco Bell,food service
12.9455764,77.5965053,3.808414885509572,Shanti Church,place of worship
12.9210075,77.6513793,3.217541526439322,,lodging
12.9349444,77.6293498,1.6900323847931864,Barista,cafe
12.9355492,77.6287026,1.7168081454931097,Rendezvous,bar/club
12.9353574,77.6293981,1.732711229561158,Maple's,lodging
12.916193,77.6053993,1.8697892651321435,Karnataka Bank,financial
12.9118085,77.6512869,3.3900509108961585,MK Retail Super Market,grocery
12.913356,77.651692,3.380380491001386,Cafe Coffee Day,cafe
12.913287,77.651677,3.38093254722226,Papa John's,food service
12.914984,77.651663,3.332166842505299,Swadeshi,clothes
12.914474,77.651684,3.347545398077981,Multiplex,grocery
12.9178793,77.652035,3.3150406028886596,Patalamma Temple,place of worship
12.9344118,77.6109865,1.8292285132237898,Cafe Coffee Day,cafe
12.9001507,77.630134,2.564612813740253,The Oxford Dental College & Hospital,education
12.9362306,77.6254307,1.6655489585926178,Kota Kachori,food service
12.9370423,77.6245906,1.7345104987662157,Coast to Coast Sea food restaurant,food service
12.9342471,77.6234716,1.4083230972291807,Tamrind Restaurant,food service
12.9370998,77.6245424,1.7398669757716592,Kubey Seafood Restaurant,food service
12.9109843,77.5791221,4.766001441786794,Prasiddhi,food service
12.9107281,77.5792052,4.764498872998342,Reliance Fresh,grocery
12.9056456,77.5855728,4.303303999885688,Nandhini Deluxe,food service
12.9022616,77.5827185,4.745737323877003,Ganesha Temple,place of worship
12.9027732,77.5837541,4.619899776443408,Inchara,food service
12.9354349,77.6058672,2.2971285535218584,Christ University Library,education
12.9359939,77.6151031,1.7428048146496469,Sweet Chariot,cafe
12.9342871,77.6161496,1.5234112066321592,Terminus,lodging
12.9334642,77.6151016,1.4908256257842292,Latte Tude,cafe
12.9365445,77.6142714,1.8365034603358215,Lucky da dhaba,food service
12.9338202,77.6193658,1.3712414422858257,Lazeej,food service
12.9345967,77.6162526,1.5508153050971114,Meghna Biryani,food service
12.9336119,77.6152238,1.499010448768377,Zheng,food service
12.9338304,77.6194655,1.3704055714916183,Golmal Paratha,food service
12.9345246,77.6162996,1.541463642111821,Costa,cafe
12.9365369,77.614409,1.8292530350878191,Aalishan,food service
12.936364,77.6147769,1.7949038140931766,The Juke Box,bar/club
12.9336331,77.622557,1.3301468080366239,Ping,food service
12.9366058,77.614973,1.8107026264322448,Sixtyfour,bar/club
12.9359336,77.6146718,1.7564513125552375,Daawat,food service
12.9362549,77.6145138,1.796069533828351,Atithya,food service
12.9338227,77.6193019,1.3728088776776097,Tunday Kabab,food service
12.9358653,77.6149483,1.7367750293244824,Udupi Upahaara,food service
12.9354363,77.6147873,1.701243580269173,Friends,cafe
12.9332689,77.6147839,1.4888410719429541,Purple Haze,bar/club
12.9333951,77.6155122,1.4631658343362801,Cuppa,cafe
12.9363343,77.6151183,1.7767297226361736,Coorg,food service
12.9337973,77.6189966,1.3766957741407593,KC Das,food service
12.9358031,77.6147343,1.740438544387643,Adyar Ananda Bhavan,food service
12.9363805,77.6151025,1.7821222429666177,Zingron,food service
12.9334311,77.6217925,1.3044773246396826,Beijing Bites,food service
12.9335142,77.6151725,1.492047865791778,Blue Petal Business Hotel,lodging
12.9341001,77.6164042,1.4935106447363948,Lazeez Express,food service
12.936529,77.6146211,1.8186453498035906,Ammi's Biryani,food service
12.9338857,77.6194174,1.3773849964184786,Tandoor Hut,food service
12.9127092,77.6061623,1.9583901867509785,City Union Bank,financial
12.9106552,77.6063086,2.071471264402244,Homeneeds,grocery
12.9116247,77.6026978,2.3444809260348283,Rama Temple,place of worship
12.9052591,77.5951539,3.4088163936892952,MK Ahmed Bazar,grocery
12.9070833,77.6351607,2.1840333925866418,Mangammanapalya,transportation
12.9332952,77.591203,3.54773872908115,Masjid Umar Farooq (Byrasandra),place of worship
12.9450769,77.5903688,4.27623437797709,Masjid e Inayat,place of worship
12.9365,77.582432,4.562816548384951,HDFC Bank,financial
12.9353703,77.582448,4.517405094762218,Temple,place of worship
12.9353912,77.5827887,4.483440146864219,,place of worship
12.9433387,77.5850711,4.641915879444236,Cafe Coffee Day,cafe
12.921943,77.620248,0.15966925846947602,Mac,food service
12.934708,77.6126855,1.7454477627135647,State Bank of India,financial
12.9287707,77.5824139,4.329714603546716,Canara Bank,financial
12.932818,77.5842985,4.237783701852026,Corporation Bank,financial
12.9356059,77.6143393,1.7399138681515829,Axis Bank,financial
12.9361984,77.6214666,1.6123469537209731,China Pearl,food service
12.9346877,77.6116748,1.8072313619999523,PVR,cinema
12.934745,77.611659,1.8133538759223153,Westside,clothes
12.934792,77.6113,1.841095443666228,Reebok,clothes
12.934525,77.610909,1.8442867400352447,Pizza Hut,food service
12.934546,77.61107,1.8350889795494711,Metro,shoes
12.935016,77.611357,1.8571170821548024,Sahib Singh Sultan,food service
12.934504,77.613547,1.6756401948512525,Gramin,food service
12.934323,77.613299,1.6730469584942864,Om,food service
12.9324379,77.5862539,4.0228118495653975,Addidas,clothes
12.9306133,77.5825147,4.360910813432502,Nandini,food service
12.9341298,77.6109889,1.8049411121210992,More,grocery
12.933604,77.613126,1.6172623694590682,Standard Chartered,financial
12.9355699,77.6142407,1.7412925891495166,Axis Bank,financial
12.9372017,77.6244522,1.7493265883078184,Madurai Idly shop,food service
12.9165317,77.5923697,3.2303544455885036,Pantaloons OnLoop,mall
12.9062514,77.6097829,2.1492089579223705,Madinanagar Mosque,place of worship
12.9177491,77.5924251,3.203082700165582,Ganapati Temple,place of worship
12.9170955,77.5905046,3.4195077119273063,,education
12.9162428,77.592424,3.2304451529054794,Inox,cinema
12.934295,77.6300787,1.6691197487962297,Maharaja Restaurant,food service
12.9338627,77.6304381,1.6510255634140725,Axis Bank,financial
12.9312186,77.6342399,1.7225662941824902,,food service
12.9353385,77.6138382,1.7394904215155915,State Bank of India,financial
12.9423147,77.6150065,2.4042927072640863,More Supermarket,grocery
12.9375475,77.6279931,1.8895404597824934,Lifestyle,clothes
12.9344222,77.6240149,1.436718091316651,Canara Bank,financial
12.9331413,77.6228508,1.2783132630051455,Fiorano Ristorante,food service
12.9336643,77.6231619,1.3397704057485322,Kotak Mahindra Bank,financial
12.9338891,77.6232852,1.366210774783308,IDBI Bank,financial
12.935716,77.6218199,1.5585622617928918,Nilgiris,grocery
12.9404971,77.6207624,2.092610645174672,Bethany High School Koramangala,education
12.9337444,77.6301835,1.624493393136406,Levi's and Nike,shoes
12.933506,77.6303939,1.6158980527730946,HP Petrol Pump,fuel
12.9139266,77.5854371,4.024127809851596,State Bank of India,financial
12.936103,77.6251968,1.645767182584903,Karur Vysya Bank,financial
12.9358758,77.6259621,1.6425619037223813,Dhanalakshmi Bank,financial
12.9378758,77.6266672,1.8774968536397298,Sri Prasanna Veeranjaneya Temple,place of worship
12.9376456,77.626351,1.8433252793804076,Manyavar,clothes
12.9166102,77.5914577,3.326170066290493,Shiv Sagar Signature,food service
12.9153417,77.5948673,2.992849141645255,SLV,food service
12.9163528,77.5921287,3.259631710293492,Food Court,food service
12.9165527,77.5921175,3.256844232883501,McDonald's,food service
12.9231515,77.5893938,3.5050244088648093,Shanthi Sagar,food service
12.9200217,77.5892754,3.5191121120905433,Saibaba Temple,place of worship
12.9144392,77.5858525,3.968176975621255,HDFC Bank,financial
12.9198321,77.5927344,3.146140562061066,,financial
12.9226921,77.5935766,3.0499781439880755,ICICI Bank,financial
12.9373618,77.6244338,1.766535260249422,HDFC Bank,financial
12.9352032,77.6228947,1.5070595559806927,Sowbaghya traders,grocery
12.9371376,77.6241392,1.7368182069731033,Navya shree sarees,clothes
12.9233246,77.6514168,3.225731531895543,Bata,shoes
12.9215902,77.6512829,3.2061917266497835,Grill and Hog,food service
12.9354469,77.6154094,1.6737257253642113,McDonald's,food service
12.9365646,77.6207273,1.656226362640346,Banana Beach bar,bar/club
12.9362976,77.6213531,1.623614392133324,Nandhana Grand,food service
12.9366384,77.6206523,1.6649505567269296,fulki,clothes
12.9365443,77.6205772,1.6550901110932204,U Fashion store,clothes
12.941685,77.621969,2.2224218244417253,"Ganapathy, Anjaneya, Raghavendra Swamy temple",place of worship
12.9418577,77.6159961,2.325112087745495,Forum bakery,grocery
12.9519912,77.6407671,3.9515514147463544,IBM,office
12.9449911,77.618272,2.616362175777393,Mookambika Bar& Resturant,bar/club
12.9422358,77.6178071,2.3221237486963675,Dim Sum,food service
12.9309662,77.6004616,2.5218464999755428,Classic Auto Gas,fuel
12.9301626,77.6011209,2.420690791754685,Spar,grocery
12.9284331,77.5900599,3.50985959526849,Brews & Bites,cafe
12.9100191,77.5925018,3.4207302042383727,Karnataka Bank,financial
12.9104894,77.5907795,3.575546186380587,Vignesh Jewellary,jewellery
12.9309732,77.5901342,3.5730292994064428,Nandini Milk Diary,grocery
12.9307824,77.5905204,3.5268430418661407,Hopcoms,grocery
12.9351927,77.6136464,1.7357336087583266,F M Silks,clothes
12.9336342,77.6176324,1.3983282054723825,Krishna Temple,place of worship
12.9335033,77.606469,2.108867907432436,Christ University Library,education
12.93091,77.608255,1.7810163983525442,Anjaneya Temple,place of worship
12.9309532,77.6084387,1.767556983782136,Srirama Temple,place of worship
12.9140071,77.5993825,2.5655919641187936,Gopalan Cinemas,cinema
12.9321895,77.5862459,4.015531887752413,Nike,clothes
12.9322783,77.5862513,4.017850846818376,United Colors of Benetton,clothes
12.9318182,77.5862459,4.003737136132807,MAX,clothes
12.9305893,77.5862057,3.971734405622931,she,clothes
12.9330961,77.5823147,4.452571620108439,Lassi Park,cafe
12.9141661,77.590697,3.4629830266004227,BESCOM,office
12.943764,77.6071874,2.9142533838414173,Adigas,food service
12.9086094,77.6492192,3.3188255155567683,Safa Supermarket,grocery
12.934104,77.6164798,1.4907824705090567,Adaa Restaurant,food service
12.9364646,77.614012,1.841073171773778,Shri Someshwara Temple,place of worship
12.9368528,77.6203487,1.6912669513891434,Willy Vanilli,food service
12.9366057,77.6205137,1.6624171359944444,Chung wah,food service
12.93567,77.6152337,1.7041536810343425,,financial
12.9364151,77.6144033,1.8173164488930103,Safal Supermarket,grocery
12.9363015,77.6151475,1.7721194811490784,Sathyas Biriyani,food service
12.935901,77.614926,1.7413934508191702,Madan Pub,bar/club
12.9360411,77.6148636,1.7583707843797212,Red fort restaurant,food service
12.936049,77.6150661,1.7500377067066044,Corner House Icecreams,food service
12.9373691,77.6243143,1.7652105662160968,Bhojohori manna,food service
12.9368986,77.6198954,1.7012859661647861,Krishna Cafe,food service
12.9364077,77.6250803,1.6759508078945338,Imperial Hotel,food service
12.9373234,77.624368,1.7611411710325915,heritage of Bengal,food service
12.9390944,77.6229075,1.9385909881359584,The boutique,clothes
12.9369809,77.6197694,1.7119921431122256,Anand Sweets and Restaurant,food service
12.9368711,77.6248696,1.721567834640087,Ocean restaurant,food service
12.9397911,77.6222423,2.012496890842149,Aanchal,clothes
12.9189547,77.607059,1.6158832470890718,Ganesha Temple,place of worship
12.9168527,77.6034541,2.0496329530419497,Juice Burg Cafe,food service
12.9180449,77.6018824,2.185944719656014,Saibaba Temple,place of worship
12.9168632,77.6045592,1.934008960512079,,financial
12.892184,77.644283,4.094240268198769,Andhra Bank,financial
12.9348451,77.6128809,1.7464225336691106,N.E Diner,food service
12.9350385,77.6130633,1.7538310786687614,Thanco Fresh Fruitz Ice-Creams,food service
12.935577,77.6130901,1.8032466536732932,Mangoa Coastal cuisine,food service
12.9353286,77.6128207,1.7951492964136342,Baby's day out,grocery
12.9371352,77.619779,1.7288965753610062,Flambe,food service
12.9365549,77.6165979,1.7418829543649998,Aangan restaurant,food service
12.9364451,77.6170968,1.7137971754113863,Nandini Shoppe,grocery
12.9123969,77.6407671,2.310969515047364,Coffee Bean,cafe
12.9123516,77.6411691,2.3522326936744533,HDFC Bank,financial
12.912091,77.6486797,3.113188723410477,MK Ahmed,grocery
12.936869,77.6247225,1.7182286565865568,Naati oota,food service
12.9370938,77.6199696,1.7219547978754293,F square,clothes
12.9368481,77.6198784,1.6959214545703982,Sizzlers and more,food service
12.9357659,77.6217238,1.5640588455436635,Swiss Embroideries,clothes
12.9366613,77.6253726,1.7105713949542076,Indian Bank,financial
12.9372193,77.619574,1.740981145065658,4 Seasons Suites,lodging
12.936937,77.6202003,1.7020550110233352,China Bowl restaurant,food service
12.9368167,77.619975,1.6912645074104353,Shubh Jewellers,jewellery
12.9368899,77.6197711,1.7019270720514823,Malabar cafe,food service
12.9369893,77.6201144,1.7087551084530839,Desi Tadka,food service
12.9368847,77.6246206,1.7178733879377999,Chinese Cottage,food service
12.9368533,77.6201144,1.6937099493543886,Reid & Taylor,clothes
12.9377944,77.6266966,1.8697477465577166,Chalo Punjab,food service
12.9382962,77.626001,1.9033708664281361,Namdhari's fresh,grocery
12.9361835,77.6258638,1.6725176663799595,Ambrosia restaurant,food service
12.9364455,77.6255862,1.692853786794867,OM Stationery and xerox,grocery
12.9380577,77.6261445,1.8815906955627006,Kwality Walls,food service
12.9401157,77.6250336,2.079358240017821,IndusInd Bank,financial
12.9362155,77.6259241,1.6777156152952446,B52 Bar,bar/club
12.937363,77.626659,1.8226814562845475,Brown Tree Super,grocery
12.9367383,77.6259938,1.7357246369847257,Bank of Baroda,financial
12.916708,77.6519012,3.3199445027201966,Babies Planet,clothes
12.9120524,77.6379776,2.064745406558031,Jharoka,food service
12.9143549,77.6383198,1.9777809124301877,Kottayam,food service
12.9165647,77.6519145,3.3240667445239054,Lilliput,clothes
12.9164467,77.6519035,3.3251729410699156,Little Boss,clothes
12.9121865,77.6379811,2.057362475590764,McDonald's,food service
12.9120609,77.6493739,3.1850865328491067,State Bank of India,financial
12.9044398,77.649016,3.5282536982588826,,grocery
12.9362945,77.6149366,1.7806923551742504,Babys Planet,grocery
12.9255307,77.6371758,1.730483176080242,ICICI Bank,financial
12.8900232,77.6250769,3.5412647011551885,Infant Jesus Church Hongasandra,place of worship
12.9352294,77.6076048,2.143999252873996,Kairali Restaurant,food service
12.9272988,77.6375732,1.8294871997605935,Kidzee Play school,education
12.9246365,77.6384508,1.8445564871959437,Kripanidhi Cambridge Public School,education
12.9343755,77.6090481,1.9663801213682468,Little Italy,food service
12.913486,77.6374501,1.9360008414012606,Safa,grocery
12.935785,77.6076261,2.1861794443544245,Karavali Fine Dine,food service
12.8889212,77.6252612,3.6652170104414155,St Francis ICSE school,education
12.9335261,77.6152234,1.4906074948395642,Sultan of Spice,food service
12.9286689,77.6354869,1.6831773591595032,,education
12.9062634,77.6298345,1.9296524215797597,Tharavad,food service
12.9258752,77.6170606,0.6843653776831083,MAS,food service
12.936209,77.6171253,1.687788429954322,Deutsche Bank,financial
12.9364168,77.6164628,1.73207064700739,Reliance Footprint,grocery
12.933536,77.6155026,1.4775807212690486,Ammis Biriyani,food service
12.9352797,77.6157628,1.6413744493369251,Chung Wah Restaurant,food service
12.9338184,77.6192443,1.3735352860676036,Gia Garments,clothes
12.9338001,77.619424,1.3678933942902785,Mama mia,food service
12.9416947,77.621508,2.2234065684628446,Boca Grande,food service
12.9420162,77.6219426,2.259211359416125,Federal Bank,financial
12.9365946,77.6176725,1.7127549776359006,Hopcoms,grocery
12.9227705,77.6142078,0.8206745772311703,Tasty Restaurant,food service
12.9232149,77.612864,0.9723370883097868,Food City Super Market,grocery
12.9348619,77.6112385,1.851321572207566,Soch,clothes
12.9154345,77.6321713,1.331668736499641,Fooddays,grocery
12.9149827,77.605687,1.8894063144184328,Sir M. Visvesvaraya Co-Operative Bank Limited,financial
12.9134789,77.6065671,1.877669799648032,Union Bank of India,financial
12.9345459,77.6114217,1.8113946088347717,United Colors of Benetton,clothes
12.934891,77.6110462,1.866698990825972,Levi's,clothes
12.9341695,77.6110462,1.8043435044721339,Raymonds,clothes
12.9198254,77.6127816,0.9887924933174809,Sweet Revenge Cafe,food service
12.9366298,77.6132797,1.8944002740243502,Sri Sai Vijay Mess,food service
12.9367971,77.6130007,1.9253477410978541,The Look Shoppe,clothes
12.9367971,77.6131509,1.9174293255115797,463 Cross roads,clothes
12.9360965,77.614653,1.7736668311726198,Leher Casuals,clothes
12.9360233,77.6153074,1.7368367609018354,Cantabil Showroom,clothes
12.9370062,77.6120888,1.9954154030004323,Hot Chips,grocery
12.9366085,77.6181363,1.7021453390325434,Oriental Bank of Commerce,financial
12.9364753,77.621053,1.6444340323326023,Oye Amritsar,food service
12.9362348,77.6210315,1.617819049602792,Hot Chips,grocery
12.9367367,77.6206239,1.6760670847274912,Pizzeria Romano,food service
12.9363256,77.6222355,1.6273277033596574,Casa De Bengaluru,lodging
12.9375575,77.618462,1.7978539148538635,Chamundeshwari Temple,place of worship
12.9161642,77.6029009,2.128406843850573,Sri Lakshmi Venkateshwara Siddi Vinayaka Varadanjeya Swamy Temple,place of worship
12.916875,77.6024995,2.1490029128131627,Lord Shiva Temple,place of worship
12.9146789,77.6055734,1.9142496624606835,Mahalaxmi Provisional Store,grocery
12.8944566,77.636249,3.415174939193992,Temple,place of worship
12.907194,77.649038,3.3735503939626104,Sri Mariyamma Temple,place of worship
12.911884,77.6379067,2.068005816449896,IndusInd Bank,financial
12.9147654,77.6383124,1.9586337157996938,Mast Kalandar,food service
12.910865,77.637973,2.1359172392463917,,financial
12.90536,77.630729,2.063697883149132,St Marys Church,place of worship
12.9347915,77.6109681,1.8632898572167722,Ayesha,jewellery
12.9377559,77.6239822,1.8023857024772543,Corporation Bank,financial
12.9388934,77.6188923,1.9358824814314581,Just Books,education
12.9388779,77.61893,1.9335418435221838,Kiwi kiss,food service
12.9364715,77.6169229,1.7221773612632465,Janodhaya Working women's hostel,lodging
12.9386399,77.6188173,1.9093632167174235,State Bank of India,financial
12.93893,77.6189888,1.9382888137592584,Booster Juice,cafe
12.8855892,77.6424619,4.602919725554527,Indian Oil,fuel
12.9165198,77.6355672,1.609530572045639,Canara Bank,financial
12.9165149,77.6355307,1.6060328523339737,Canara Bank,financial
12.9169457,77.6340911,1.4432556599441775,Chowdeshwari Temple,place of worship
12.9184754,77.6321554,1.1885296693766112,New Sapna Store,grocery
12.9170218,77.6292559,0.970160894319381,Aranya Restaurant,food service
12.9170321,77.6289637,0.9429513583994679,,financial
12.9180673,77.6306713,1.0528767158016552,Suma Provision Store,grocery
12.9332663,77.6153051,1.4609645629136028,Ande ka funda,food service
12.9254095,77.6173387,0.6273395294642511,Federal Bank,financial
12.9324841,77.6137336,1.4776136766957195,Bhima,jewellery
12.927395,77.621901,0.6336296799114636,State Bank of India,financial
12.9262515,77.6168174,0.73222851247169,Royal Comforts,lodging
12.9090166,77.6280806,1.570751142583442,Bharat Petroleum,fuel
12.9335885,77.6107455,1.776793856434432,@home,home furnishing
12.9322408,77.6320676,1.6236604099633196,,financial
12.9345413,77.6268856,1.534503873286151,Kormangala Methodist Church,place of worship
12.9409092,77.6278297,2.236884239650368,,lodging
12.9251163,77.6337167,1.3566211600246998,Aishwrya Departmental Store,grocery
12.9252403,77.6337162,1.3604942736859493,Kanyaka Clothes,clothes
12.9168445,77.6322947,1.2688535442828426,Sri Kaveramma and Munishwara Temple,place of worship
12.9154792,77.6344183,1.5422406592029498,,financial
12.9257639,77.6290836,0.9189963526780757,Seva Sadan,place of worship
12.930445,77.5896349,3.608608904866649,,financial
12.9318149,77.5889456,3.723738803748949,,grocery
12.9284223,77.589782,3.5390366232557944,SLV Swagath,food service
12.9286469,77.5923821,3.269951843342936,Mahashakti Mari Amma Temple,place of worship
12.938682,77.6299136,2.08760486988122,Cube Multi-cuisine Restaurant,food service
12.9375545,77.6281177,1.8951803932853049,Polynation,food service
12.938785,77.6300973,2.1064943739911643,Shilton Royale,lodging
12.9375258,77.6285425,1.9096144194364102,Max,clothes
12.9386872,77.6304956,2.1157854992025786,HDFC Bank,financial
12.9376735,77.6264373,1.8488848396131359,Taste of Bihar,food service
12.9285393,77.6001599,2.4552143820915777,ICICI Bank,financial
12.9519422,77.6397478,3.8902149723969996,Barbeque Nation,food service
12.9526958,77.640104,3.9820665574170913,Tandoori Hipple,food service
12.9447798,77.6191001,2.581777728755431,Sri Srinivasa temple,place of worship
12.9525546,77.6400289,3.964401128176045,LoveShack,food service
12.9404194,77.6289278,2.224012396759723,Sri Sai Balaji PG For Girls,lodging
12.9383855,77.6310907,2.1161414216638468,CHef Inn Residency,lodging
12.9385893,77.6292121,2.0468765492955288,Jaipuri Bandhani Fashions,clothes
12.9052334,77.5799866,4.877714099006544,Frank Public School,education
12.9347018,77.583688,4.365918077423833,Malabhar Gold,jewellery
12.9322759,77.5858767,4.056610130201072,Prince jewellery,jewellery
12.9309688,77.5857909,4.025883331059518,Favourite Shop,clothes
12.9300904,77.5858231,3.9986055713829285,Khazana Jewellery,jewellery
12.9288216,77.5861538,3.9329562459388776,Reliance jewellery,jewellery
12.9285577,77.5819646,4.373418105241775,Maiyas,food service
12.9271168,77.5861609,3.8984644565781723,Kalamandir,clothes
12.9265874,77.5839026,4.132299423442002,Cafe Coffee Day,cafe
12.9287808,77.5856675,3.9836961799100052,Shanti Sagara,food service
12.9168936,77.5816496,4.373445970094979,Krishnaiya Chetty and Sons,jewellery
12.9317341,77.6228586,1.1227843521404808,Nandini Andra Style,food service
12.9285616,77.5820034,4.369353199251906,Kolhapuris,food service
12.9276361,77.5779238,4.7900642403492055,Polar Bear,food service
12.9278474,77.5782069,4.7629902365010395,Gelato Italiano,food service
12.9285276,77.5826445,4.300288162774569,Sukh Sagar,food service
12.928559,77.5823467,4.332672795902151,Union Bank of India,financial
12.9287733,77.58578,3.971579762663916,Pavitra paradise,food service
12.9277143,77.5861502,3.9104185574618304,1947,food service
12.9279957,77.5861533,3.915558479893556,McDonald's,food service
12.922039,77.620302,0.1561325407641512,Ohris,food service
12.921876,77.620493,0.1322693188884515,Silver Metro,food service
12.889924,77.638912,3.995579850033055,IDBI Bank,financial
12.9174606,77.6515807,3.2725997717986566,Dhanalaxmi Bank Atm,financial
12.9425192,77.5854098,4.563677488086772,Adigas,food service
12.933221,77.5825309,4.434106094759266,Bhima jewellers,jewellery
12.932994,77.5852313,4.1470753219263905,Reliance Fresh,grocery
12.9329962,77.5850947,4.161260690747578,Subz,food service
12.9313369,77.5862297,3.990723420668336,Awesome,clothes
12.9294525,77.5861468,3.948414954605255,Boots Bazaaar,shoes
12.9306365,77.5862902,3.964177324679603,Vasudev Adigas,food service
12.9243848,77.5858198,3.90008518017631,Beijing Bites,food service
12.9258312,77.5858477,3.9126672518429113,Kalanjali,clothes
12.9232135,77.5850336,3.9774210458288954,Namdhari's Fresh,grocery
12.91702,77.5782971,4.732708137175151,More,grocery
12.9112343,77.5784318,4.831704530598225,Jagadamba Jewellers,jewellery
12.9287644,77.5858624,3.9626304840745807,Cool joint,food service
12.928945,77.5859387,3.9585623168170043,Kalaniketan,clothes
12.9298539,77.5861419,3.9589131728574674,Raymond,clothes
12.9290329,77.5859122,3.963372848720301,Roop sangam,clothes
12.9295627,77.5861454,3.9512554760044787,Van Heusen,clothes
12.9264034,77.5858296,3.9225861562518927,Pai Vijay,lodging
12.9161449,77.6054538,1.8659731373390063,,financial
12.9055718,77.6058341,2.484586656657882,Cafe Coffee Day,cafe
12.9160306,77.6171846,0.7980652659232458,Shree Karumariyamma Temple,place of worship
12.9366448,77.612113,1.959860177327364,Kor 901 Library,education
12.9372827,77.6245142,1.759354511181398,Sumith Provision & Condiments,grocery
12.9356619,77.619186,1.5762188419080208,DHL couriers,grocery
12.9365507,77.6204895,1.6565254418597417,Olio,food service
12.9372461,77.6198029,1.7408311768052707,Sthra,clothes
12.9368121,77.6200764,1.6895763514615612,Gini & Jony,clothes
12.9374604,77.6242714,1.774495685627814,Crystal Stationeries,grocery
12.9367494,77.6200067,1.6834491852201496,Coffee Lounge,cafe
12.9166125,77.6202564,0.5869414155361323,Pizza Hut,food service
12.9215958,77.6202694,0.15547947947694046,McDonald's,food service
12.9377454,77.6188695,1.8103458528610503,New meena cotton sale,clothes
12.9346333,77.6124687,1.7518817472471386,Kota Kachori,food service
12.9373532,77.6195239,1.756461059039486,Meena Fashions,clothes
12.9370761,77.6204976,1.7147030555765188,Anubhav Play school,education
12.9361926,77.6147442,1.7791067070567972,Sports Planet,grocery
12.9330194,77.6105953,1.7414398622139424,Inn,lodging
12.9345952,77.6094985,1.950546713366356,Manchester United,bar/club
12.9340524,77.6102738,1.8493326465394881,Mom & Me,clothes
12.9339607,77.6104356,1.8300283484001918,Shiva Sagar,food service
12.9164249,77.6164112,0.8201326547803603,Kataria Home Food,food service
12.9256315,77.6152769,0.8220099361188542,Shanti Sagar,food service
12.9227715,77.6138446,0.8596558813907229,Akshaya Ladies Hostel,lodging
12.9229035,77.6134614,0.9028625851732821,Aswini Hotel,food service
12.9231702,77.6126406,0.9953633151281805,Andra Curry Point,food service
12.9245296,77.6094944,1.3597281853060295,,financial
12.9243597,77.6094434,1.3608763484461661,,financial
12.9325892,77.6101676,1.7401734636542359,Ayyappa Swami Temple,place of worship
12.9395395,77.5959949,3.4198790464123756,State Bank of India,financial
12.9429045,77.5977165,3.509303860635557,Ganesha Temple,place of worship
12.9459429,77.5956857,3.900642250450741,Jade Empress,food service
12.9459575,77.5951685,3.9424550507000844,Keys Hotel,food service
12.9467025,77.5942807,4.069303442176218,Raghavendra Swamy Temple,place of worship
12.9494002,77.5926204,4.406672157015788,Bhagini Hotel,food service
12.9231276,77.5860269,3.869464560247972,Domino's,food service
12.9218725,77.5857558,3.8956455544631945,State Bank of India,financial
12.9198472,77.5782896,4.709305754614158,Syndicate Bank,financial
12.9169431,77.5822354,4.309760298013804,Angadi Silks,clothes
12.9169333,77.5802356,4.525066091443375,Canara Bank,financial
12.9172523,77.5821549,4.3143401513073485,Nalli Silks,clothes
12.921875,77.620121,0.17223330955225447,Adigas,food service
12.9353977,77.6090855,2.046672838904902,Libra,lodging
12.9151822,77.6059587,1.8536083405355577,Ashirwad Super Market,grocery
12.8988361,77.6572424,4.615540232236007,Vibgyor School,education
12.9216098,77.6453053,2.558341051343806,Nandana Palace,food service
12.9478373,77.5970782,3.945487033977668,Hotel Mayflower,lodging
12.9139161,77.6102112,1.5164361530544956,Swadista Ahara,food service
12.8948991,77.6093817,3.265528909638411,Smart Supermarket,grocery
12.911762,77.637224,2.0129551402033314,Joy Of Learning,education
12.8946896,77.6092646,3.2919782222645115,Daily fresh supermarket,grocery
12.9491363,77.5893864,4.6444298383591605,Peninsular Gneiss National Monument,attraction
12.9055748,77.6057437,2.4911376394190485,More,grocery
12.952399,77.6400371,3.9498845227286625,Mast Kalandar,food service
12.9441664,77.5969354,3.6665747755942286,Bangalore Institute of Dental Sciences,education
12.9481696,77.5986927,3.8574423873121546,Corporation Bank,financial
12.9488718,77.5977625,3.9822658086244846,Karnataka Bank,financial
12.8896145,77.639937,4.078712327706574,National Co-operative Bank Ltd.,financial
12.8847042,77.6429877,4.716629099536286,,financial
12.9210356,77.6201026,0.18822913454692058,ICICI Bank,financial
12.9246131,77.5850005,3.990603491869302,Subway,food service
12.9236001,77.5879513,3.6637366673686733,Corporation Bank,financial
12.9087203,77.6275079,1.5745735829607355,Indian Oil,fuel
12.9168408,77.5851479,3.9981995231239016,Cable Car Restaurant,food service
12.9331034,77.585029,4.171656363958851,Chutney Chang,food service
12.9331092,77.5851373,4.160672597717065,Ameoba Bowling Alley,attraction
12.9311975,77.6228542,1.063456206843959,Utsav,food service
12.9256885,77.6250527,0.5733440132612473,State Bank of India,financial
12.9266971,77.6236359,0.593943717939416,Nilgiri's,grocery
12.9131153,77.6383089,2.0375308179282685,KFC,food service
12.9269543,77.5885571,3.6391651747864495,Bangalore Educational Society,education
12.9308154,77.5862906,3.9691672852985977,Vijaya Bank,financial
12.9282849,77.5868566,3.8465780902574838,Bangalore High School(BHS),education
12.9307984,77.5865311,3.9434871334494654,Karur Vysya Bank,financial
12.9088046,77.6497344,3.3597739814215624,Floretz Montessori,education
12.9382713,77.63156,2.130072054988892,Temple,place of worship
12.9255356,77.6012383,2.25824410029057,State Bank of India,financial
12.9223393,77.5953285,2.8589994069374955,State Bank of India,financial
12.9381356,77.6277657,1.9421890481850903,Citibank,financial
12.9347196,77.61367,1.689150432302107,Citibank,financial
12.9341965,77.6164502,1.5015162273795917,Goli Vada Pav,food service
12.9341648,77.6164835,1.4968880589776774,Jumboking Vadapav,food service
12.9363897,77.613793,1.8445561238346388,Sai Baba Temple,place of worship
12.9417658,77.6158811,2.3186213275443963,Corporation Bank,financial
12.9501262,77.6186016,3.1786345812112433,Anaga Parmeshwari temple,place of worship
12.9510012,77.6188616,3.272633246240963,,place of worship
12.9411165,77.5854351,4.48417826354039,ISPG Technologies,office
12.9395349,77.5853734,4.408184687393328,Simpli Namdhari's,grocery
12.921892,77.6618601,4.352565768698903,Anjaneya Temple,place of worship
12.934392,77.5895053,3.763754928900469,Amrutesh Darshini,food service
12.9345803,77.5893442,3.787812171122334,State Bank of India,financial
12.938312,77.5843066,4.4536523295275545,Sree Rama Vidyalaya,education
12.9376941,77.6270393,1.8702314282278514,KFC,food service
12.9000882,77.6215142,2.403206889231098,Ganesh Temple,place of worship
12.8914338,77.6080737,3.6752495898298516,Cafe Coffee Day,cafe
12.9118641,77.5867606,3.941554104366329,Adithya,food service
12.91411,77.5856235,4.0000457525927215,Corporation Bank,financial
12.9206732,77.6123589,1.0187998959164177,Pongal Veg Cafe,food service
12.9197873,77.6122951,1.041250738396906,Domino's,food service
12.9170457,77.5931523,3.136988031323895,Raghavendra Upahara,food service
12.9165024,77.6034897,2.056517102300936,ICICI Bank,financial
12.9365165,77.6274121,1.7599853903897185,Great Indian Thali,food service
12.9179899,77.5920869,3.2358702403961757,Jain Animation School,education
12.9156658,77.5902764,3.4711687054369262,Jumbo Kids,education
12.915569,77.5902817,3.472702770249475,Podar Happy Kids,education
12.9166803,77.5898443,3.49735433502074,Pai Princess,food service
12.9456792,77.5960812,3.8494090993235632,Canara Bank,financial
12.9632602,77.6383855,4.962446851307641,Amma Bagavan Manava Seva Samiti,place of worship
12.9348525,77.6157906,1.5965720227165607,Hotel Empire,food service
12.9340146,77.6163371,1.4875642429111648,Khawa Karpo,food service
12.943062,77.6175679,2.4171897262154487,Manasa Veg,food service
12.9417545,77.6215457,2.2300213545892964,Sagar Fast Food,food service
12.943452,77.6178697,2.4540744132716004,HDFC Bank,financial
12.9434676,77.6178331,2.4564576508817964,ICICI Bank,financial
12.9173594,77.5931667,3.129878352167322,Corner House,food service
12.9170404,77.5934403,3.106304819502307,UpSouth,food service
12.9063265,77.5960973,3.2591733729843755,Chaithanya Restaurant,food service
12.9168415,77.6201032,0.5672830916144657,St. Mira's School,education
12.9334671,77.5833269,4.359721166479243,The Guha,food service
12.9306129,77.5862225,3.970624993044882,Luois Phillepe,clothes
12.9294468,77.5856396,4.00193947009584,Reliance Trends,clothes
12.9291985,77.5861975,3.9369766808040096,Allen Solly,clothes
12.9294521,77.5850281,4.06680865082925,Pin Ball,clothes
12.942312,77.60802,2.7296578894988466,Manokamana Cermanic,mall
12.959713,77.601745,4.747932526975977,Guru Tour And Travel,office
12.9219463,77.5934768,3.058925823836357,Tahini Garden,food service
12.9218974,77.5934723,3.0593699661778664,Cafe Coffee Day,cafe
12.9220228,77.59341,3.066252562891597,Corporation Bank,financial
12.9230467,77.593202,3.092206978658324,Eeshanya,food service
12.9214393,77.5933817,3.069250079236642,State Bank of India,financial
12.9169487,77.6194004,0.5841562782373806,Alliance Business School Admin Office,education
12.960466,77.6017789,4.820976137206151,Foodworld,grocery
12.9616509,77.6016472,4.945387382313725,Godrej Nature's Basket,grocery
12.9596191,77.6026157,4.6963286283914,Namdharis,grocery
12.9622638,77.6040957,4.897360969840703,Richmond Supermarket,grocery
12.958286,77.605196,4.443985403490091,Y! Cafe,food service
12.9595198,77.6028679,4.674420747889001,,financial
12.9583088,77.6022126,4.585924674405653,Neelam Stores,grocery
12.9560897,77.6055497,4.205471565045759,Confident Propos,lodging
12.9066302,77.592944,3.5385569747174075,Emilion HHI Select,lodging
12.9064987,77.5930188,3.5383811284349473,The Onyx,food service
12.9065766,77.5907568,3.7516952227549027,Hindustan Petroleum,fuel
12.902875,77.6242515,2.111432380725941,,financial
12.9055194,77.6273464,1.9004294344501842,Bommanahalli Mosque,place of worship
12.8997257,77.6203217,2.4479929512080503,Block J,residential
12.8993989,77.6202867,2.4844957206653637,Block H,residential
12.8990015,77.620858,2.5256073461322703,Block E,residential
12.8999008,77.6213408,2.4242730658129963,Block A,residential
12.8990196,77.6202438,2.5268792215775666,Block G,residential
12.8993229,77.6212684,2.4886596719153187,Block C,residential
12.8989988,77.6211264,2.5250237227710914,Block D,residential
12.8996079,77.621306,2.4569005783264135,Block B,residential
12.8997806,77.6206166,2.440152980941141,Block K,residential
12.8998381,77.6208904,2.4325155301574872,Block L,residential
12.8990041,77.6205201,2.526906958745256,Block F,residential
12.897393,77.6209332,2.7040925454494946,Muneeshwara Swamy Temple,place of worship
12.9029172,77.6242687,2.1070259692886357,Mega Mart,clothes
12.8931908,77.6199692,3.1756240801381606,PK Home Needs,grocery
12.892272,77.6104915,3.4904749620096416,Euro Kids,education
12.8926145,77.6107222,3.446083894706067,Little Millenium,education
12.8923796,77.6112261,3.45226658419061,Vijaya Bank,financial
12.8945443,77.6203167,3.0232959376362443,Adda,food service
12.9569217,77.6416898,4.4756818959744376,HDFC Bank,financial
12.9410968,77.5853528,4.490945380802462,Andhra Bank,financial
12.8915522,77.6045379,3.833779103904242,HDFC Bank,financial
12.8927015,77.6192826,3.2351136220203602,Rayen Kids,education
12.9171903,77.585952,3.9066873478099455,Standard Chartered,financial
12.9255152,77.6370763,1.71960741747725,Barbeque Nation,food service
12.8960869,77.5860483,4.800272342641593,Magadha,food service
12.8831879,77.6102566,4.458353775158749,Pearl City Super Market,grocery
12.92545,77.5768905,4.874245011450787,Jalpaan,food service
12.9164567,77.5859615,3.9169806170168977,State Bank of India,financial
12.937055,77.5784773,4.985760462807175,Citibank,financial
12.9222964,77.6194432,0.2534205784931785,Anjaneya Temple,place of worship
12.8953157,77.5863222,4.828035991990723,Ten Ten Nimma Supermarket,grocery
12.933447,77.6219099,1.3064048741492347,Chianti,food service
12.8967177,77.5858102,4.779964951335573,Indian Overseas Bank ATM,financial
12.8967847,77.5858129,4.77540036935772,Indicash ATM,financial
12.9247295,77.5773618,4.817097716474877,Food World,grocery
12.9274299,77.5782051,4.7567468368941395,Sufiyan Dry Fruits,grocery
12.9259569,77.5768459,4.88419605191854,ICICI Bank,financial
12.9313893,77.623888,1.1031876589494307,Login Serviced Apartments,lodging
12.9306091,77.5853075,4.0666238105232155,The Royal Comfort,lodging
12.9118559,77.6516888,3.4295959809315404,State Bank of India,financial
12.9097644,77.6491755,3.2602051816917235,HDFC Bank,financial
12.8843474,77.596172,4.990658774428492,Featherlite,home furnishing
12.884425,77.5962042,4.981542776718806,Bata,shoes
12.885152,77.595731,4.943506502759866,Euro Kids,education
12.8846171,77.5961943,4.964381178178742,Aishwarya Parkland,food service
12.8844132,77.596128,4.987219886086022,State Bank of India,financial
12.8894502,77.5940375,4.674278607878518,Arekere MICO Layout Bus Station,transportation
12.9347958,77.6298075,1.7007419918958,HDFC Bank,financial
12.9347383,77.6298155,1.6957204614943793,HDFC Bank,financial
12.9299126,77.621549,0.9133460768876184,Bank of Baroda,financial
12.9355043,77.6314571,1.8639471146032032,Supriya Stores,grocery
12.9334024,77.6298023,1.5698100188306459,Food Mall,grocery
12.9274214,77.5771125,4.873995869485203,Venezia,food service
12.9372585,77.6301293,1.9564075462452146,Taxila Mansions,residential
12.9339929,77.6069283,2.1050727691112034,Christ University Block I,education
12.935551,77.6058881,2.304046353338014,Christ Junior College,education
12.9055105,77.595119,3.397112461782494,Pizza Stop,food service
12.9056098,77.595119,3.3912737334005314,Gelato,food service
12.9063288,77.5965004,3.2219220916035716,Daily Bread,cafe
12.9064308,77.5968652,3.1824092193683136,Barbeque Nation,food service
12.9061118,77.5967632,3.2107757214897825,Au Bon Pain,food service
12.9061458,77.5968786,3.198208385139913,Domino's,food service
12.9117616,77.5990109,2.695975686359969,MTR 1924,food service
12.9114243,77.5990217,2.7105055244761433,Park View,food service
12.900724,77.5869656,4.428625599426001,Royal Supermarket,grocery
12.9004538,77.5859289,4.5400906901347575,Grills and Rolls,food service
12.9437857,77.6236824,2.465197307821687,Canara Bank,financial
12.9422696,77.6253883,2.321899927087255,State Bank of India,financial
12.8985271,77.6448289,3.594927251278678,HDFC Bank,financial
12.8972303,77.6459233,3.781032000671343,Canara Bank,financial
12.9043833,77.6455159,3.2203162647051693,,financial
12.9051894,77.6396903,2.678128767950666,HDFC Bank ATM,financial
12.9056019,77.6444964,3.0510189793614,Veg Sagar,food service
12.9063471,77.6445546,3.0083421532451884,Grand Supermarket,grocery
12.9235295,77.6496838,3.0396626735792207,Masjid-E-Noorani,place of worship
12.9240986,77.6497423,3.0508649440082967,Sun Temple,place of worship
12.9237273,77.6497262,3.045795270264304,Hanuman Temple,place of worship
12.9034741,77.6255722,2.069625925913925,,financial
12.9034741,77.6256178,2.070633779383857,,financial
12.8980692,77.6178984,2.659734022165742,Udaya General Stores,grocery
12.8982417,77.6178957,2.6408317811258217,,food service
12.9037635,77.626806,2.069801310168226,Vardhman Textiles,clothes
12.9031858,77.6245476,2.081691122847052,Sri Krishna Upahara,food service
12.9444702,77.5847747,4.73546819284728,Horticulture Training Center,education
12.9458279,77.585024,4.795450629765529,,attraction
12.9480567,77.5879713,4.685120204571596,Pigeon Hole,attraction
12.91201,77.6323154,1.5762719404360725,Allahabad Bank,financial
12.9189584,77.6426733,2.293431010841985,,financial
12.9038463,77.6271871,2.072404175075788,,financial
12.8999647,77.6214378,2.417022159120269,Rayen Kids,education
12.8994582,77.6221231,2.4736004217708407,,grocery
12.9112592,77.6259903,1.2506205323946897,,food service
12.9027884,77.6240135,2.1177704702380686,,shoes
12.9003958,77.622738,2.3715888738640425,,financial
12.9143397,77.6234849,0.8409796765322983,July Systems,office
12.8997405,77.6207679,2.443873956026295,Royal Home Needs,grocery
12.8985404,77.6216903,2.5752302377167244,,financial
12.9126193,77.6329409,1.5823421426825293,Syndicate Bank,financial
12.8965036,77.634968,3.1492167798455384,Gogas Auto Lpg,fuel
12.9062783,77.6274095,1.8230510171189178,,financial
12.9062993,77.627329,1.817908162562607,,financial
12.90295,77.6242795,2.1035660565708563,,financial
12.933237,77.612127,1.6498796071494521,Big Bazaar,grocery
12.8979208,77.6108339,2.894549157661251,,place of worship
12.8978553,77.6147901,2.755151717309487,,place of worship
12.892932,77.6117539,3.3756163649549404,HDFC Bank,financial
12.9290137,77.6276776,1.03974172048279,Grand Mercure,lodging
12.9322822,77.5981308,2.81235099431811,New Baldwin School,education
12.9441545,77.5991339,3.494999349581447,Prince of Peace Disciples Church,place of worship
12.9303605,77.6228604,0.9711806531653152,Cafe Coffee Day,cafe
12.8912734,77.5941509,4.512468767416008,,financial
12.9305918,77.6229717,0.9982827810915489,Sagar Fast Food,food service
12.9308637,77.623075,1.029795990456756,Food Triangle,grocery
12.9311839,77.6234063,1.0706525484023373,State Bank of India,financial
12.9306861,77.6230253,1.0094792232740908,Syndicate Bank,financial
12.8985744,77.6217071,2.5714495107550306,Ammi's Biryani,food service
12.9167048,77.6069253,1.6948825339558142,Corporation Bank,financial
12.8811014,77.638685,4.875304669690467,State Bank of India,financial
12.8858419,77.6416685,4.536779434736585,ICICI Bank ATM;Axis Bank Atm,financial
12.8900044,77.6398044,4.033831876207553,Ekaa,lodging
12.8899711,77.6398117,4.0374521381065325,Melange,food service
12.8966122,77.6357401,3.1776926474204132,Domino's,food service
12.927382,77.5764857,4.940792124146514,Dosa Corner,food service
12.9318708,77.5837602,4.264493505706651,Bhavani Kangan Stores,jewellery
12.9306281,77.5857408,4.021615806978671,W,clothes
12.9263326,77.5870601,3.7893816141944923,ibaco,food service
12.9237751,77.5969146,2.696099826192506,Chefmaster,food service
12.9302771,77.5831394,4.286537302721665,New Shanthi Sagar,food service
12.9306647,77.584134,4.191553149463761,Goli Vada Pav,food service
12.9351849,77.6135299,1.7413698429046542,Starbucks,cafe
12.9228822,77.5849781,3.9820470460724633,Corner House,food service
12.9327614,77.5849863,4.164678713828859,PC Jeweler,jewellery
12.9198922,77.5900138,3.440012246489441,Ace Iyengar,food service
12.9218455,77.5854901,3.9244282087550273,Adyar Ananda Bhavan,food service
12.9218091,77.5893861,3.5021713155416663,Cafe Coffee Day,cafe
12.9302745,77.5878322,3.7923089771421696,Big Bazar,grocery
12.9076665,77.596728,3.124141462230324,Ekya School,education
12.9204407,77.5835732,4.134530199377273,Indian Overseas Bank,financial
12.9210453,77.5835608,4.134138220491717,Athithyam,food service
12.9200207,77.5811039,4.4037438377678075,State Bank of India,financial
12.9200199,77.5810595,4.408555338119919,ICICI Bank,financial
12.921123,77.5812781,4.381363580342109,Euro Kids,education
12.9250286,77.6143616,0.8772293438176884,New Surya Sweets,food service
12.9219827,77.6200068,0.18618029500988606,KFC,food service
12.9308439,77.6226408,1.021854882835114,Ambur Biriyani,food service
12.924596,77.6184995,0.473299820241139,State Bank of India,financial
12.9122652,77.5937771,3.2029987705168015,,place of worship
12.8914778,77.6197053,3.367502498799424,Rayen Kids,education
12.9003488,77.6271298,2.4459966384078498,Sri Ram Driving School,education
12.9249951,77.5882111,3.6479197907881,Ample Mart Supermarket,grocery
12.9245669,77.5882045,3.6441611013950954,Canara Bank,financial
12.9245755,77.588035,3.6625444776380163,ICICI Bank,financial
12.9246342,77.5880408,3.662493546187457,Canara Bank,financial
12.9378451,77.5852156,4.3424870686490324,Cafe Coffee Day,cafe
12.9409838,77.5850433,4.514413772865272,Cuppa,cafe
12.913749,77.6146127,1.1711838623924602,Srinivasa Shelter,residential
12.9249779,77.6194667,0.4375317017621285,FabIndia,clothes
12.9344918,77.6160061,1.5504730481026217,Black Pearl,food service
12.8911903,77.5981332,4.246609022132373,Guru Garden Restaurant,food service
12.9017134,77.5824365,4.800883978606325,Just Books CLC,education
12.8947594,77.6150069,3.082242284763741,New Arvind Memorial School,education
12.9104004,77.5947964,3.1750416625644884,Indian Oil Corporation,fuel
12.8985525,77.6218042,2.573909341322008,,financial
12.9117776,77.6006489,2.5343166590387414,Udupi Krishna Vihar,food service
12.9171114,77.6337407,1.401173023100721,Manjunatha Refreshments,food service
12.91519,77.6355368,1.6652083640261905,Empire hotel,food service
12.914592,77.6367272,1.810308084599341,Star Biryani,food service
12.9165146,77.6355216,1.6051243593205604,Swathi Spice and Ice,food service
12.9619603,77.6420069,4.988400610848482,,bar/club
12.8914338,77.62642,3.404108381506803,Galaxy Paradise,cinema
12.9219037,77.6203113,0.152200825037825,Total Mall,grocery
12.9099094,77.5998609,2.7057999581558,Yes Bank,financial
12.9088379,77.5999309,2.7590084843933056,Axis Bank,financial
12.8924249,77.5985953,4.107028997449012,Ammis Biriyani,food service
12.8910556,77.5950031,4.470321689672961,Vijaya Bank,financial
12.8908414,77.5982928,4.267360200292636,Corporation Bank,financial
12.8923478,77.5981069,4.146263783624246,Just Books,education
12.9297035,77.5859202,3.978532510304959,South Indian Bank,financial
12.93021,77.5850977,4.078158164035856,South Indian Bank,financial
12.9164737,77.596929,2.746864238839137,Denny's,food service
12.9156738,77.5967485,2.786036241840461,Ganesha Temple,place of worship
12.9165607,77.5972018,2.715922139389167,HDFC Bank,financial
12.9162927,77.5966944,2.77601044568851,Indian Overseas Bank,financial
12.9162385,77.5970407,2.74071075822757,Kabab Magic,food service
12.9166518,77.5967457,2.7621903911601753,Ujjivan Small Finance Bank,financial
12.9158974,77.5967626,2.778673432241461,The Pongal,food service
12.9166472,77.5972012,2.7139777747919913,HDFC Bank,financial
12.9136778,77.5856582,4.006797521148255,Liberty Exclusive Showroom,shoes
12.9136768,77.5859029,3.98097161923404,Shanthi Sagar,food service
12.9123213,77.5855908,4.050121381949821,Siddhas Veg,food service
12.9147454,77.5859258,3.953596381080517,Foodworld,grocery
12.9145899,77.5857184,3.9790433964288345,ICICI Bank,financial
12.9156187,77.5859244,3.9358976085647073,Indian Overseas Bank,financial
12.9152396,77.585919,3.9439369278493714,KFC,food service
12.9151486,77.5857021,3.9688992276541692,State Bank of India,financial
12.8925844,77.6116519,3.415775072081855,Andhra Bank,financial
12.9338837,77.6072471,2.07095497912972,Hot n Cool,food service
12.8957721,77.5994431,3.759150322441258,Axis Bank,financial
12.8923303,77.5985791,4.11644037536165,World of Titan,watches
12.8923687,77.597989,4.152331303691931,Axis Bank,financial
12.8922835,77.5982384,4.14313145811444,Bejing Bites,food service
12.8924256,77.5977824,4.161276027510007,Corporation Bank,financial
12.8920786,77.5983413,4.154337031787895,Five Star Chicken,food service
12.8921315,77.5981942,4.159421152274061,Goli Vada Pav,food service
12.8923153,77.5981397,4.1469191148167655,Juice Junction,food service
12.915303,77.6448585,2.6087760695317135,King Ambur Hot Biriyani,food service
12.9245786,77.5866621,3.8108202416912462,Pattabhirama Temple,place of worship
12.9287313,77.589322,3.5950945225652893,,place of worship
12.9290557,77.5913715,3.3871633077569863,Inox,cinema
12.9271848,77.5910268,3.3797790493908333,Axis Bank,financial
12.9270197,77.5903523,3.4485098536070984,Andhra Bank,financial
12.9288646,77.5913626,3.383033623645186,DMart,grocery
12.9287251,77.5912567,3.390582705853059,Cafe Coffee Day,cafe
12.9287251,77.5911273,3.40423102699095,,financial
12.9310772,77.5888627,3.7084153939370905,Sri Lakshmi Venkateshwara Temple,place of worship
12.9055717,77.5855866,4.30536006638762,Yes Bank,financial
12.9363204,77.6222034,1.6266294623798425,Black Pepper Lounge,food service
12.9049455,77.5856013,4.3333924768531995,Bank of Maharashtra,financial
12.9059571,77.58558,4.288336392282155,Linen Club - The Ramp,clothes
12.9386176,77.6288681,2.0352443638696927,Mark & Spencer,grocery
12.9060964,77.5855631,4.283710462832925,McDonald's,food service
12.9520131,77.6398096,3.900397370551742,Punjab National Bank,financial
12.9104179,77.5950737,3.146686956406278,State Bank of India,financial
12.9205278,77.6131342,0.9374612973116611,,financial
12.9020984,77.5859455,4.446095344470823,Allahabad Bank,financial
12.956002,77.6416096,4.382188794652134,Paramount,food service
12.903812,77.5858613,4.363961778720839,IDBI Bank,financial
12.9061288,77.593146,3.5461775218240894,Pizza Hut,food service
12.9145163,77.5987874,2.608593249791614,St. Marks School,education
12.9009848,77.5859587,4.506868360834681,Yes Bank,financial
12.9165191,77.5987455,2.553643682393795,Axis Bank,financial
12.8885816,77.5970487,4.549766746142738,Athithi Andhra Style Restaurant,food service
12.8897004,77.5974903,4.421094778891763,Bengaliana,food service
12.8884874,77.5970745,4.556610786249178,Canara Bank,financial
12.890105,77.5976831,4.372493581875892,Domino's,food service
12.8897164,77.5975027,4.418865177224879,Dadi's Dum Biryani,food service
12.8896402,77.597468,4.427917389313007,Liberty Exclusive Showroom,shoes
12.8895058,77.5974312,4.442319036201181,Pizza Hut,food service
12.890143,77.5976943,4.368376023277716,Zanghs Dynasty,food service
12.8852127,77.5968148,4.871955937570935,Axis Bank,financial
12.8900746,77.5976753,4.375713199065952,,financial
12.8922596,77.5983606,4.137118214172897,Sufiyan,food service
12.892252,77.5983398,4.13916559833969,Hot Burg,food service
12.90602,77.5937277,3.49730896636458,Starbucks,cafe
12.8971318,77.5858778,4.747356221412203,The Big Market,grocery
12.9166304,77.6147547,0.9404148633695254,State Bank of India,financial
12.9165155,77.6162625,0.8244002975166085,,financial
12.9166044,77.6148886,0.9305971841532059,,financial
12.9061196,77.5926081,3.59766024818275,Wangs Kitchen,food service
12.9234752,77.5852645,3.9537628327053547,Eden Park Restaurant,food service
12.9179404,77.5860042,3.891228814011419,State Bank of India,financial
12.904523,77.5803913,4.867543802719968,Axis Bank,financial
12.922847,77.6513827,3.2195038712967854,Titan Watches,watches
12.9184097,77.6518532,3.288414086963277,Liberty Exclusive Showroom,shoes
12.9199598,77.6513855,3.223112406603233,HDFC Bank,financial
12.9182008,77.6518755,3.293480723341694,United Colors of Benetton,clothes
12.9048841,77.6016207,2.86921136019921,KFC,food service
12.9025994,77.601482,3.0516666631478566,State Bank of India,financial
12.9230428,77.6144646,0.7982526858556686,,financial
12.9140657,77.5949385,3.0221061163961855,ICICI Bank,financial
12.9215034,77.5950833,2.8847776875288553,HDFC Bank,financial
12.9368412,77.5837992,4.4391881633677865,Malabar Gold,jewellery
12.9394185,77.5839616,4.539720978079092,Goli Vada Pav,food service
12.9394558,77.5839638,4.5413075417520625,Karnataka Bhel House,food service
12.9321815,77.6337015,1.7464666681982373,Bethany Special School,education
12.9245905,77.5867571,3.8006723502738486,Uttara Karnataka Speciality Food Stores,grocery
12.9353301,77.6091895,2.0335530966072524,Stellar,home furnishing
12.9159911,77.6513702,3.277724804951677,Lou Han,food service
12.9160016,77.6519298,3.337024840668372,Napoli,food service
12.9168988,77.6515537,3.2792966639688546,Greasy Spoon,food service
12.914298,77.6516858,3.352486818533431,Shubh Sweets,food service
12.912101,77.6485607,3.1006949175218037,Just momo,food service
12.9124615,77.6517484,3.4148568296681323,Wang's Kitchen,food service
12.9159874,77.6515544,3.297392001767098,HDFC Bank,financial
12.9137923,77.6374114,1.9164388379883979,Adyar Ananda Bhavan,food service
12.9122107,77.6377107,2.030883402110505,Pizza Hut,food service
12.9122576,77.6375965,2.0175992610137143,Calvins,food service
12.9135892,77.6383047,2.0129730984263743,Krispy Kreme,food service
12.9169799,77.6338738,1.4199575312241655,ICICI Bank,financial
12.9180396,77.631926,1.1806677240706436,HDFC Bank,financial
12.9180092,77.6319312,1.1823658857439616,Axis Bank,financial
12.9327941,77.602333,2.4346046837823967,"Red Hat India Pvt. Ltd, IBC Knowledge Park",office
12.9240664,77.6388883,1.8813357278834522,DCB Bank,financial
12.9382385,77.6328181,2.1985828367802687,Axis Bank,financial
12.9239285,77.6513686,3.2249756492139867,,place of worship
12.9226172,77.5932227,3.088022821791002,Taaza Tindi,food service
12.9045002,77.5888265,4.043784201494542,Nammoora,food service
12.9341751,77.6170762,1.4749056022485296,California Burritos,food service
12.9020523,77.631261,2.418024428738781,The Oxford College of Engineering,education
12.90648,77.5901751,3.8129139590847916,Canara Bank,financial
12.9058455,77.5858943,4.262380239871997,Citi Union Bank,financial
12.9001563,77.585937,4.556647061884022,Funky Punjab,food service
12.9043815,77.5858999,4.331713203961509,Vasantha Grand,food service
12.9058961,77.5802982,4.8190658470419026,Vinaya Cafe,food service
12.914181,77.5949195,3.0205079777333443,Andhra Bank,financial
12.9156159,77.5951971,2.950988767343562,Kunchum Foods,grocery
12.9160519,77.5951937,2.940610641084276,US Pizza,food service
12.9100858,77.5920685,3.4614464933524847,ING,financial
12.9044659,77.5802459,4.884530643705103,Karavali Garden Restaurant,food service
12.9168242,77.6037973,2.014620446072011,Citibank,financial
12.9168242,77.6038323,2.010967342243976,,financial
12.9168388,77.6033703,2.0588022462069824,Karur Vysya Bank,financial
12.9168388,77.6034052,2.0551527152660265,State Bank of India,financial
12.9167733,77.6110998,1.2727806680848308,Good To Excellence,education
12.9127356,77.6380054,2.028936666794399,HSR Layout,transportation
12.9110059,77.6444953,2.7418658319568703,Nandini Cool Joint,food service
12.9614307,77.6017099,4.92040971541222,Domino's,food service
12.9302178,77.5890874,3.6591665589963025,provision store,grocery
12.953121,77.652908,4.862664369224392,Status,food service
12.9531464,77.652966,4.869065988662764,Status,lodging
12.9530588,77.652888,4.856188826303467,Udipi Park,food service
12.9533697,77.6525624,4.856702508493806,Top in Town,grocery
12.9582479,77.6146254,4.135628013589241,Kavya Sagar,food service
12.9098297,77.5811845,4.585222824271849,The Oxford Secondary School,education
12.9099238,77.5813562,4.564390941960433,Bank of Baroda,financial
12.9099264,77.5810745,4.593564604837792,Bank of Baroda,financial
12.9092617,77.5817945,4.540790508204174,HDFC Bank,financial
12.9105018,77.5816131,4.519592609044764,Sri Upahara,food service
12.9104906,77.5815408,4.527468639839714,State Bank of India,financial
12.9466123,77.6218766,2.7701874852961565,Syndicate Bank,financial
12.9460609,77.5949139,3.970458201355467,Lakshmi Venkateshwara Temple,place of worship
12.9460933,77.5950233,3.964262168689874,Aegis Autogas,fuel
12.9078405,77.6005127,2.765521978071905,Maramma Temple,place of worship
12.9096963,77.5808492,4.624297602945376,The Oxford College of Hotel Management,education
12.9098009,77.5808465,4.621233360551809,The Oxford Pre-University College,education
12.9095133,77.5812489,4.588807654374556,The Oxford English School,education
12.9098297,77.5812542,4.577988896579943,The Oxford Senior Secondary School,education
12.9095343,77.5808465,4.629810374328684,The Oxford Evening Polytechnic,education
12.9098532,77.5808465,4.619571224706598,The Oxford Polytechnic,education
12.910501,77.5818478,4.4951700254390135,Hot N Cool,grocery
12.9100822,77.5815125,4.543124544356432,The Oxford Primary School,education
12.910505,77.5820811,4.470755805728478,H.S.M Iyengar,cafe
12.9107057,77.5835123,4.315613734738885,Indian Bank,financial
12.9106315,77.584622,4.202816780313483,Vasudeva's House,food service
12.9106137,77.5805904,4.622911009316214,Spicy Tree,food service
12.9109471,77.5793168,4.746613231659807,Canara Bank,financial
12.9109649,77.5792295,4.7552730310432265,Zuari Furniture,home furnishing
12.9110032,77.5788747,4.791445904763376,State Bank of India,financial
12.911014,77.5788106,4.797878352522113,Western Union,financial
12.9110226,77.578561,4.823856742116561,Rolls of heaven,food service
12.9108461,77.5782827,4.857937313646196,Sri Devi,food service
12.9110549,77.5781943,4.861511430861011,Kotak Bank,financial
12.9110743,77.5780397,4.877241441747949,Sunrise Restaurant,food service
12.9110743,77.5780949,4.871437208229599,Nayana Fabco,clothes
12.9403442,77.6024598,2.9403729487134767,Safal Fresh,grocery
12.9426929,77.6026966,3.112949051013411,HDFC ATM,financial
12.9424288,77.6015084,3.178238866306274,State Bank of India,financial
12.9107273,77.5829611,4.372268284792374,Nishara Public School,education
12.9365182,77.583828,4.422797081943953,V V Silks and Sarees,clothes
12.9263525,77.5970518,2.7209575461947777,Branded Sale,home furnishing
12.9102709,77.5993958,2.731067471852492,Laguna Clothing,clothes
12.9256581,77.6006309,2.3254605755060163,Swathi hotel,lodging
12.9296663,77.6009087,2.4211675049543833,Your kids r our kids,education
12.9115865,77.6002227,2.5851534946004184,Hotel Aradhana,food service
12.9123494,77.6004812,2.523837813682823,Shoppers Stop,grocery
12.9109162,77.600202,2.6204341842385155,New Kabab Zone,food service
12.9109842,77.6001833,2.6187871551000956,Brahmashree Juice and Condiments,food service
12.9416428,77.5842724,4.622801336874878,Sagar Vajra,jewellery
12.940504,77.5840047,4.589225789426367,Arnav,jewellery
12.9387218,77.584117,4.491366784147692,Community English Higher Primary School,education
12.937957,77.5840951,4.458371286352393,Sri Kodanda Rama Swamy Sannidhi,place of worship
12.9392065,77.5827357,4.649854555564865,Canara Bank,financial
12.9388406,77.5832721,4.580048594637016,Kidzee,education
12.9381478,77.5828269,4.5927531087939375,BOI (Bank of India),financial
12.9284692,77.5839834,4.156359131402454,Karnataka Bank,financial
12.9300273,77.5842892,4.15887061150395,Canara Bank,financial
12.9110992,77.6001886,2.6124806015145,Kebab,food service
12.9112404,77.6001886,2.6054334986467698,Sri Nanjundeshwara bar and restaurant,bar/club
12.9113058,77.6001591,2.6050600659301164,Shri Lakshmi Darshini,food service
12.9112273,77.6001377,2.611020515021978,Kebab,food service
12.9113345,77.6001135,2.6080781101332025,Prasanna bar and restaurant,food service
12.9110469,77.6001538,2.6184730264182567,Kebab,food service
12.9115035,77.6322824,1.6127487688289894,Vasudev Adigas,food service
12.9099986,77.5928725,3.384472227136748,Punjab National Bank,financial
12.9101446,77.5904634,3.6211044359097393,Karur Vysya Bank,financial
12.9161526,77.6001688,2.4137081099406203,Amaan Restaurant,food service
12.9165473,77.6001273,2.407233171063115,Ambur Chicken Biriyani and Chinese food,food service
12.9311572,77.6070088,1.9081174155421297,Ande Ka Funda,food service
12.9103456,77.6097988,1.8049384298753806,Holy Smoke,food service
12.9102961,77.6063748,2.0896851565244035,Aahar Bhavan - Veg Hotel,lodging
12.9548463,77.6521789,4.949198577148,Eat Well,food service
12.9164284,77.6515856,3.291622115034101,W,clothes
12.9436693,77.62521,2.472313956674656,,grocery
12.9440787,77.6247551,2.510328154820388,Nami Designer,clothes
12.9423718,77.6251542,2.3288827276381823,State Bank of India,financial
12.95904,77.6382864,4.524401434996609,Annapurna,food service
12.9604494,77.636423,4.594666939576679,Ceekay,grocery
12.9598751,77.6384088,4.61495238820447,Corporation Bank,financial
12.9577287,77.6381793,4.386238064990157,313,residential
12.9593929,77.6383584,4.563519594394075,Axis Bank ATM,financial
12.9594282,77.6383636,4.567347579664832,ICICI Bank,financial
12.9564333,77.6379839,4.2462381429262255,Top In Town,grocery
12.9603801,77.6367912,4.601471811762688,Sri Kanaka,grocery
12.9603147,77.6371987,4.610578817430141,Kerela Pavilion,food service
12.9593777,77.638355,4.561821577261155,ICICI Bank,financial
12.9569077,77.638123,4.30048971514093,Landsowne,residential
12.9593491,77.6383498,4.55867804708123,HDFC Bank,financial
12.9561948,77.6376138,4.2055255045109,Bangalore Montessori High School,education
12.958603,77.6383092,4.480842855858628,305,residential
12.9592176,77.6385092,4.552139015527797,Under The Tree,food service
12.9552332,77.6374003,4.098580898208951,K.R.L.S. Patel Rama Reddy English High School,education
12.9591069,77.6383016,4.531882670437957,Tamarind House,food service
12.9596492,77.6383775,4.590522111741957,Axis Bank,financial
12.9577479,77.6382507,4.391342832536682,Canara Bank,financial
12.9399696,77.6212817,2.0319925829729653,279,residential
12.9397604,77.6212358,2.0088548805116324,275/A,residential
12.9408979,77.6221327,2.135224085881236,326,residential
12.9419581,77.6227858,2.25566940980677,Eye Level Learning Center,education
12.941634,77.6229948,2.22099695747367,#314,residential
12.9482932,77.6213652,2.957251517372284,SLV Stores,grocery
12.9617214,77.6366258,4.735021270567809,State Bank of India,financial
12.9252297,77.6190939,0.48354865526868146,Fabindia,clothes
12.9320659,77.6182289,1.2124706670551135,,food service
12.9319665,77.6179178,1.2129433354526162,Food Basics,grocery
12.9548274,77.6415855,4.2676751977323235,Mast Kalandar,food service
12.9553777,77.6418351,4.33415568804951,Klay prep school and daycare,education
12.9582235,77.6415281,4.5946586733039005,Ambur Biriyani,food service
12.95771,77.6416441,4.550226437408607,Chef Inn Regency,food service
12.9579315,77.6415049,4.564802501066032,Kolkatta Kati Roll,food service
12.9580508,77.641507,4.576621028692866,Shabari Tea Stall,cafe
12.9606563,77.6383304,4.691704444105622,Lakshmi Silk Palace,clothes
12.9606532,77.6383744,4.693220054681578,Lakshmi Golds Palace,jewellery
12.9254221,77.6194529,0.4802142407847532,Sanjeevanam,food service
12.9175165,77.5780372,4.754983524905691,ICICI Bank,financial
12.9417768,77.6215095,2.232533764543227,Juice Maker,cafe
12.9371896,77.6176798,1.7766171723846924,Dyu Art Cafe,cafe
12.9360891,77.6159498,1.71707349659556,Juicy,cafe
12.9359584,77.6162475,1.6920034023439785,Momoz,food service
12.9346905,77.6159203,1.574442958973845,Chai Point,cafe
12.9344396,77.6160195,1.5445705386105757,California Pizza Kitchen,food service
12.934947,77.6139133,1.6976107133923897,Inmark,clothes
12.9187187,77.6491667,2.99523535105255,Sharekhan Restaurant,food service
12.9051816,77.6015721,2.8517899563079814,Tanishq,jewellery
12.935925,77.6061828,2.3086824196469533,South Indian Bank,financial
12.9374554,77.6195629,1.7671640079266095,Vasthraa,clothes
12.8876178,77.6030677,4.294260917124631,Anjaneya Temple,place of worship
12.8865458,77.6063814,4.246968424128288,Family Food House,grocery
12.9344183,77.626046,1.4905822614128914,Mango Hotels,lodging
12.919533,77.6128458,0.9894043870233097,Gangothri Bar,bar/club
12.9105402,77.6327109,1.7216319063743937,Southinn,food service
12.9311314,77.6007942,2.4966493455161727,Seashell Savoury,food service
12.8900223,77.6004461,4.208798331257723,Jamia Masjid,place of worship
12.9210143,77.6015318,2.1871435824657737,Masjid Salafia,place of worship
12.9202457,77.6002095,2.3347346329842527,Panchami Garden,food service
12.9306608,77.6005582,2.498560452781883,Chicken County,food service
12.9172247,77.6143995,0.9347079867182433,"Iqra International School, Bangalore",education
12.9195986,77.608563,1.442828745841244,Wisdom International School,education
12.9335629,77.614322,1.5425216372657855,Truffles,food service
12.9472236,77.598734,3.774843016812621,ICICI Bank,financial
12.9474456,77.5987375,3.79318783730646,Sahana hotel,lodging
12.9480956,77.5999568,3.763921111759649,Shree Sai Baba Condiments,grocery
12.9227933,77.5835861,4.132529278527791,Dena Bank,financial
12.89488,77.586103,4.876406070559341,Brigade Palmsprings,residential
12.893592,77.586205,4.956709545112131,Reliance Smart Point,grocery
12.900609,77.594713,3.7490468624766273,ICICI Bank,financial
12.900542,77.594905,3.737519589088065,State Bank of India,financial
12.9620032,77.6419066,4.987900431762082,H3O,bar/club
12.9012855,77.623539,2.27872259602286,Lakshmi Vilas Bank,financial
12.9600073,77.6454571,4.9771916973400385,Mac Fast Food,food service
12.9600501,77.6451721,4.965372249295192,Anand,food service
12.9600581,77.6451404,4.964377481569499,Cheeni Kum,food service
12.9600493,77.6449336,4.952104644281872,Mast Kalandar,food service
12.9600755,77.6448826,4.951807056829051,Chai Point,cafe
12.9600127,77.6451616,4.961218008872992,ICICI Direct,financial
12.9600676,77.6447244,4.942372666538029,Dena Bank,financial
12.9601577,77.6443247,4.929335275455997,Desi Bytes,food service
12.9600667,77.6450929,4.9625674768161305,HDFC Bank,financial
12.9545514,77.6526553,4.959603309712665,ICICI Bank,financial
12.954539,77.6526273,4.956535508893698,Punjabi Bites,food service
12.9342864,77.6301111,1.6702312839567315,1522,bar/club
12.9594395,77.6436156,4.821908739634394,Clubhouse,food service
12.937762,77.6271125,1.8798727829520667,Ichin Restaurant,food service
12.9608001,77.6372345,4.662284333358311,HDFC Bank,financial
12.961305,77.6371429,4.711146421499984,Canara Bank,financial
12.9369895,77.5810697,4.720147695976902,PSR Silks,clothes
12.9372349,77.581058,4.731223002385475,Nandini Silks,clothes
12.9364297,77.5816412,4.640090128511227,Vijaya High School,education
12.9364469,77.5814468,4.660480617502921,Vijaya Composite Pre-university College,education
12.9368947,77.5819858,4.6238050103721084,Josco Jewellers,jewellery
12.962015,77.6375462,4.800487595643519,Spice n' Ginger,food service
12.9067021,77.6396204,2.5599893524246724,911 E&F,residential
12.9309095,77.6138689,1.330033655000538,Seekers Cafe,cafe
12.9337036,77.6229616,1.3417241918682759,Nature's Basket,grocery
12.9326431,77.6317085,1.6300898487741218,Allahabad Bank,financial
12.9326766,77.6316676,1.6299311788781712,Axis Bank,financial
12.9327888,77.6315663,1.6320806209335723,Mustard,clothes
12.9204291,77.5972998,2.648251423436692,We Mart Super Market,grocery
12.8826477,77.6413709,4.837598501643022,Vinayaka Temple,place of worship
12.8918648,77.6496129,4.489847712620713,Axis ATM,financial
12.9449935,77.6288015,2.702041582953405,Sriram Temple,place of worship
12.9476948,77.600799,3.672284080585389,Sri Maramma Temple,place of worship
12.9487921,77.6009276,3.7607119497898984,Bharathi Restaurant,food service
12.9489334,77.6001044,3.8272036514467973,Axis Bank,financial
12.9484634,77.5989705,3.863160002069108,State Bank of India,financial
12.9482223,77.5990903,3.834236708484628,Srs English Nursery School,education
12.9446297,77.6289275,2.667267567303059,Axis Bank,financial
12.9447067,77.6289232,2.6753168261511338,,jewellery
12.9448343,77.6289279,2.689035801689842,,clothes
12.9462204,77.6289455,2.8373608147612557,JJ Footwear,shoes
12.9459822,77.6289502,2.8120605902868974,Royal Fast Food,food service
12.9461467,77.6289446,2.8294596923423825,,grocery
12.945821,77.6289508,2.794872738241105,Ashok Textiles,clothes
12.9453821,77.6289419,2.7477967320247085,Bob's Chinese Fast Food,food service
12.9457828,77.6289521,2.7908363787522608,Hari Jewelers,jewellery
12.9455457,77.6289451,2.765333660097381,TMS Provision Stores,grocery
12.945121,77.6289356,2.719789022573475,Fashion Point Cloth Store,clothes
12.9451981,77.6289343,2.7279586947674828,New Hindustan Furnitures,home furnishing
12.9451555,77.6289394,2.72358115758585,Public Distribution Shop,grocery
12.9450345,77.6289388,2.7106808978149086,Karur Vysya Bank,financial
12.9240707,77.640498,2.054284132518391,Bhagini,food service
12.9631001,77.6057848,4.915967628609606,Siddiqu Kabab Center,food service
12.9310409,77.6081159,1.80172227652496,Jose Mess,food service
12.9274912,77.6373711,1.8163800083880928,Mani's Dum Biriyani,food service
12.9272827,77.6379132,1.8635816902440523,,financial
12.9147113,77.6024933,2.221957703678871,"Shantiniketan English High School, B M P 64",education
12.917697,77.6154889,0.8070121173528172,,lodging
12.9286014,77.5928375,3.2208057421069793,Paani Kum Chai,food service
12.9105778,77.5807084,4.611655564256252,Crunch Sip,food service
12.9416121,77.6172504,2.266029044863513,,financial
12.9411724,77.6172571,2.2181233006118966,Ksheera Sagar,food service
12.940484,77.6183624,2.1197742841238236,,financial
12.9414316,77.6174359,2.242192670038717,,financial
12.9177769,77.5961824,2.799788691681512,Public Distribution Shop,grocery
12.918707,77.5964054,2.761549478536165,Shiva Temple,place of worship
12.9185951,77.5961373,2.7919084790805164,Sri Devi Karimariamma Temple,place of worship
12.9189327,77.5964279,2.7562129261005834,Street side food,food service
12.9204794,77.5956182,2.829985162630824,Donne Biriyani Hotel,food service
12.9188764,77.5958387,2.8203704044362343,JMR Pasha,clothes
12.9204873,77.5957,2.8210877952662536,Public Distribution Shop,grocery
12.9203644,77.5956075,2.8317859702224824,Safa Furniture,home furnishing
12.9199487,77.595865,2.8067472555811426,,place of worship
12.9288993,77.5818811,4.389095174385999,Mane Holige Kuruk thindi,food service
12.9062859,77.6290719,1.8910495401347855,Swati Bakery,food service
12.9357351,77.5867892,4.09272544899113,Banad place,lodging
12.9311576,77.6234768,1.0691219236746927,Muffets and Tuffets,cafe
12.916485,77.5982924,2.602350877605846,AL-BEK,food service
12.9230018,77.5972171,2.6573729694854604,Curry Leaves,food service
12.9239069,77.5969076,2.698148409618503,Parimala,grocery
12.8849218,77.6422502,4.656781731562198,SSD home...Hosur Road.,lodging
12.9202717,77.6451895,2.5507271253939137,Biriyani Zone,food service
12.9464631,77.6260381,2.7933781188790214,A.K.M Plaza,lodging
12.9288555,77.5818153,4.395223090359332,Holige Mane,food service
12.9581905,77.6169398,4.090220160996242,Reliance,education
12.9253813,77.6337008,1.3635209108409225,Pingara Restaurant & Bar,bar/club
12.9355231,77.6189666,1.565344820089238,Pahala Rasagola shop,cafe
12.9598531,77.6429762,4.828515467694325,Corporation Bank,financial
12.9229815,77.5894385,3.4993655053358093,Pratik Comforts,lodging
12.9540891,77.5918797,4.838866644227255,Swathi Deluxe,food service
12.9540285,77.5912583,4.879132682341584,Take a Break,food service
12.9118705,77.6513705,3.396397490083261,Goli Vada Pav,food service
12.8990543,77.6585224,4.718952834917606,Indian Oil,fuel
12.9364231,77.6151528,1.7842873352825304,Maria's Goan Kitchen,food service
12.9085614,77.5859107,4.144916664397757,24th Main Pan Indian Bistro,food service
12.9171866,77.586079,3.8930903842702365,,financial
12.9104062,77.5951099,3.143608771976359,State Bank of India,financial
12.9010386,77.5859577,4.503906659493177,HDFC Bank,financial
12.9065707,77.5875216,4.068444853418348,Damro,home furnishing
12.9030809,77.5855786,4.428677327849634,Zaitoon,food service
12.9017285,77.5857629,4.483587194316565,Sea Salt,food service
12.9061462,77.5906223,3.786354108006012,Egg Factory,food service
12.9100655,77.5921205,3.4570624250944433,Kotak Mahindra Bank,financial
12.9061407,77.5918526,3.66852854418153,Cafe Coffee Day,cafe
12.9061034,77.5920152,3.65496431018727,Pipe Yard,cafe
12.9095608,77.6043781,2.312261435000421,Sri Sai Bala Ji PG,lodging
12.9451931,77.5969836,3.7415450744616425,Imperial Blue Garden Bar and Restaurant,bar/club
12.9434782,77.5817744,4.958470693825152,Siddharda Ashrama,place of worship
12.9434737,77.5829251,4.849780770996175,,place of worship
12.9221578,77.576215,4.9298812019154665,Madhura Bhavan,food service
12.9232169,77.5766524,4.8851158388517915,Syndicate Bank,financial
12.9162662,77.5856417,3.954440458955816,Peter England,clothes
12.9118329,77.5859133,4.030803166447764,Namma Adda,food service
12.930974,77.5799552,4.640217400641988,Sri Nimishamba Temple,place of worship
12.9382297,77.5802736,4.851276417640537,South Point,bar/club
12.9191363,77.6488536,2.956672316111897,Balaji PG for Boys,lodging
12.9259212,77.6389613,1.9287334110526344,"Sai ram Ladies PG, Koramangala",lodging
12.9083472,77.6446906,2.9005904992219635,Aishwarya Supermarket,grocery
12.9046749,77.6406296,2.791609468345854,Shiva Temple,place of worship
12.9048595,77.6403067,2.751982327394377,Ayyappa Temple,place of worship
12.9051847,77.6397082,2.679899681683992,Canara Bank ATM,financial
12.9056484,77.6414765,2.7892644071287727,GHPS Yellukunte,education
12.9371939,77.6198328,1.734686566962889,Upsouth,food service
12.9365073,77.6197375,1.660176862737085,Swadist,food service
12.9367073,77.6206344,1.6727269441511394,,financial
12.9121238,77.6509657,3.345816641609714,Mishmash,bar/club
12.9350497,77.6114296,1.8553752460964144,Chumbak,clothes
12.9077046,77.6080359,2.148257099159914,North Indian Restaurant,food service
12.9153987,77.6010351,2.3467146462617605,Paratha Junction,food service
12.9120592,77.637908,2.0579098683490464,Earth Plate,food service
12.9217691,77.6649558,4.688029877218446,Sri Laxmi PG,lodging
12.9220013,77.6647833,4.669446212279615,Manarch,clothes
12.9235201,77.6646345,4.657584282016482,Iblur Sri Doddamma Temple,place of worship
12.9233121,77.664167,4.60600945074099,Bavitha,lodging
12.912147,77.6502115,3.2675895523236287,Reddy Restaurant,food service
12.9174988,77.6519079,3.307092897235518,Kohinoor,food service
12.9118357,77.6385521,2.1304991298061595,The Punjabi Rasoi,food service
12.9460433,77.6466659,3.8272162649919084,Punjab National Bank ATM,financial
12.9466623,77.6476746,3.953279749556775,Dass Suites,lodging
12.9464234,77.6478264,3.946460994367458,Synergy Suites,lodging
12.9462787,77.647749,3.929239323111005,Sunland Boutique,clothes
12.946457,77.6492864,4.064006598612284,Gardenia Suites Golf Links,lodging
12.9450094,77.6492092,3.9504336047123725,Shri Balaji Andra Style Mess,lodging
12.9434622,77.6563502,4.4673407515501316,Hanuman Temple,place of worship
12.9438224,77.6546548,4.336632040134205,Chowdeshwaramma Temple,place of worship
12.9387861,77.5799087,4.91149213600813,New Shanthi Sagar,food service
12.9215278,77.6629091,4.466247332055076,Quba Furniture And Interiors,home furnishing
12.911789,77.6432674,2.5842666545134017,Helloo Delhi,food service
12.9219138,77.6617062,4.335898858746279,Can Fin Homes Limited,financial
12.9218275,77.6617929,4.345254026257199,Elshaddai Prayer Hall,place of worship
12.9221364,77.6627275,4.446783993572507,Aishwarya Departmental Store,grocery
12.9085132,77.6515084,3.547876167599821,Fish & Fries,food service
12.9225373,77.6626166,4.435473688578246,Good shepherd Assembly Church,place of worship
12.9153185,77.6367517,1.7789581625559625,CINNAMON,food service
12.9153154,77.6516588,3.323655445581687,Tomatina,food service
12.9073279,77.6283365,1.7525124583315381,Dandes Hyderabad Biryani,food service
12.9124928,77.6264129,1.1441414430524046,Sardarji Ka Dhaba,food service
12.9025398,77.6253423,2.1667814098855005,Ammis Biryani,food service
12.9373404,77.579911,4.8513531126561675,Hotel Sanman,food service
12.9213347,77.66384,4.567278811634677,Hotel Enzo International,lodging
12.9217521,77.6638083,4.563662425057159,Hotel IRA Residency,lodging
12.9217659,77.663626,4.543907025044789,Sri Venkateswara Provisions Store,grocery
12.9215701,77.6633011,4.508713659434505,High School,education
12.9409856,77.6085956,2.5720899343396755,Ambur Biriyani Center,food service
12.943229,77.6091984,2.7507199139105025,Sri Sathya Sai Food Corner,food service
12.939969,77.6091099,2.4471210499225915,Taj Food Point,food service
12.9438907,77.6073926,2.914230750148547,Hruday's D- 3,food service
12.9424172,77.6079042,2.7462990404675978,D3 multi cusine,food service
12.943888,77.6517988,4.089897918992666,kglibrary,education
12.9457742,77.6491278,4.000180841040962,Shri Nidhi Sagar,lodging
12.9414978,77.6087872,2.6085646638618702,Shri Ganesh Upahar,food service
12.9415138,77.6083283,2.637065533997947,iLounge Cafe,food service
12.9455409,77.6493327,3.999467992441906,Akshaya Beauty Salon & Boutiqu,clothes
12.9448218,77.6491702,3.9335797488106374,Ram Mandir & Anjaneya (Hanuma,place of worship
12.9443025,77.6525847,4.185653952473361,Ideal Supermarket,grocery
12.9403117,77.5798319,4.987129438916142,Kabab Magic,food service
12.9377243,77.5794545,4.912887768669632,Leanin Tree Art Cafe,food service
12.9353486,77.6249595,1.5582245971167001,Dialogues Cafe,cafe
12.9013643,77.5885613,4.2442161646555805,Ayodhya Nagar,lodging
12.9306322,77.5841581,4.188158013110169,BN Sreekantaiah and Sons,grocery
12.9216216,77.6638046,4.563267264838792,Ira Residency,food service
12.9233799,77.6341276,1.3597789058385463,Ira Residency,food service
12.9030471,77.5851583,4.470739917533755,"CMS Business School, Jain University",education
12.9079578,77.5783267,4.94300767331001,ICICI Bank,financial
12.9074342,77.578346,4.95933781790342,Karnataka Bank,financial
12.9062397,77.578546,4.983064248862182,Aurick Boutique,lodging
12.9330476,77.5822333,4.459500862928685,Standard Chartered,financial
12.9330908,77.5814924,4.537910825828085,Empire,food service
12.9301342,77.6181807,1.0124324750132605,South Indian Bank,financial
12.9301613,77.618137,1.0170132522052802,Bank of Baroda,financial
12.9304666,77.6183064,1.0418764191890126,Federal Bank,financial
12.9035208,77.5843442,4.5253124634471975,Canara Bank,financial
12.9349175,77.5829015,4.4542911273236765,Java City Jayanagar,cafe
12.8901975,77.6258846,3.532158676404771,,financial
12.9040892,77.5847141,4.461374370659803,Axis Bank,financial
12.9544918,77.6490249,4.697274890682552,Hitel Tadka,food service
12.9571068,77.6495069,4.957966484812287,Deepa Student Nurses Hostel,lodging
12.8959006,77.6219225,2.86886374977722,DMart,grocery
12.916898,77.6515929,3.283503029001835,Puma,clothes
12.9268233,77.6164922,0.8019355034411935,Puma,clothes
12.934232,77.6111578,1.801996676512311,Puma,clothes
12.9343711,77.6109597,1.8275822758694549,Nike,clothes
12.9164396,77.5925822,3.209544820746557,Puma,clothes
12.9114996,77.6241693,1.1653787086936647,SLN Super Market,grocery
12.9452356,77.6184676,2.640380751004724,Puma,clothes
12.8974942,77.5998505,3.585053836094507,Vishal Mega Mart,grocery
12.8908667,77.597713,4.3027752546837075,South India Shopping Mall,mall
12.908192,77.6297356,1.7362486750342112,Nisar Manzil,residential
12.9149937,77.6352099,1.6431646617977889,Shoba supermarket,grocery
12.9164819,77.6048556,1.915587942715947,Reliance Fresh,grocery
12.8977213,77.6209903,2.6674190934906115,The Big Market,grocery
12.8925021,77.6116554,3.4243294849723065,Span Retail,grocery
12.9051928,77.6113706,2.1499918845526476,Heritage Fresh,grocery
12.9193503,77.6158536,0.685384621006459,Allday Supermarket,grocery
12.8949631,77.6090105,3.2757231407639376,Ever Fine Super Market,grocery
12.9228872,77.6174916,0.4748213988525566,Pick N Save The Wholesale Market,grocery
12.8964974,77.6109057,3.0368078068628477,Day To Day Super Market,grocery
12.9131841,77.646259,2.825147726496323,Brundavana RentMyStay,lodging
12.9367017,77.6104595,2.065577030468204,Star Bazaar,grocery
12.8985629,77.6267808,2.631002907200975,Reliance Fresh,grocery
12.9138175,77.6491752,3.104100547413644,Food Palace Supermarket,grocery
12.936323,77.6148832,1.7859670953813829,The Chocolate Room,cafe
12.9572546,77.6074721,4.243529013046758,,cafe
12.9345661,77.6116372,1.7989124479133003,Pantaloons,clothes
12.9235142,77.6478367,2.839835543239758,Lord Padmavathi Ammvaru Temple,place of worship
12.9143525,77.6636886,4.623510701527149,,financial
12.9205227,77.5951235,2.88331701783296,Karnataka Bank,financial
12.924386,77.6000893,2.3611018075048276,,financial
12.9205691,77.5951275,2.8826540011863386,,financial
12.9231214,77.5970987,2.6709393814840396,Curry Leaves Andhra Restaurant,food service
12.9563091,77.6208965,3.849341348064296,Ranganathar Andal Temple,place of worship
12.9568231,77.6188771,3.91747375629719,Sri Kasi Vishwanathar Temple,place of worship
12.9580553,77.6186029,4.056434334536915,Shakti Kaliamman Temple,place of worship
12.9564486,77.6207504,3.8652382238476544,Karumariamman Temple,place of worship
12.9585945,77.6185583,4.116584942496369,Dhrowpathiamman Temple,place of worship
12.9564566,77.6209088,3.8657086243175782,Murugan Temple,place of worship
12.9568773,77.6194613,3.9190539894180976,Sri Balaji,cinema
12.9618069,77.6169696,4.489050513310644,Nagamman Koil,place of worship
12.949078,77.5978259,3.995235908909758,Annapurna benne dosa,food service
12.9459795,77.5885235,4.496226220778361,Abc Resto,food service
12.9137104,77.6088524,1.6517054263700388,The Little Blue Window Hostel,lodging
12.9576836,77.6376182,4.357228180248342,Choe Khor Sum Ling Centre,place of worship
12.8956232,77.6068313,3.31734648975274, ,place of worship
12.9596296,77.6462357,4.985781126489452,State Bank of India,financial
12.9596889,77.6461552,4.986718253221085,,financial
12.9587913,77.6466804,4.933462499694253,,place of worship
12.9160728,77.6272019,0.8643445448368031,Clay Station,grocery
12.8941551,77.5864565,4.8961687165998296,Hakuna Matata,food service
12.9370636,77.5851757,4.3112640971506115,Toscano,food service
12.9304984,77.6338469,1.6401756768890665,,food service
12.9087932,77.5984614,2.898841034441319,Mass Residency,lodging
12.916778,77.5925291,3.2085692534938794,Upahara Darshini,food service
12.9148191,77.5982088,2.658472342296562,Brahmins Special,food service
12.9331913,77.6230591,1.286235891765613,The Tower Of Pizza,food service
12.9114527,77.5870878,3.920549770322793,Ranga Shankara Cafe,cafe
12.958119,77.6442446,4.729532499398422,Java,food service
12.9348261,77.6158067,1.5931831533350973,Karama restaurant,food service
12.8985431,77.6499391,3.999745350459192,Residency Park Temple,place of worship
12.9456273,77.5952951,3.907368363221538,Hotel Empark,lodging
12.9230869,77.6192348,0.30848879893358194,Shri Balamuri Mahaganapati Temple,place of worship
12.9236536,77.6184482,0.4139963245960077,,food service
12.9493419,77.6058431,3.5214153256288085,,place of worship
12.9132492,77.6351438,1.7337845549309674,Agarwal Bhavan,cafe
12.925346,77.5858442,3.907081470912102,Treebo sellect Jagdish Jayanagar,lodging
12.9546275,77.6529945,4.990745504753129,New Tasty Magic,food service
12.9365279,77.6148198,1.8095551525085798,Sri Balaji Dosa Corner,food service
12.9351549,77.6134782,1.7413586728713262,Krispy Kreme,food service
12.9624097,77.6350623,4.7526882766381044,,lodging
12.9356426,77.6087092,2.094214203015903,De Street Cafe,cafe
12.9378068,77.6271846,1.8870528957305288,SOCH,clothes
12.9378414,77.6272417,1.8926593381445092,Kushals,clothes
12.9317652,77.6229215,1.1270012830126401,Sutra Spice Resto Bar,bar/club
12.9317704,77.6228514,1.1267088086722128,ICICI Bank,financial
12.9332818,77.6233214,1.2997704860940154,Bar Code,bar/club
12.9321765,77.623039,1.1739374862096001,Anjappar Chettinad Restuarant Koramangala,lodging
12.9360665,77.6314327,1.9142967713764307,Cilantro,food service
12.9006918,77.5868781,4.438573659581959,  ,food service
12.8979762,77.6064023,3.1157547257351768,Shaneeshwara Temple,place of worship
12.8998618,77.6085502,2.8156517278180533,Someshwara,place of worship
12.8983322,77.6079663,2.994538564631534,Poorna enterprises,grocery
12.893068,77.5987074,4.043082829554197,Adyar Ananda Bhavan,food service
12.9307586,77.6179314,1.086926249291287,  ,food service
12.9310212,77.6180799,1.1082408436076387,  - ,food service
12.9308485,77.6179719,1.09456867654121,  - ,food service
12.9038932,77.6415555,2.9243112618356304,,financial
12.9469705,77.5944165,4.079039009461634,Biryani palace,food service
12.9454272,77.5950799,3.909431300554725,Hotel Dreams inn,lodging
12.9453765,77.59506,3.9072224086532863,AR Tea Sagar,cafe
12.945523,77.5952075,3.9064531178009565,AFC,food service
12.9453021,77.5952136,3.889351691951841,Silsila,clothes
12.9439985,77.5946425,3.8401064004333403,A1 biryani,food service
12.9549893,77.5915906,4.934480438891517,,financial
12.9455298,77.5952158,3.9063048964336344,Juice World,food service
12.9455189,77.5951301,3.9123135908124067,Dreams inn,lodging
12.949295,77.5931079,4.3608069569420715,AMM Residency,lodging
12.9454861,77.595168,3.9068216222394914,Alfa fried and Grill,food service
12.9453166,77.5950506,3.9034915007934043,Alfa,food service
12.9451588,77.5949507,3.899750832269247,M Shoe centre,shoes
12.9440624,77.5945215,3.854708507826134,Diamond collection,clothes
12.9549365,77.5915735,4.931304719542973,Bacardi,food service
12.946968,77.5942273,4.093735723403674,Limra Hotel,food service
12.94512,77.5949263,3.898834038839414,Fashion Zone,clothes
12.9450051,77.5948204,3.898879791014009,Royal guest house,lodging
12.9431674,77.5945527,3.788651246282709,Fashion planet,clothes
12.9560009,77.5920884,4.984506346253866,Hotel Revoli,food service
12.945194,77.5949693,3.900872638306402,Axis Bank,financial
12.9447719,77.5949585,3.8704751556241184,Kolkata,food service
12.9359094,77.5927065,3.517081276149772,Limra,lodging
12.9390995,77.5946074,3.5162895543012853,Sri Ram coffee shop,cafe
12.9458364,77.5959506,3.8717256090351992,Coffee works,cafe
12.9458056,77.5960259,3.8634712559883693,Vk export shops,clothes
12.935018,77.6088654,2.031706480171046,Punjabi by Nature,food service
12.9354982,77.6089438,2.065250757948625,Sip N Snacks,food service
12.9353203,77.6090576,2.0423035076617713,Salads and Grill's,food service
12.9352918,77.6091731,2.031568427532279,Blue bells,lodging
12.9479719,77.5937414,4.208884908148439,Driving school for all types of cars,education
12.9456176,77.5958465,3.8630761030254566,Hungry lion,food service
12.9361427,77.6070292,2.259882824124562,Kanpur shoe mela,shoes
12.9355551,77.608926,2.07124424075819,The Royal Pride,food service
12.9352983,77.6091104,2.03665218723503,South Indian Bank,financial
12.9470874,77.5941987,4.105108564195065,Supreme,lodging
12.9353982,77.6090182,2.0515932570253463,Forum Park,food service
12.9450345,77.5948487,3.8987635815245283,Star Footwear,shoes
12.9447229,77.5945885,3.897008872521625,Govt. Urdu English Medium High School,education
12.9446296,77.594531,3.8949105919369313,Masjid-e-ateeq,place of worship
12.9446031,77.594529,3.8931463627735052,Parmeshwar Textiles,clothes
12.9441951,77.5944954,3.8663992992715435,Star Biryani,food service
12.9437241,77.5946512,3.8197541422238297,Bright Jewellers,jewellery
12.9409939,77.5928155,3.79496943186607,Dharshan Enterprises,grocery
12.9417742,77.5938148,3.7570310983306507,Priya,food service
12.9433373,77.5947264,3.786028233159097,Taj Chicken Kebab,food service
12.9437019,77.5947656,3.8086617843909183,HDFC Bank,financial
12.9347845,77.60897,2.005043478193541,@home,home furnishing
12.9283944,77.5902973,3.483805475723449,,home furnishing
12.9284441,77.5899513,3.5216195995998927,,clothes
12.9290086,77.5894098,3.5926545380164687,,education
12.9330586,77.5817527,4.509824625442927,Empire restaurant,food service
12.9289101,77.5914708,3.3728368332598566,Jimmys,bar/club
12.9139703,77.6060989,1.8967738148460103,Subway,food service
12.9192929,77.5926382,3.1610587095906744,,financial
12.9073417,77.6108455,1.9831879856989627,Sai Ram PG,lodging
12.9324728,77.6311287,1.5745156223563281,gatepass,office
12.9549547,77.6511081,4.881641262185855,Sri Surya Provision,grocery
12.899229,77.6026481,3.241481780171684,Elite Mess,food service
12.9345723,77.6199541,1.4437867999908818,Naati Manae,food service
12.9355095,77.6187649,1.568147562807109,Sanoop Provision Stores,grocery
12.9336798,77.6222761,1.3335553716876967,Casinova,food service
12.9334968,77.6212815,1.3125281958526942,Java City,cafe
12.9659404,77.6144089,4.982359001147547,Axis Bank,financial
12.9425836,77.5815226,4.934724769475821,Andaal Rangamannaar Temple,place of worship
12.942297,77.581498,4.9221705664717685,Andaal Rangamannaar Temple Hall,place of worship
12.9037265,77.5917721,3.8099447640227218,Banagalore Fresh & Fresh,grocery
12.9290157,77.5912224,3.4017803458598173,Kobe Sizzlers,food service
12.9223927,77.5894122,3.5001651284139754,Coffee Thindi,food service
12.9560201,77.6055437,4.198706924113146,Throwback Pub and Dine,bar/club
12.9646225,77.6139894,4.845358501865385,Coorg Products,grocery
12.9646268,77.6139096,4.847328172081748,MS Restaurant,food service
12.9644942,77.6135414,4.839939703925827,Kamath Stores,grocery
12.9574019,77.5987857,4.682565102781809,Bhoomika Pride,residential
12.9118942,77.6391649,2.184449681896602,House of Commons Rest-o-bar,bar/club
12.93656,77.5804636,4.764715707844791,Canara Bank,financial
12.9284958,77.5856981,3.9743003653792344,Ramraj Cotton,clothes
12.9468669,77.5964194,3.916305778844875,ICICI Bank,financial
12.9471118,77.5966087,3.9215564797643414,HDFC Bank,financial
12.9477827,77.5970683,3.9417436621184123,iStar Cyber Cafe,cafe
12.9478549,77.5971182,3.943999415197419,,financial
12.9483581,77.5972643,3.9748704598259215,State Bank of India,financial
12.9488127,77.5978542,3.9708075874806297,Karnataka Bank,financial
12.9486539,77.5977493,3.9648513753589847,Domino's,food service
12.9327598,77.5849626,4.167080241931259,State Bank of India,financial
12.9485625,77.5976727,3.9626246906189397,State Bank of India,financial
12.9252748,77.58825,3.646981887812571,Patanjali Mega Store,grocery
12.9328023,77.5847991,4.185405011743566,M.P Swarna Mahal,jewellery
12.925788,77.5880661,3.6734150760336677,Vitarag Jewels,jewellery
12.9253672,77.5882291,3.650366288628127,Cotton Blossom,clothes
12.925098,77.5882684,3.6429093959896335,Ample Mart,grocery
12.9269123,77.5907502,3.403980456415766,Canara Bank,financial
12.9173939,77.5781136,4.748099611802219,Mandarthi Veg,food service
12.9329075,77.5896812,3.6870835771805255,,place of worship
12.9270213,77.5920261,3.2699756937750615,State Bank of India,financial
12.9284598,77.592774,3.2237833413836827,Five Star Chicken,food service
12.9305734,77.5862262,3.969142862512336,Planet Fashion,clothes
12.9306435,77.5863284,3.9603649597196133,Vakulaa Veg Restaurant,food service
12.9318362,77.5890273,3.716016460563985,Srushti Boutique,clothes
12.9283464,77.595684,2.9148014232314505,Al Dubai Family Restaurant,food service
12.928555,77.599351,2.5392381537157633,4 Seasons Multi Cuisine Restaurant,food service
12.9285254,77.6000608,2.4649523684131407,Vijayalakshmi Veg,food service
12.9285122,77.6001778,2.4524376113968582,Muthoot Finance,financial
12.9320963,77.5892378,3.703208751996096,Hot Chips,food service
12.9628718,77.6364846,4.85036399932149,,grocery
12.9370109,77.6275262,1.8158130419636616,Via Milano,cafe
12.9623669,77.6378519,4.848907931321885,Indira Canteen,food service
12.9339967,77.5869451,4.00711324100293,Jayanagar Park,attraction
12.9168645,77.5859473,3.9120094811340573,Hyderabad Biryani,food service
12.9065569,77.5858871,4.230986373842029,Iyengar Bakery,food service
12.904966,77.6016531,2.860616454760895,Nagarjuna Andhra Style,food service
12.9409559,77.6241477,2.1575279895535746,Jimi's Beer Cafe,bar/club
12.9163782,77.6152127,0.9189773343628517,Vijaya Bank,financial
12.9534102,77.6528653,4.882617511603546,HDFC Bank,financial
12.9272923,77.6161593,0.8644458617297166,Comfy,lodging
12.9272402,77.6162757,0.8515303605640607,Invitation Restaurant and Bar,bar/club
12.9274618,77.6160372,0.8872031016042372,Sanchethi Jewellers and Bankers,jewellery
12.9536666,77.5927716,4.7395221158355385,Reliance Market,grocery
12.9340385,77.6122448,1.7124186667903252,UCO Bank,financial
12.9105609,77.6271039,1.3701031296510044,State Bank of India,financial
12.9417037,77.6085642,2.640863573706761,Bank of Baroda,financial
12.9077496,77.6008578,2.740253885912053,Spar,grocery
12.9060155,77.5958706,3.2982739817520086,Domino's,food service
12.9584526,77.6046732,4.4839659086835715,,home furnishing
12.9055051,77.630219,2.0236973914986005,,home furnishing
12.9240637,77.6186205,0.42481837595864536,Metro Footwear,shoes
12.9606269,77.6008095,4.88477270137221,,place of worship
12.8931572,77.5987475,4.032594118507293,Fattoush,food service
12.8967748,77.5997314,3.653894812808929,Subway,food service
12.9004703,77.6011552,3.245132524930186,,food service
12.9021276,77.6008956,3.133824476423924,,food service
12.8905526,77.5983443,4.289929020049633,,place of worship
12.9071346,77.6004973,2.811385181020657,,place of worship
12.9444073,77.6076578,2.9480867083690656,,place of worship
12.9423918,77.6204543,2.3047804502459854,Aravind Home,lodging
12.9575843,77.6358809,4.275871348103972,Sri Subramanyam Swamy Temple,place of worship
12.9579713,77.6357771,4.312063037138671,Temple,place of worship
12.9609685,77.6349896,4.597840289134659,Govt School,education
12.8905373,77.6447752,4.273439020692959,Bhagya Veg Hotel,food service
