Landmark Latitude,Landmark Longitude,Distance,Landmark Name,Property Type
13.0316253,77.6357141,4.888432531026306,Reliance Fresh,grocery
12.9756318,77.6014761,4.954255516056976,Koshy's,food service
13.0306094,77.6349359,4.7765999382928275,Shoba,grocery
13.0298925,77.6347682,4.738641581461421,Smart,grocery
13.0145165,77.5678632,2.7109513324921766,,financial
13.014655,77.5678658,2.7076945565114645,,financial
13.0476857,77.5742994,3.715835120556612,Big Bazaar,grocery
13.0383199,77.5646766,3.673273733014366,,fuel
13.0275857,77.571661,2.4283227751709417,,financial
13.0322135,77.5698943,2.8295435595380223,Indian Oil,fuel
13.0425174,77.614002,3.4844485596850823,Hotel Garden,food service
13.0047512,77.5650939,3.3717765279647494,State Bank of India,financial
13.0056248,77.5622366,3.6043537559734773,Axis Bank,financial
12.9762256,77.6014809,4.8896636428815325,Hard Rock Cafe,bar/club
12.9985927,77.5687751,3.442819416634923,The Malleshwaram association,bar/club
13.0151185,77.5681179,2.671436054897017,Centre for Product Design and Manufacturing (CPDM),education
13.0132383,77.5686174,2.6632616467916375,CiSTUP,education
13.0155209,77.5681206,2.663721699050523,Interdisciplinary Centre for Energy Research,education
13.0158581,77.5683888,2.629312807848012,Interdisciplinary Centre for Water Research,education
13.0164088,77.5682496,2.6360641472990105,Organic Chemistry,education
13.016856,77.5682738,2.627852664482776,Inorganic and Physical Chemistry,education
13.0173833,77.5659752,2.870705868308396,Central Purchase and Stores,education
13.0138091,77.5668973,2.8295639698507897,Physics,education
13.0171773,77.5648502,2.9939822473632844,Insdoc,education
13.0169379,77.5645125,3.0326461110834617,Canara Bank,financial
13.0186339,77.5709242,2.3277964122816086,Electronic Systems Engineering,education
13.0175447,77.5700198,2.4324461487702926,Joint Advanced Technology Programme,education
13.0185648,77.5645301,3.020440539386366,Amenities Hall,education
13.018047,77.5649882,2.9729746123750402,Tata Memorial Club,education
13.0362217,77.5663481,3.392004479561128,Chikkamaranahalli,transportation
12.9907411,77.5577577,4.9164324843365765,Navarang Bar,bar/club
13.0313492,77.6355039,4.858024107189224,Canara Bank,financial
13.0271598,77.6323889,4.419469307356915,,financial
13.0263233,77.6319846,4.358928679739901,Fresh Supermarket,grocery
13.0231284,77.6362241,4.766762945673249,Cafe Coffee Day,cafe
13.0233653,77.636232,4.77003734977834,Orkids,education
13.0238997,77.6349809,4.641293392571258,Little Elly,education
13.0242154,77.6356384,4.716033199562054,Smiley Kids,education
13.0268228,77.6329007,4.466667335536339,Florida College of Management and Computer Science,education
13.0269256,77.6329391,4.472905821463717,Florida College of Education,education
13.0271338,77.6330115,4.48504423521843,Florence College of Physiotherapy,education
13.0261391,77.6362268,4.808495891154913,Pizza Hut,food service
13.0245569,77.6369992,4.866904060598968,Foodworld Supermarket,grocery
13.0247406,77.6369933,4.868763612792749,ICICI Bank,financial
13.0248088,77.6369908,4.8694423649436835,Style Spa,home furnishing
13.0224361,77.6308334,4.178293970128309,Shemrock Bright,education
13.0217371,77.6370282,4.84243123154708,Syndicate Bank,financial
13.019526,77.6367557,4.8054081762932395,Sansar Collections,clothes
13.0196337,77.6342441,4.5333953196339865,Small World,education
13.0203163,77.6325425,4.350360098708279,India Evangelical Church,place of worship
13.0194729,77.6312833,4.212525984012211,Sri Durgadevi Temple,place of worship
13.0194682,77.6332105,4.4213078883064405,Thambis's Inetcafé,cafe
13.0201083,77.6304232,4.1202769899579295,,place of worship
13.017623,77.6341168,4.523315892660833,Orchid Academy,education
13.028839,77.6349071,4.725563118346733,Cafe Moksh,cafe
12.9955258,77.5717703,3.4617841915381233,Hallimane,food service
12.9931291,77.5715961,3.6808654665296303,New Krishna Bhavan,food service
12.9932258,77.5717309,3.663424706968829,Sri Krishna Lodge,lodging
12.9931208,77.5710734,3.7165352100764606,Sampige Theatre,cinema
13.0055704,77.5713507,2.7443123170196353,Adiga's,food service
12.9869354,77.5948134,3.608265871916074,Infinitea,cafe
13.0024438,77.5838636,2.090074496717015,Pav Bhaji,food service
12.9990578,77.5695202,3.348251172223718,State Bank of India,financial
13.0281613,77.5732067,2.3009484125996083,Polar Bear,cafe
13.02807,77.5729018,2.326567564531473,Hav Mor,food service
13.0493097,77.5928667,3.337309366188228,Canara Bank,financial
12.9971601,77.5974721,2.522429222171605,Formula III Bar,bar/club
12.9932643,77.5957899,2.9182409812151664,Nandhini Andhra Hotel,food service
13.0045673,77.5710992,2.830069900473314,Cafe Coffee Day,cafe
13.0042882,77.5710889,2.849052113783545,Reliance Fresh,grocery
13.0064539,77.5780313,2.112744591274421,Stella Maris School,education
12.9930635,77.5959522,2.9426407930252587,Pai Vihar,food service
13.00559,77.570496,2.820550986729315,HOPCOMS,grocery
13.0061977,77.5693737,2.8889263344090663,Reliance smart@Malleswaram,grocery
13.0096888,77.5624992,3.411151205720534,Bharat Petroleum,fuel
12.99695,77.5679373,3.6332454377149563,ICICI Bank,financial
13.0045524,77.5711963,2.8224606568247226,Papa John's,food service
12.9901236,77.5722985,3.9074708551752813,Vishnu Sagar,food service
12.9898878,77.5726957,3.905580258667436,Sangeeth Bar and Restaurant,bar/club
12.9940976,77.571267,3.6187795234190894,ICICI Bank,financial
12.9933312,77.57187,3.644940024359522,Corporation Bank,financial
12.9953279,77.5712934,3.5120388206533697,Kolkata Chaat,food service
13.0281528,77.6315502,4.354059718597375,Masjid-e-Yusuf,place of worship
13.0192135,77.5572955,3.8031141557284918,Emirates,food service
13.018555,77.558819,3.6389990576830193,State Bank of India,financial
13.0081521,77.5716854,2.563788931432868,Sri Ayyappa,place of worship
13.0034478,77.5673384,3.2371638091630057,Jayanti Apartments,residential
13.0045938,77.5669909,3.2018833980504433,Maithree Apartments,residential
13.0397585,77.5555028,4.599163312959908,City Supermarket,grocery
13.0400303,77.5555993,4.605132147521013,Spencers Daily,grocery
13.0436252,77.5536883,4.990307015789917,Hindustan Petroleum,fuel
13.026313,77.5845772,1.1516647661104538,National Bureau of Agriculturally Important Insects,education
12.9858036,77.6055705,3.9886130026162783,,place of worship
13.0016893,77.5694475,3.1651576157507395,Bank of India,financial
13.0016506,77.5694522,3.1674222067004463,Bank of India,financial
13.0011737,77.5683395,3.295069108234609,B. P. Indian,education
13.0041002,77.5713906,2.8350419096163595,Udupi Sri Krishnarajathadri,food service
13.0333714,77.5689251,2.9859062746330696,IndusInd Bank,financial
13.033237,77.5690007,2.9711121101747056,ING Vysya,financial
13.0330093,77.5691944,2.9400224964572383,Nandini Palace,food service
13.0330766,77.5694147,2.923555473041974,Denizen,clothes
13.0330896,77.569359,2.9294529767410813,Beijing Bites,food service
13.033163,77.5691004,2.957605634272485,World of Titan,watches
13.0331351,77.5691098,2.955120499865941,Van Heusen,clothes
13.0335167,77.5691031,2.97804385503535,Bata,shoes
13.0332457,77.5692878,2.945129559700864,Koutons,clothes
13.029151,77.5709378,2.570199783303371,McDonald's,food service
13.0292165,77.5709225,2.574809694804535,Onesta,food service
13.00654,77.5692833,2.8784353861395386,Chung's,food service
13.0068052,77.5645334,3.323397088811158,Reliance Fresh,grocery
13.0085194,77.5688573,2.81824611120376,HDFC Bank,financial
13.0092653,77.5621798,3.4589346689297513,Vani Vilas,education
13.0077753,77.5637631,3.3567383300966527,Ganesha,place of worship
13.0067269,77.5640344,3.3761798099638396,Sai Chats,food service
13.0055316,77.56985,2.883126569512194,UCO Bank,financial
13.0055316,77.569732,2.893967292960435,,financial
13.0098299,77.5623705,3.419530246484068,Cafe Coffee Day,cafe
13.0029248,77.5663029,3.3629513095084733,Ganesha,place of worship
13.0018944,77.5665182,3.4071236913031258,Shamrao Vittal Cooperative,financial
13.0011328,77.5691982,3.224821207946181,Kotak Mahindra Bank,financial
13.0010742,77.569202,3.2285867244692383,,financial
13.0369119,77.5659032,3.474874264070278,Shanthi Sagar,cafe
13.038095,77.569086,3.278214792658625,RMV Club,bar/club
13.0380165,77.5693434,3.251185639017816,RMV Club,food service
13.0084832,77.5692697,2.77961497812996,Syndicate Bank,financial
13.0085354,77.5694521,2.7592899167738194,Syndicate Bank,financial
13.0342258,77.5691996,3.011905545902221,Reliance Fresh,grocery
13.0342347,77.5693249,3.001134953744694,Hunan Chinese Restaurant,food service
12.9998952,77.5648773,3.680632563385017,Grace Church,place of worship
13.0162478,77.5648911,2.999500932109923,Kabini Canteen,food service
13.0183173,77.5645529,3.0188437067893594,State Bank of India,financial
13.0372579,77.566121,3.4773566465939596,Chicken County,food service
13.0290015,77.5615609,3.510780324829082,Reliance Fresh,grocery
13.0189986,77.5571289,3.8212994948466914,,place of worship
13.0193749,77.5553156,4.017604940729549,Jamia Masjid,place of worship
13.0184079,77.5707285,2.349914967818367,Computer Aided Design Laboratory,education
13.0187468,77.5569804,3.837735479015572,Sri Gayathri Devi Temple,place of worship
13.0369962,77.5573938,4.2724250186061,Mathikere Masjid,place of worship
13.0243423,77.5671642,2.790832506413016,,grocery
13.0240917,77.5625862,3.2735459673438174,Saint Sebastian Forane Church,place of worship
13.014482,77.5761323,1.8420321199346505,International Buddhist Seminary,place of worship
12.994359,77.5711764,3.6025739875456684,Rasa,food service
13.0046678,77.5714458,2.793009423865522,Sai Baba Temple,place of worship
13.0282488,77.5717997,2.443511023630731,Sri Ganesh Darshan,food service
13.0245647,77.5783085,1.6350034822124428,RRI Hostel,education
13.0275961,77.5766293,1.941648982237618,Freska,food service
13.0068412,77.5789439,2.0110846670246527,,food service
13.0280015,77.5715786,2.45443838872192,Pizza Hut,food service
13.027204,77.57712,1.8742047309185808,Hammered Exchange,food service
12.9836146,77.5948986,3.9772589442098876,Syndicate Bank,financial
12.991491,77.5941489,3.0980196273723366,Miller's 46,food service
13.0076434,77.5779662,2.0310874896032205,,financial
13.0070953,77.5787894,2.004009920304018,Mint Masala,food service
13.0067463,77.5788817,2.0232410784410035,,financial
13.0060748,77.5788458,2.078208537575285,Bharath Petroleum,fuel
12.985511,77.5889985,3.77519634923464,Canara Bank,financial
12.9819402,77.5955017,4.167790441908958,State Bank of India,financial
12.9762175,77.5993135,4.848762433496954,Kotak Mahindra Bank,financial
12.9885568,77.5923112,3.4185014071486073,Canara Bank,financial
12.9870714,77.5946647,3.5920468428246335,Shezan Restaurant,food service
12.9875155,77.5944946,3.5415534595231497,Sit Well Furnitures,home furnishing
12.9883962,77.593819,3.4397831347574077,Domino's,food service
12.9888226,77.592415,3.3889326469833807,HDFC Bank,financial
12.9887157,77.5939709,3.405075132575373,Ramana's,food service
12.9767317,77.5891659,4.746330987938799,,food service
12.9758245,77.5975433,4.866267188731968,Subway,food service
12.9757683,77.5984496,4.884679732868782,McDonald's,food service
12.9758396,77.5985677,4.878559567586275,Bharat Petroleum,fuel
13.0074751,77.5793045,1.9343596565050039,State Bank of India,financial
12.9752515,77.5886667,4.914643289832236,Mathsyadarshini (Fish Canteen),food service
12.9751175,77.5976204,4.945321577603738,Dhanlaxmi Bank,financial
12.9756522,77.597345,4.8828964527321475,Yes Bank,financial
12.9848514,77.570647,4.4974829651262915,,place of worship
12.9848155,77.5707656,4.494168300191842,Chamundeshwari Temple,place of worship
12.9857544,77.570503,4.420629171593572,,place of worship
12.9863991,77.5707542,4.3455598969969245,,place of worship
12.9884301,77.5713911,4.118682758791114,Mariyamma temple,place of worship
12.9887069,77.5708345,4.126905488412735,Temple,place of worship
12.9895905,77.5708543,4.0450583956158574,Sri Jada Muneshwara Swamy Temple,place of worship
12.9908918,77.5696342,4.007741374909435,Muttumariyamma temple,place of worship
12.9922759,77.568733,3.9502535043215974,Anjaneya temple,place of worship
12.9921674,77.5683888,3.983690543734455,Deccan school,education
12.9917534,77.5680966,4.039233600258778,Rama Temple,place of worship
12.991587,77.5684205,4.0305749528701345,Anganavadi,education
12.9921317,77.569768,3.8908411138512187,Om Sakthi Temple,place of worship
12.9822391,77.594459,4.127017692083381,The Capitol,lodging
13.0140892,77.5760778,1.860817271337978,Nagasena Vidyalaya,education
13.0139649,77.57891,1.5772892964440592,State Bank of India,financial
12.9748503,77.5956392,4.955025513585173,Museum Canteen,food service
12.9803653,77.5950694,4.338990729311528,Canteen,food service
13.0077699,77.5794951,1.896957927667708,Punjab National Bank,financial
13.0076197,77.5793977,1.9160304458634372,Cafe Coffee Day,cafe
13.0071676,77.5790958,1.9742098593772417,Bank of Baroda,financial
13.0080052,77.5796762,1.8648231274769747,Karnataka Bank,financial
13.0080972,77.5797261,1.8539411882127903,Syndicate Bank,financial
13.0089647,77.580665,1.7137919850007761,Advanced Animation Academy,education
12.9758502,77.5891031,4.844584226076842,Parkview Hotel,food service
12.983448,77.5899594,3.9953204464588414,Legislatures' Home,lodging
12.9782425,77.5825221,4.6891503705431905,Freedom Park,attraction
12.9798386,77.6027906,4.530021375048403,Hotel Empire,food service
12.9847344,77.5971261,3.877477440262779,Sanman Veg,food service
12.9857313,77.595832,3.7511439710917145,Sweet Chariot,cafe
12.98693,77.5951971,3.6121147360129036,Canara Bank,financial
12.9967968,77.6045046,2.8250775492142814,Family Super Market,grocery
12.9956884,77.6060968,3.0158351587964773,Variety Departmental Store,grocery
12.9993627,77.6008367,2.3979642643315198,Indian Bank,financial
13.0016562,77.596687,2.016128607556395,Kara4Kids,education
13.0014631,77.5983593,2.0858116112276153,Syndicate Bank,financial
12.9998077,77.5996733,2.306242398353915,More,grocery
12.9969644,77.6041292,2.7898249455357855,Arafa Stores,grocery
13.0143993,77.5835124,1.1063699880794065,Standard Chartered,financial
13.0009809,77.6138953,3.09397856517745,"Namdhari Fresh, Frazer Town",grocery
12.9851989,77.5794229,4.044141964947914,Sana Di Ge,food service
13.0075715,77.5793658,1.9222050878730388,Pure & Natural,cafe
13.0068783,77.5790907,1.9967298262517914,New Shanthi Sagar,food service
13.0144093,77.5736842,2.0992873245246626,Nikki's Pub & Restaurant,food service
13.014268,77.5737154,2.100154627715294,Sri Balaji Stores,grocery
13.0137034,77.5816225,1.3230981488572016,Light and Matter Physics,education
13.0133937,77.58161,1.3408213456851261,RRI Library,education
12.982738,77.6030551,4.226233918757477,Hotel Vinitha,food service
13.0145591,77.5608745,3.4558416139311987,Student Amenities Center,education
13.0152294,77.5628328,3.235056683527528,Pavillion,food service
13.0179477,77.5661498,2.8478371372331464,Student Council Office,education
13.0169402,77.5641412,3.072700632412419,U-Block,lodging
13.0163759,77.5651518,2.9698465484082748,Hostel Office,education
13.0129211,77.5690015,2.6323106876601536,Society for Innovation and Development,education
12.9893411,77.5929583,3.3318268003228018,A Masala House,food service
13.0032767,77.6229524,3.7591110918900656,,place of worship
13.0249229,77.5928698,0.6273060618335269,UCO Bank,financial
13.0256109,77.5931302,0.7061847715984272,Levi's,clothes
13.0259675,77.5932154,0.7466362461965254,RT Nagar Public Library,education
13.0248113,77.5934442,0.6231820639965011,Vijaya Bank,financial
13.0254978,77.5931058,0.6933927413921341,Andhra Bank,financial
13.0260757,77.5932346,0.7588293977171109,Reebok,clothes
13.0273116,77.5934753,0.8984335909261665,Kabab Manor,food service
13.0249491,77.5926439,0.6287067519575338,Citibank,financial
13.0068553,77.6241647,3.7091592612894697,Mini Bazaar,grocery
13.0037348,77.6228739,3.727699870517356,Auto Stand,transportation
13.003599,77.6225091,3.6998435870113338,Food Magic,food service
13.0016772,77.6138117,3.0366348755844594,Naasih Montessori Public School,education
13.004966,77.5714462,2.7737878819015926,Kadu Malleshwara Temple,place of worship
12.980445,77.604525,4.5157837644688,The Infantry Hotel,lodging
12.980921,77.576491,4.602497941968778,Hotel Maurya,lodging
12.984036,77.577955,4.221962179429177,Hotel Raceview,lodging
12.989096,77.572253,4.005534431198174,Hotel Swathi,lodging
12.9850452,77.579248,4.066771822299347,Nalapad's Hotel Bangalore International,lodging
12.9848493,77.580868,4.0293489705699015,37th Crescent Hotel,lodging
12.9994929,77.5989568,2.314175178650582,ICICI Bank,financial
13.0015628,77.5993592,2.1114863606962295,Elements,food service
12.9996131,77.597031,2.245844100191615,Jayamahal Shani Mandir,place of worship
13.0301779,77.5708089,2.6332924137148446,Paratha Shop,food service
13.0302354,77.5705086,2.6651427588465477,Barista,cafe
13.0009914,77.6184047,3.475934119942718,,financial
13.0592352,77.5939566,4.4437920538975595,Green Country Public School,education
12.9809052,77.5754392,4.647990857291995,Axis Bank,financial
12.9856254,77.5788885,4.020427465368579,Hotel Janardhan,food service
12.9910826,77.5789046,3.4615824277570644,Gandhi Nagar High School,education
12.9853569,77.5792692,4.033516853677799,Kabab Studio,food service
12.9853129,77.5792466,4.038958715655339,Goldfinch Hotel,food service
12.9834716,77.5856742,4.0500316355329735,Nike,clothes
12.9993806,77.5685062,3.406932391802172,Villa Pottipati,lodging
13.0008128,77.5701799,3.165614396912077,Ubhaya Vedanta Pravarthana Sabha,education
13.0016752,77.570255,3.0978904144832837,Krishna Temple,place of worship
13.000358,77.5701424,3.2017460598518865,Mahaganapathi Temple,place of worship
12.9987847,77.5742462,3.0120044406293744,Dattatreya Temple,place of worship
13.013523,77.5696919,2.5426293200833916,KSCST Library,education
13.0155366,77.5687483,2.596309966058181,Society of Biological Chemists,education
13.0058088,77.564786,3.346737786826619,Cafe Coffee Day,cafe
12.9982568,77.5694946,3.4107838632562486,Shree Sagar CTR,food service
13.0020924,77.5702335,3.0705730101923496,Vidya Mandir School,education
13.0047163,77.5755228,2.44397306402429,Ram Mandir,place of worship
13.0073402,77.5764133,2.1836500881788727,Gayathri Devi Temple,place of worship
12.9950213,77.5964919,2.7358262071760913,,fuel
12.9955696,77.6017708,2.8272722924846923,,financial
13.0088749,77.563252,3.3639073292589194,,food service
13.0077909,77.564002,3.332164428899846,,grocery
13.0092904,77.5614979,3.5280602626440922,Nirmala Rani High School,education
13.0078203,77.5639866,3.3324511915945547,,grocery
13.0069619,77.5644724,3.322167457428622,,grocery
13.0067371,77.5643678,3.3428611795283296,,clothes
13.0043093,77.5653307,3.3733005633957127,Homely Organic,grocery
13.0038729,77.5653254,3.3980388447682954,,grocery
12.9984695,77.5692319,3.4154628754539496,,jewellery
12.9986733,77.5692346,3.399918717424484,,grocery
13.0009705,77.5696315,3.199830125623328,,jewellery
13.0009296,77.5723686,2.980340831986072,Food Camp,food service
13.0010829,77.5721394,2.986883894546573,Sri Sai Dosa Center,food service
13.0018529,77.5671939,3.349804817834775,Amrut Ice-cream,food service
12.984215,77.6005578,4.00014134360977,Hotel Ramada,lodging
12.9831559,77.5987115,4.076799162834225,Eden Park,food service
12.9823242,77.594716,4.119171267203123,India Coffee House,cafe
12.980883,77.575992,4.626917895218159,Fortune Park JP Celestial Hotel,lodging
12.9897809,77.5880062,3.316714020930658,NGMA Cafe,cafe
13.0317411,77.611461,2.4855151050510496,,financial
13.0301367,77.6079311,2.0695322824167937,,fuel
13.0328487,77.6065077,2.14604295374548,Ganesh Temple,place of worship
13.0303875,77.6079607,2.088479921563303,Reliance Fresh,grocery
13.0365701,77.6064886,2.4529974321152985,,education
12.9803877,77.6046163,4.52476376440295,Gem Plaza,mall
13.0236679,77.592064,0.4870504699030679,Nilgiri's,grocery
13.0231839,77.6004176,0.9700333232911602,Super Market,grocery
13.0252349,77.6054904,1.5641816009676508,More,grocery
12.9932729,77.5834746,3.0513591661659647,Chief Minister's Guesthouse,lodging
13.000405,77.6233725,3.9590722306204698,,financial
12.9999497,77.6229731,3.949815894702278,Delicacy Chinese Restaurant,food service
12.999295,77.5680608,3.4498707341434796,Sai Shakti,food service
13.0325342,77.5587342,3.9328318423696387,State Bank of India,financial
13.0055106,77.5787567,2.129753825492131,Sri Udupi Swaadista,food service
13.0053709,77.5784808,2.1617095406295808,Nilgiris,grocery
13.002535,77.578333,2.4078665977535487,State Bank of India,financial
13.0022031,77.5783102,2.4380975186982154,Canara Bank,financial
13.0046183,77.5784554,2.224305856806975,Rajesh Hotel,food service
13.0390205,77.5641654,3.763537436981789,Kanti Sweets,food service
13.0374605,77.5657693,3.5214863587453835,Domino's,food service
13.0354798,77.5671533,3.273730381281044,More,grocery
13.0341967,77.5682745,3.094295775861573,Punjab National Bank,financial
13.0321716,77.5699911,2.818143631572403,Food Bay,food service
13.0320357,77.5700072,2.808993262072243,KFC,food service
13.0314294,77.5702969,2.748230563571116,Nandhini Deluxe,food service
13.0289717,77.5712245,2.53361059802671,Casino,food service
13.0291118,77.5711201,2.5504802130934783,Sagar Samrat,food service
13.0277306,77.5717252,2.4280636119715706,Auntie Fung's,food service
13.0275503,77.5717855,2.4143507142162055,Cafe Coffee Day,cafe
13.0362481,77.5747038,2.6882517605395346,Atithi Satkaar,food service
13.0291835,77.5788862,1.830604897693245,,fuel
13.029027,77.561291,3.5394819297781672,,financial
13.0281022,77.5733848,2.2806998842889805,Cafe Coffee Day,cafe
13.0280717,77.5726462,2.351815125179506,Corner House,cafe
13.0283015,77.5726596,2.3612111943010077,HDFC Bank,financial
13.0272537,77.5774582,1.8445674855612177,IDBI Bank,financial
13.0292314,77.5787817,1.8428579348381988,,financial
13.0285232,77.5716015,2.4756198783319476,Kwality BIg Bazaar,grocery
13.0042469,77.550715,4.816356259067116,New Sagar Fast Food,food service
13.033232,77.5690512,2.9661554124017275,,financial
12.9825987,77.6070246,4.377804949774121,Baby Center,clothes
12.9821744,77.6081695,4.467770212452747,Bata,shoes
12.9823894,77.607536,4.419765913850631,KFC,food service
12.9826293,77.6068536,4.367956878127648,West Side,clothes
12.9805966,77.6074314,4.601458949921455,Punjab National Bank,financial
13.0287132,77.5713419,2.5099796683304123,Factory Outlet,clothes
13.0292581,77.5709969,2.5695182457843795,U.S. Polo Assn.,clothes
13.0301562,77.5705035,2.6616290413524353,Peter England,clothes
13.0303271,77.5705126,2.6694250100103765,Raymonds,clothes
13.0314598,77.5701089,2.7676437914777487,Levi's,clothes
13.0292976,77.5710254,2.5686301407479437,Flying Machine,clothes
13.0315031,77.5702476,2.756909244538591,Reebok Kids Store,clothes
13.0319734,77.5699954,2.806612897218932,Reebok,clothes
13.0293655,77.570961,2.578189756200567,Nike,clothes
13.0296268,77.5707576,2.6107053869397796,Fastrack,watches
12.9968818,77.6109656,3.2030970769297644,Fathima's Girls High School,education
12.9961239,77.6132737,3.4286445788350584,Third Wave Coffee Roasters,cafe
12.9959044,77.6130336,3.4300179623331246,Nandini Restaurant,food service
12.9958364,77.6131543,3.444279254278004,Udupi Shanthi Sagar,food service
12.9973354,77.6106956,3.1454861984293703,Domino's,food service
12.9961448,77.6112526,3.2865154943668564,Ponnuswamy Restaurant,food service
12.9970256,77.611258,3.2107334269912884,Reliance Fresh,grocery
12.9931105,77.6089191,3.4181346449289296,Al-Siddique Kabab Center,food service
12.9934162,77.608356,3.357404513791746,Siddique Kabab Center,food service
12.9931549,77.6069772,3.3084891749552248,City Center Library,education
12.9916626,77.6024335,3.259734829191959,HKBK Degree College,education
12.9916809,77.599758,3.172882338746463,Ganesha Temple,place of worship
12.98516,77.6016342,3.9258166125762193,Elgin Cinema,cinema
12.9847411,77.6014987,3.967202789293966,Dandu Maramma Temple,place of worship
12.9933042,77.6131994,3.6651915402515334,St. Francis Xavier's High School,education
12.992426,77.6135802,3.767674116423785,St. Joseph's Convent Girls High School,education
12.9938162,77.6144766,3.7081685369154735,Holy Angel's High School,education
12.9926871,77.6141548,3.7831565320915694,RTC Girls High School,education
12.9947968,77.6152664,3.682536842415895,ICICI Bank,financial
12.9946747,77.6150372,3.6759799610543813,Sherlock's Pub,bar/club
12.9960742,77.6170891,3.7181502600131617,Komala Refreshment,food service
12.9963828,77.6202753,3.951511022178683,Vijaya Bank,financial
12.9950065,77.6202748,4.051857270651939,Mouna Guru Swamy Mutt and Temple,place of worship
12.9969092,77.6198773,3.880842726070368,Axis Bank,financial
12.9975424,77.6225532,4.06514570699114,Sri Varasiddhi Vinayaka Temple,place of worship
12.9892398,77.6084577,3.7681940405354393,Mutyalamma Temple,place of worship
12.9970293,77.5539717,4.844193767049883,Shanti Sagar Hotel,food service
13.0061057,77.548344,4.9934013621435005,Ganesha Temple,place of worship
13.0076084,77.5484003,4.940987185192859,Corporation Bank,financial
13.0075692,77.5484459,4.937371300800241,HDFC Bank,financial
13.0062102,77.5484379,4.980268862412081,,financial
13.0591093,77.5931284,4.427295405207925,Swathi garden,food service
13.0627642,77.5929313,4.833341212843892,SAFA,clothes
13.0566077,77.5930643,4.149051083412951,Hindustan Petroleum,fuel
13.027249,77.5798112,1.6251844718428985,Paratha plaza,food service
13.0034363,77.5499517,4.925544874001615,Cafe 363,cafe
13.0045087,77.5525527,4.619740938774872,Punyadhaama Raghavendra Mutt,place of worship
13.0345529,77.5758254,2.469954849020515,Vijaya Bank,financial
13.0342969,77.5759809,2.43817952112264,HDFC Bank,financial
13.0583621,77.5982875,4.390082116724449,Sharada School,education
13.0582262,77.5982124,4.373953088617766,Ganapati Temple,place of worship
13.0553886,77.6026165,4.162690569930588,Reliance Fresh,grocery
13.0585815,77.5988078,4.422716022705703,Daily Needs,grocery
13.0096385,77.5486843,4.85641837651544,Abaran Jewellers,jewellery
13.0337321,77.5680068,3.091704267349091,State Bank of India,financial
13.0340331,77.5563802,4.232090650860268,,financial
13.0092391,77.5478152,4.958121975920913,Little Lilly's English School,education
13.004565,77.549383,4.940077351378329,Blossom Prenursery,education
13.0044766,77.5534808,4.527219108065398,,financial
13.0039772,77.5509235,4.805734461939581,Cane Crush,food service
13.0057354,77.5543431,4.390295557631738,Varadaraja Petrol / Gas Station,fuel
13.0037708,77.5547591,4.4285354649615,Sri Vani Education Society,education
13.0238021,77.5494737,4.6773133345189075,,fuel
13.0370609,77.5744676,2.7702463280427745,Karnataka Bank,financial
13.0581797,77.5947625,4.330793853900317,Sanjay Food Junction,food service
13.0349108,77.5752718,2.540909303455965,Axis Bank,financial
13.0363059,77.5748837,2.67892099822588,Citibank,financial
13.0363843,77.5748622,2.686727994049569,,financial
13.0359923,77.5749695,2.6477857817854296,State Bank of India,financial
13.0298437,77.5782954,1.9259685896260865,Corporation Bank,financial
12.9954523,77.6138486,3.5258607510590725,Pizza Hut,food service
12.9978917,77.6147471,3.395370470077575,KFC,food service
12.9973063,77.6138674,3.374949144197099,Beijing Bites,food service
12.9963445,77.6157181,3.591340787403691,McDonald's,food service
12.9954036,77.6139103,3.5343395420209256,Ganesha Fruit Juice Center,food service
12.9999459,77.6158737,3.331531034346444,Empire Restaurant,food service
12.9918131,77.6116694,3.701362062300078,Union Bank of India,financial
12.9814476,77.6103605,4.637054191107807,ICICI Bank,financial
12.9810398,77.6104463,4.682127218381193,Malabar Jewellery,jewellery
12.9827449,77.6069771,4.360787721771238,Max,clothes
12.9814894,77.6101459,4.623117781108752,Sri Krishna Diamond and Jewellery,jewellery
12.9817871,77.6092771,4.554432618873404,The Brown Shop,clothes
12.9816462,77.6095934,4.582609477002089,Lee Showroom,clothes
12.9822735,77.6078285,4.443560481219751,,food service
12.9811601,77.6102478,4.661012387907581,Levi's,clothes
12.9825453,77.6104302,4.529802565811694,Cool Joint,food service
12.9826498,77.6104195,4.51882035897939,Corp Bank,financial
13.0256971,77.5931352,0.7157703234320039,Punjabi Rasoi,food service
13.0263622,77.5930491,0.7884230414611237,Andhra Bank,financial
13.0265699,77.5866871,1.0180950636049149,ICICI Bank,financial
13.0266169,77.586655,1.024358756380024,Indus Bank,financial
13.0249236,77.5927811,0.6266772853356203,Tiffin Centre,food service
13.0270037,77.5858396,1.1130624261147475,Gilma Store,grocery
13.0254514,77.593103,0.6882313654106187,Emporium,clothes
13.023831,77.5929101,0.506845858122128,UniverCell Store,grocery
13.0238887,77.5926095,0.5107446944566357,Titan Show room,grocery
13.0233034,77.5928133,0.44740390388845025,New Shanti Sagar,food service
13.0006563,77.5683609,3.3287597021851196,Chinmaya Mission,place of worship
12.9966873,77.5723319,3.324075441444244,Domino's,food service
12.9950177,77.5716418,3.514013692863675,State Bank of India,financial
12.9978128,77.5712095,3.3135062353501623,Kanti Sweets,food service
13.0004998,77.6267596,4.269362760119981,St. Thomas Orthodox Church,place of worship
13.0009572,77.6279102,4.354421999258734,Bangalore East Marthoma Church,place of worship
13.0188908,77.6276297,3.816939433285575,Sri Rama Temple,place of worship
13.0129095,77.5744479,2.0706407127622732,,education
12.9750198,77.5995767,4.9847532771911975,Rice Bowl,food service
13.0233826,77.5508348,4.5258194559960945,Canara Bank,financial
13.0234202,77.5508174,4.5281157609752585,State Bank of India,financial
13.0233507,77.550854,4.523395613019252,Union Bank,financial
13.030076,77.5593983,3.7706659550862454,New Sagar,food service
13.0300838,77.5593527,3.7756255647107757,Akshara Regency,lodging
12.9800397,77.5713661,4.9245786160591996,Sangolli Rayanna,attraction
12.9873383,77.5805314,3.7794536127058898,Bharat Seva Dal,education
12.9869904,77.5786112,3.8908938144540985,Canara Bank,financial
12.9876512,77.5799188,3.7700488571787165,ICICI Bank,financial
12.9868232,77.5800176,3.85239333449922,Richie-Rich,food service
12.9867564,77.5795592,3.876900839860229,Shivananda Stores,grocery
12.9880363,77.5807735,3.697545417742412,Sindhi High School,education
12.9885341,77.5770137,3.8055512411322425,Cafe Coffee Day,cafe
12.9882804,77.5773698,3.8143010381240026,Bharat Petroleum,fuel
12.9879409,77.5768491,3.8726809585740654,Citibank,financial
12.9975797,77.5851079,2.541118952109051,Opus,bar/club
12.9909647,77.5748146,3.682004010696217,Canara Bank,financial
12.9859821,77.5767419,4.074724323476435,Jain Temple,place of worship
12.9877001,77.5782687,3.8328181089227806,Park-n-Eat,food service
12.9865401,77.5772559,3.9952016899888623,Yadava College,education
13.0493139,77.5929981,3.3380222874711647,McDonald's,food service
13.0323102,77.5807282,1.9213749962033555,Shiksha Sagar High School,education
12.9781823,77.5797234,4.773917264247538,Śrī Uḍupi,food service
12.9780729,77.579383,4.79628392239338,Golden Residency,lodging
12.9775086,77.5793777,4.856459527594419,Hotel Kanthi Comforts,lodging
12.9891068,77.5938601,3.3610554623252757,Chung's,food service
13.0055544,77.5630558,3.5274710674029803,Surya Nest Apartments,residential
13.0238756,77.6373573,4.896977340794023,HDFC Bank,financial
13.0231175,77.637041,4.854809204774591,KFC,food service
12.9830301,77.5943718,4.03868310399412,Nisarga,food service
13.026256,77.6062003,1.683286077599785,Punjabi Dhaba,food service
12.987094,77.5784442,3.88726134498772,Bangalore Cafe,food service
13.0256651,77.6369016,4.872764446527483,McDonald's,food service
13.0299644,77.5640792,3.2893008601632774,Vijaya Bank,financial
13.0287613,77.5663599,3.010827254229631,M S Ramaiah Library,education
13.0311311,77.5671433,3.0359940733251585,Nilgiri Men's Hostel,lodging
13.0311416,77.5676047,2.9915374102167487,Triveni Ladies' Hostel,lodging
13.0288137,77.5659698,3.0524744802774695,M S Ramaiah Food Court,food service
13.0291001,77.5680818,2.8509778335246656,Ganesh Darshan,food service
13.0030523,77.5524729,4.687831949284061,Ganesha Temple,place of worship
13.0236171,77.6299246,4.0934955520299035,US Pizza,food service
12.9800497,77.5771102,4.668246884304439,Mādappa Mes,food service
12.9803795,77.5760204,4.677489094011144,SRS Bus Station,transportation
12.9803246,77.5754733,4.705919792300273,VRL Bus Station,transportation
12.9989198,77.552547,4.8762907394396,Jalpaan,food service
12.9993994,77.5525068,4.8556093458209455,Axis Bank,financial
12.9991432,77.5710944,3.217403627944715,Hotel Janatha,food service
13.0058689,77.571081,2.750476546677008,Axis Bank,financial
13.0057102,77.5713559,2.735224959026852,Sunil's,clothes
12.9828042,77.6105271,4.508408953506408,Sreeraj lassi bar,cafe
13.0037322,77.5653317,3.405376592431363,Bajji,food service
13.0352818,77.5891227,1.8122142048915835,Canara Bank,financial
13.0566632,77.5930793,4.155249933803865,Union Bank,financial
13.0614104,77.5930766,4.683036439278871,Raymond Shop,clothes
12.9969499,77.597413,2.543871432579008,Jayamahal Palace Hotel,lodging
13.0013558,77.6235851,3.9238040667036094,Basha Department Store,grocery
12.9966824,77.6193965,3.8574259710221495,Indian Oil,fuel
12.9964106,77.6179133,3.757459118853952,Foodworld,grocery
12.9875167,77.6203112,4.651313699533724,Raghavendra Swami Mutt,place of worship
12.9865706,77.6194475,4.6724962186378605,Rogue Elephant,food service
12.999291,77.5671481,3.5263095906185553,Manjunatha Provisions,grocery
12.9992858,77.5670032,3.538866505532218,Ganesha Provisions,grocery
12.9991395,77.5678347,3.479744928758445,Safal,grocery
12.9993734,77.5669734,3.5352638251807242,KT-26 Sriranga Apartments,residential
13.0297623,77.5697601,2.7145940398676216,Ogara,food service
13.0295828,77.571027,2.5823568139298136,Wow! Momo,food service
13.0039638,77.6155248,3.0306432268152714,Mysore Mini Shopee,grocery
13.0367811,77.5660503,3.4535154575544933,Via Lucknow,food service
13.0282521,77.5729006,2.335244016931689,Ice and Spice,food service
13.0347257,77.6344642,4.86907631016524,Hennur Government School,education
13.0259123,77.6368545,4.87178622926283,Tanishq,jewellery
13.0353701,77.5752731,2.5759667383742437,Karnataka Bank,financial
13.0364505,77.5745807,2.713546908567288,,grocery
12.9813835,77.5753478,4.603152370591634,Hotel Tourist,lodging
12.9816856,77.6083084,4.5237518996295485,Tamanna,clothes
12.9814514,77.6077784,4.5263897662432155,Kalyan Silks,clothes
13.0257883,77.5808222,1.44697565840932,HDFC Bank,financial
13.0282258,77.5730112,2.3231601118313927,Frappy's,food service
12.9847317,77.578357,4.133985958445157,The Solitaire Hotel,lodging
13.0392207,77.6000536,2.365172686673685,More,grocery
13.0391647,77.5991817,2.3278284332989747,Mythri,grocery
13.0406643,77.6025627,2.6183129793758675,Marutham Green View Apartments,residential
12.9991423,77.5703749,3.273847360900432,Kannika Parameshwari Temple,place of worship
12.9972801,77.5609014,4.200120283651375,Circle Ganapathi Temple,place of worship
13.0370746,77.5656715,3.505804239321372,Maha Bazar,grocery
12.994291,77.6196026,4.052056284323165,St Aloysius Pre Unniversity College,education
13.0005858,77.6148025,3.1970405031281355,Alibaba Cafe & Restaurant,food service
13.0594414,77.5928689,4.463809042291506,tuc inn,food service
13.0050766,77.5806041,2.033360666330677,Indian Bank,financial
12.9867912,77.5794891,3.876023637195455,Coastal Express,food service
13.0240517,77.5479481,4.84461897623489,Bank of Baroda,financial
13.023952,77.5481032,4.826716990306494,Corporation Bank,financial
13.0237386,77.5481786,4.816108128633343,State Bank of India,financial
13.0138137,77.5694411,2.5610351525455584,Satish Dhawan Auditorium,education
12.9894357,77.5729477,3.933076271460909,Hotel Samrat Residency,lodging
13.0273009,77.5785761,1.741932589776833,Madeena Masjid,place of worship
13.0255583,77.5797517,1.536836572082095,Gurudwara,place of worship
13.0304259,77.569741,2.7488705463576695,Ghar ka Khana,food service
13.0298117,77.5783199,1.9216972581169842,,financial
13.0305385,77.5698806,2.7410587612820128,Darband,food service
12.979285,77.5748279,4.839669554242029,JP Cordial,lodging
12.9789865,77.574935,4.865678645983818,Rajaprakash,lodging
12.9805241,77.5750066,4.70551920301396,Ksheera Sagar,lodging
12.979643,77.5751455,4.789560871279304,Hotel Kapila,lodging
12.9788091,77.5750078,4.88080748449926,Rajadhani restaurant,food service
13.0117173,77.5553872,4.09758757252964,Nando's,food service
13.0113691,77.5553953,4.1048750946703265,Toscano,food service
13.0106616,77.5553953,4.122497970241097,Mainland China,food service
13.0321646,77.5765785,2.2325037610435396,Reliance Fresh,grocery
13.0108687,77.5552043,4.13734330268542,KFC,food service
13.0630099,77.582539,4.976321959518695,UCO Bank,financial
13.0630099,77.5825229,4.976696630379224,,financial
13.0581249,77.5877178,4.346825701778332,More Supermarket,grocery
13.0579988,77.590347,4.308853481213659,Anjaneya Hanuman Temple,place of worship
13.032436,77.6088298,2.30251285190221,,financial
13.0324467,77.6087814,2.2992182690916696,,financial
13.0318249,77.6084004,2.2235671270022497,,financial
13.0304891,77.6081971,2.115828980948607,Peacock Restaurant,food service
13.0431053,77.5567496,4.682119365635003,Indian Oil,fuel
13.0426689,77.5568435,4.646424152610992,Bharat Petroleum,fuel
13.0304655,77.6088898,2.175475380791496,Varasiddi Vinayaka Temple,place of worship
13.034755,77.6092368,2.5060370396910723,Indian Institute of Business Studies,education
13.0313749,77.6131942,2.6224973923616886,BBMP Kavalbyrasandra,office
12.9920336,77.5763265,3.496420296981626,,place of worship
13.0044109,77.5668934,3.2213753270982193,Sree Charan Bank,financial
13.0255016,77.6033615,1.3732170095192735,,financial
13.0269431,77.60086,1.2499129332145533,Rama temple,place of worship
13.023275,77.6002829,0.9616023474375341,"Blue Rose, Home Needs",grocery
13.0145004,77.635717,4.723110170849645,Empire Restaurant,food service
13.0232887,77.6005444,0.9875311838513164,,financial
13.0232564,77.6006133,0.9926090065512867,Axis Bank ATM,financial
13.0222291,77.6004298,0.9288890387743791,,financial
12.9870577,77.572403,4.188966972640134,Hotel Blue Diamond,lodging
12.9968415,77.5802618,2.8223703489165777,Prashanth Grand,food service
12.9985485,77.5840303,2.479240473955647,Nandini palace,food service
12.9980346,77.5840974,2.529916997138444,Sindhu palace,food service
12.9945651,77.6077839,3.2159971441274027,Nandi Bakery,food service
12.9955047,77.6081944,3.151040691730231,Best of Bengal,food service
12.9959438,77.5548935,4.822556699854159,Cafe Coffee Day,lodging
12.9916432,77.5578265,4.846476909849702,HP,fuel
12.9917517,77.5576615,4.852681307570753,Mallika Residency,lodging
12.9877059,77.5596356,4.9943008650487855,Citibank,financial
12.9825204,77.5705174,4.727226638157133,Gethsemane Church,place of worship
12.9809636,77.6105003,4.69226976816447,,transportation
12.9816803,77.6081354,4.517189388825333,,transportation
13.0250642,77.5781578,1.6707661730055734,,grocery
13.0293289,77.5617382,3.5039205990195494,Chandrappa Hotel,food service
13.0057592,77.5804279,1.9873047454016237,Sattvam,food service
13.028009,77.5728764,2.3262345635796198,Bhaga's,food service
13.0281424,77.5733461,2.286405993417285,Tomatoes,food service
13.0273348,77.5765728,1.93344120686089,Darasuni,food service
13.032401,77.5669086,3.1222550075999806,Deccan House,food service
13.0012808,77.5783329,2.5173946913251193,ICICI Bank,financial
13.001239,77.5783221,2.521803232104499,HDFC Bank,financial
13.0002354,77.5781558,2.622111781923202,Karnataka Bank,financial
13.0279014,77.5734479,2.265009759476635,New Zealand Natural,cafe
13.0598353,77.5776438,4.782379127965959,Naidu Bar and Restaurant,bar/club
13.0598058,77.5767863,4.811153003534767,Sree Mahaganapathi Temple,place of worship
13.0600947,77.5766579,4.846116478418895,Ranganatha Bar and Restaurant,bar/club
13.06084,77.5756311,4.9633956568679265,Union Bank,financial
13.0334247,77.5580362,4.040499754648201,Canara Bank,financial
13.0099021,77.5691461,2.7274297682433226,Malleswaram 18th Cross,transportation
13.0229372,77.5848295,0.9144540221808999,Adyar Ananda Bhavan,food service
13.0423996,77.590674,2.5753550202883506,,place of worship
13.0213985,77.6005015,0.9081738825305491,Lakshmamma Petrol / Gas Station,fuel
12.9765112,77.5799146,4.946463352789714,Bharat Petroleum,fuel
13.0030286,77.6349993,4.957192160377204,Srinivasa Petrol / Gas Station,fuel
12.9829727,77.5713648,4.637985195548425,Diamond Petrol / Gas Station,fuel
12.9873459,77.5723926,4.162158745346222,Vijees Auto Gas,fuel
12.9924448,77.5757103,3.490954173807158,,financial
12.9893245,77.5740161,3.882892834658333,Sri Rama Temple,place of worship
13.0178488,77.6364588,4.775920356144088,Kammanahalli,food service
12.9814915,77.6083334,4.544742723041598,Nutan Silks,clothes
12.9814677,77.6084953,4.553879167506412,Geetanjali,jewellery
12.9811057,77.6102575,4.66695261058597,Hotel barbies,food service
13.0107155,77.5551055,4.151654224477609,RMKV Silks,clothes
13.0101543,77.5549659,4.1811172266144085,Landmark,grocery
13.0118764,77.5551018,4.124272031514422,,clothes
13.0110782,77.5553337,4.118454841713135,Zara,clothes
13.0110818,77.5549821,4.155516780693745,Zara Men,clothes
13.010998,77.5553637,4.117276778172484,Reebok,clothes
13.0109524,77.5549746,4.1594976855777865,Nike,clothes
13.0108832,77.5550139,4.157073597684792,Puma,clothes
13.0107847,77.5548474,4.177120714211545,Tommy Hilfiger,clothes
13.0107337,77.5549727,4.165194019701808,Wills Lifestyle,clothes
13.0102981,77.5548904,4.1851974549997255,Chemistry,clothes
13.0101323,77.5548867,4.190035154332302,Levi's,clothes
13.0102817,77.5549652,4.177766839355314,United Colors of Benetton,clothes
13.0104166,77.5549615,4.174580138352761,Jack & Jones,clothes
13.0105752,77.5549709,4.1694507245590104,Mango,clothes
13.0104931,77.5551673,4.150904913564803,Westside,clothes
13.0105114,77.5553655,4.129559289567491,Balckberrys,clothes
13.0104421,77.5553842,4.1294226896464155,Bata,shoes
13.0101086,77.5551093,4.16729345480136,Lee,clothes
13.010094,77.554969,4.182427967248328,Wrangler,clothes
13.0101286,77.5548006,4.199183371571872,Central,clothes
13.0106061,77.555373,4.126289366728166,PVR Orion Mall,cinema
13.0113825,77.554954,4.15126478516702,U.S. Polo Assn.,clothes
13.0112805,77.5549147,4.157844258763072,Provogue,clothes
13.0112384,77.5553907,4.1085092481664995,Rockport,shoes
13.0118174,77.5548097,4.156590839122038,Arrrow,clothes
13.0117593,77.5548097,4.157889311482233,Celio,clothes
13.0118562,77.5550328,4.1320458907314634,Zodiac,clothes
13.0118755,77.5549378,4.141701462543802,Louis Phillippe,clothes
13.0118153,77.5549732,4.139284519320962,Van Huesen,clothes
13.0118346,77.5553934,4.094264905270727,You Mee,food service
13.0116926,77.5552758,4.109963533619856,Pepe,clothes
13.0114881,77.5553553,4.106287114447008,Vinegar,food service
13.0114494,77.555384,4.104161666841442,Star Bazar,grocery
13.0117399,77.5551543,4.121769417996134,Colorplus,clothes
13.0115118,77.5549135,4.152529536154221,Mochi,shoes
13.0114838,77.5549511,4.1491969484517,Clarks,shoes
13.0115398,77.5551521,4.126599541048665,Allen Solly,clothes
13.0115096,77.5550527,4.137832863968624,Hush Puppies,shoes
13.0200701,77.5544961,4.1072651056811385,Hotel Grand Bee,lodging
12.9796492,77.6070313,4.685291492335247,Hotel Safina,lodging
12.9805404,77.6072557,4.600609802962549,Inmark,clothes
12.9820759,77.6090805,4.516473886088321,World of Titan,watches
12.9818276,77.6092079,4.547300741013045,Cafe Coffe Day,cafe
12.9814604,77.6104149,4.638239460421933,Mysore Saree Udyog,clothes
12.9819531,77.6088847,4.520567946401595,Sterling House,clothes
12.9819355,77.6082221,4.494497868457769,Shiv Sagar,food service
12.9984083,77.5823672,2.5647727139625753,Shri Anjaneya Swamy Temple,place of worship
12.9787644,77.5750024,4.885618665565255,Rajadhani Pub,bar/club
12.9787148,77.5743399,4.918818027205913,Skipper Bar & REstaurant,bar/club
12.9787017,77.5742352,4.924676896090381,Gandharva Upahāra,food service
12.9786599,77.5740904,4.935223149776985,Rajath Lodge,lodging
12.9786625,77.5739751,4.93999331221121,Durga Bar & Restaurant,bar/club
12.9772171,77.5766278,4.98166668511096,Sajjan Lodge,lodging
13.0022734,77.6177342,3.3343569239147146,State Bank of India,financial
12.9937001,77.571322,3.649384390381609,The Basil,lodging
12.9797671,77.5858092,4.453479465568868,CMS,education
12.9797725,77.5747917,4.791439587614378,Sandhya Lodge,lodging
12.9770921,77.5795669,4.894931284758126,Hotel Grand Inn,lodging
12.9790476,77.5935254,4.477523197086174,High Court Canteen,food service
13.0209593,77.5844241,0.8835578911616755,Hotel Check Inn,lodging
13.053347,77.5980418,3.8348687472504066,Kerala Coast,food service
13.0514047,77.6011967,3.6948803840296045,Sri Kalyana Lakshmi Venkateshwara Temple,place of worship
13.0499598,77.5976135,3.4556787279395706,ICICI Bank,financial
13.0388864,77.6249175,4.141577821309271,Hotel Raj Elegance,lodging
12.9888891,77.5933559,3.3831233534590974,Au Bon Pain,food service
13.0039535,77.5836175,1.9537976343333423,Citibank,financial
12.9943529,77.5946809,2.7849762636113113,Canara Bank,financial
12.9943998,77.5945632,2.778677242258063,Watson's Pub,bar/club
13.0019713,77.5723357,2.904839825852086,Canara Bank,financial
13.0020277,77.5707457,3.0319221189391903,Maiyas,food service
13.0040275,77.5712572,2.8514657002072563,Sri Raghavendra Swamy Mutt,place of worship
13.0046507,77.5719519,2.7497543022745576,,place of worship
13.0371532,77.5896694,2.0071038784284183,Saaga,food service
13.0364837,77.5895892,1.9348513489859747,The Royal Senate,lodging
13.0292523,77.5829489,1.507644673375947,UAS School,education
13.0267368,77.5871118,1.0059977088826304,,food service
13.0279465,77.5734212,2.2697516382957144,Nupur Kholapur,food service
13.0030548,77.619863,3.4807613557677435,Azhar Furnitures,home furnishing
13.0273584,77.5763017,1.9607318618411216,Cafe Rossini,cafe
13.0290865,77.5664915,3.0103535479901926,,financial
13.0290286,77.5664063,3.0166469022710225,,financial
13.0298041,77.570686,2.626381024109178,,financial
13.0271442,77.578158,1.7723855203154009,Axis Bank,financial
13.0273425,77.5716941,2.414861735975844,Hav Mor,food service
13.0282068,77.5729312,2.3301003875769153,,financial
13.0274551,77.5716885,2.420088362072126,,financial
12.9902879,77.5645516,4.417060219579233,Government Public Library,education
12.9915519,77.5639515,4.36117605485614,Muneshwaraswamy Temple,place of worship
12.9801755,77.6049823,4.559032552468174,The Monarch Luxor Hotel,lodging
12.9960866,77.5543901,4.860147678286267,Raghavendra Swamy Mutt,place of worship
13.0345701,77.5681316,3.1297111605539403,U4IA,bar/club
13.0400516,77.5573893,4.439551051494777,Union Bank of India,financial
13.0403573,77.5574215,4.45434342570963,Vijaya Bank - Gokula,financial
12.9820126,77.6086888,4.506135989945282,C. Krishnaih Chetty & Sons.,jewellery
12.9818715,77.6094935,4.555320354385344,Woody's,food service
12.9815508,77.607875,4.519986585349365,Gold Palace,jewellery
12.9816494,77.6084262,4.532348041914904,Alice Jewellers,jewellery
13.0271868,77.5718405,2.3937401024032807,Wang's,food service
13.0282886,77.5714981,2.4751722004444696,Relish,food service
12.9808323,77.6023684,4.4116571665841064,Noor and co,home furnishing
13.0169921,77.5914678,0.27578369912339445,Empire Hotel,food service
13.0174207,77.5916073,0.22592707379175736,Coral Tree by Goldfinch,lodging
13.0174262,77.5916716,0.22280006669516247,Kudla,food service
13.0168458,77.591398,0.2936926646895383,Adiga's,food service
13.0184767,77.5918916,0.10683840313985533,,fuel
12.9757617,77.6026084,4.965975323228354,Church Street Social,food service
13.0192552,77.5707254,2.348157445781922,Divecha Centre for Climate Change,education
12.9807537,77.6073428,4.581724121869411,C. Krishniah Chetty & Sons,jewellery
12.9760259,77.6032365,4.953028527189904,Joyalukkas,jewellery
13.0365347,77.5620534,3.80532532910366,Muthuraiswamy Ayappa Temple,place of worship
13.0349227,77.5614892,3.7724391218395343,Shiva Temple,place of worship
13.0356902,77.5634153,3.630582242809183,Lakshmi Tent,cinema
13.0108784,77.5788998,1.7366890119987612,Chevron Orchards Hotel,lodging
13.0053577,77.5810409,1.9793804040881462,Cafe Coffee Day,cafe
12.9977551,77.6205782,3.880627303620353,Sri Devi Café,food service
12.9896328,77.5751613,3.790862459039965,Hanuman Temple,place of worship
12.98415,77.5781517,4.2023161624209235,Hotel Sanman,food service
12.9955091,77.5546879,4.867444224806991,City Central Library,education
13.0413885,77.6223832,4.072214899722244,Biryani House,food service
12.9818224,77.610245,4.593977627817041,Corporation Bank,financial
12.9818877,77.610465,4.597488586236803,Citibank,financial
12.981859,77.6102799,4.591880045379617,Corporation Bank,financial
12.9844175,77.6033409,4.0558462663242505,Sreeraj Lassi Bar,cafe
13.0124022,77.55478,4.147221532013572,District 6,bar/club
13.062591,77.582191,4.939142499136479,Hopcoms Fruits N Vegetables,grocery
13.0285702,77.5714972,2.488068824308311,Chung Wah,food service
13.0268022,77.5794516,1.6320685288870758,Brahmin's Thatte Idli,food service
13.04098,77.6243953,4.2220159541848155,Adyar Ananda Bhavan,food service
13.006693,77.5792022,2.002394710222756,Pulimunchi,food service
13.02565,77.579972,1.5203043167167374,,place of worship
13.0230972,77.5848995,0.9157244814425882,Union Bank of India,financial
12.9976504,77.6095995,3.044263001707112,Bank of Baroda,financial
12.9978263,77.6097252,3.0372168113446714,Axis Bank,financial
12.997797,77.6096526,3.03492828335684,Bank of Baroda,financial
12.9947176,77.6153985,3.6986841320172124,IndusInd Bank,financial
12.9974931,77.6103558,3.1087205640697877,Axis Bank,financial
12.9974461,77.6100447,3.091846724722896,Kotak Bank ATM,financial
12.9982667,77.6087143,2.93156286252229,Union Bank of India,financial
12.999644,77.611418,3.003733175588545,Bank of Baroda,financial
13.0002582,77.6112114,2.938841342517522,State Bank of India,financial
13.000752,77.6131248,3.048805552081823,Richies Rahhams Families International,food service
13.0007619,77.6131533,3.050336200312497,Axis Bank,financial
13.0228946,77.6291301,3.999208624282457,IndusInd Bank,financial
13.0234056,77.6296912,4.065679427954884,HDFC Bank,financial
13.0212073,77.6284431,3.9105262376547336,Lakshmi Vilas Bank ATM,financial
13.0256823,77.6303846,4.175815316143828,HP Petrol Pump,fuel
13.0256788,77.6303209,4.168948717169776,ICICI Bank,financial
12.9952969,77.6144743,3.5837535822310103,HDFC Bank,financial
12.9939906,77.6154041,3.7592255210859005,Citibank,financial
12.9940387,77.6156783,3.7750049693263668,Kotak Mahindra Bank,financial
13.010788,77.5549164,4.169756956361616,McDonald's,food service
13.0199268,77.5951979,0.3110242479992112,,financial
13.0189413,77.5708021,2.340184153459286,Coffee Club,cafe
12.9891614,77.5722338,4.000574431911715,Swathi,food service
12.9897351,77.5720458,3.9585986637014576,State Bank of India,financial
12.9896751,77.5720525,3.963737377319608,Ganesh Veg,food service
13.0041482,77.5498362,4.9094987543101585,Eshwari Matching Center,clothes
12.9893934,77.5736314,3.897898339153106,Sri Sai Mens PG Hostel,lodging
13.0019334,77.5784395,2.452891079195103,Aditya Hotel,food service
13.0019072,77.5775638,2.514741773620169,Government Central Library,education
13.0019405,77.5777151,2.5014377014901195,,place of worship
13.0183459,77.5572174,3.813045935050105,F A Tea stall,cafe
13.0069934,77.5693219,2.850250303763232,Five Star Veg,food service
13.0188238,77.5574002,3.7921318390055765,New Sagar Fast Food - Vegetarian,food service
12.999115,77.5695329,3.3429587707095636,Kanchipuram Varamahalakshmi silks,clothes
13.0244173,77.5489753,4.738722118127781,KFC,food service
13.0070927,77.5693166,2.845469791007451,Five Star Chicken,food service
13.0018587,77.5711353,3.0114488245142423,Mohan Bhandar,grocery
13.0035401,77.5713502,2.8760776045045677,McDonald's,food service
13.0105999,77.5953412,1.0185337432848052,Elegant Guest House,lodging
13.0452129,77.626801,4.710689755253767,PVR,cinema
13.0425009,77.5658935,3.8601725581826005,Vrushi Apartment,residential
13.0374157,77.5661276,3.486877739987587,Ibaco,cafe
13.0216054,77.5587327,3.6563804093777295,Goli Vada Pav,food service
13.0218114,77.5586653,3.665336796015847,Aastha Mess,food service
13.027416,77.5610663,3.5124443817093822,Thanco's Natural Ice Cream,food service
12.9916712,77.5712761,3.8309371192546164,Citibank,financial
13.0035234,77.6166155,3.1559917995344082,ICICI Bank,financial
13.0036378,77.6166655,3.153452713603214,Indiradarshini,cafe
13.0033101,77.607122,2.3885640288732444,,place of worship
12.9878361,77.574957,3.9764129203270313,Sri Krishna Devasthana,place of worship
12.9877862,77.5744684,4.006694594352146,Kashi Vishwanatha Temple,place of worship
12.9862102,77.5741379,4.1776687306228775,Bhavani Tiffin Center,food service
13.0279983,77.5726967,2.3434579678946372,Chung Wah,food service
13.0289716,77.5633966,3.3210157064797556,NIAS Main Eating Point,food service
13.0207677,77.5929009,0.1719862137792942,Cafe Coffee Day,cafe
13.0207547,77.5929974,0.17422242362140666,Namdhari Fresh,grocery
13.0207547,77.5930859,0.17800679498068256,Andhra Bank,financial
12.9791721,77.5934264,4.4634044555885275,Canara Bank,financial
12.981906,77.5956848,4.173225881747533,KGID Canteen,food service
12.9920489,77.5706285,3.8400332775537755,INOX Malleshwaram - Mantri Square,cinema
12.9921796,77.5705158,3.836109860502602,Swenson's,food service
12.9913252,77.5713263,3.85863919948712,,financial
13.0302272,77.5627649,3.4327276602639514,Freedom Cafe,cafe
13.0181725,77.5645445,3.020379503872686,Shubodhaya Children Care Centre,education
12.9813859,77.6014187,4.327611434039754,Santosh Chat,food service
12.9833614,77.6033233,4.167751932486726,Canara Bank,financial
13.0374079,77.5654203,3.549205601544644,Akshaya Deluxe,food service
13.0194557,77.6280049,3.857350593283349,Sai Baba Temple,place of worship
13.0017604,77.5783235,2.4757858862921713,Atithis,food service
13.0188187,77.6270726,3.7566956405913867,Lakshmi Narasimha Swamy Temple,place of worship
12.9759093,77.6041339,4.9895091933426166,Juice Junction,food service
12.975913,77.6032463,4.965476767075572,State Bank of India,financial
12.9756151,77.6029253,4.98960354518334,Bundle Company,food service
12.9759265,77.6026202,4.948398226172828,Corporation Bank,financial
12.9760128,77.6035442,4.9624497529860285,D'Decor,jewellery
12.9757645,77.6021528,4.954910624000846,Shri Sheeshmahal Restaurant,food service
12.9757795,77.6021059,4.9521995480123975,Lais Bar & Restaurant,bar/club
12.9758717,77.6017753,4.9346841414125775,Pecos Pub,bar/club
12.9761907,77.6026409,4.920275042315961,Paresh Lamba Signatures,clothes
12.9759033,77.6022279,4.9415797746650485,Sri Lakshmi Comforts,lodging
12.9762305,77.6021439,4.904090357805296,Coolwell Electrix,grocery
12.9762047,77.6026564,4.919137516291154,Drinks,bar/club
12.9761842,77.602631,4.920737458006294,Union Bank,financial
12.9775007,77.5883584,4.668452001351679,Syndicate Bank,financial
12.9775686,77.5880097,4.664636252639403,Sri Ramanjaneyaswamy Temple,place of worship
12.9782832,77.5879912,4.585806013893347,State Bank of India,financial
12.997771,77.571072,3.3271878914677577,Adyar Ananda Bhavan,food service
13.0038136,77.6295207,4.37481719827514,Rao's Corner,grocery
12.9875847,77.573008,4.104991962999916,,place of worship
12.9876025,77.5736105,4.070254314592678,Sri Manjunatha Condiments,cafe
12.9835609,77.6064216,4.254477685483478,Masjid-e-Beoparian,place of worship
13.0033773,77.6295176,4.393835526965385,,grocery
13.003513,77.6295457,4.390566251230475,,grocery
12.9766765,77.5777178,4.999352497070347,Sukh Sagar,food service
13.0014136,77.628881,4.424573850147475,HDFC Bank,financial
12.998073,77.6282625,4.546142354155425,HDFC Bank,financial
13.0076007,77.5710725,2.6516473462170342,Shree Yummy's Palace,food service
13.0015949,77.6301221,4.536300224078634,Saravana Store,grocery
13.00157,77.6315189,4.674264740607826,Bharat Petroleum,fuel
13.0019536,77.6319019,4.694230330485494,Nisha Supermart,grocery
13.0016726,77.6305078,4.570270042449922,Sri Murugan,grocery
13.0016824,77.6305565,4.574570078564537,Guru Darshan,food service
13.0019219,77.6317445,4.680143365475278,Spark,clothes
13.0019326,77.6317974,4.684873196491708,ICICI Bank,financial
13.0017248,77.632187,4.732857435641364,South Indian Bank,financial
13.0014363,77.630759,4.606141632997054,Reliance Fresh,grocery
13.0195687,77.6371797,4.851368741478142,Arirang Korean Restaurant,food service
12.9965093,77.6278623,4.602553460697065,,place of worship
13.0055578,77.5711662,2.7617199134419046,Karur Vysya Bank,financial
13.0055552,77.5708738,2.7883210658582778,South Indian Bank,financial
13.0026027,77.6288762,4.366257541900603,,place of worship
12.9826791,77.61051,4.520129921345294,Khan Saheb Grills and Rolls,food service
12.9816001,77.6101732,4.613160036071824,Wrangler,clothes
12.9819526,77.6103232,4.584430866803095,Moksh Studio,clothes
12.9817301,77.6104468,4.612515604392034,Moksh,clothes
12.9813006,77.5972585,4.258003346231735,ATM,financial
12.9942736,77.5715823,3.5820383197405277,Al Bek,food service
13.0087724,77.5635729,3.3352762197849204,Parota Point,food service
12.9843074,77.5913805,3.892567089173312,Muscle Power Exhibit,attraction
13.0076756,77.5640516,3.332156536342127,Shristi Sagar,food service
13.0079066,77.5639571,3.331742447171087,Corporation Bank,financial
13.0247172,77.5483657,4.808352905063969,More,grocery
13.0125912,77.5823361,1.321080629515311,GTS Baseline Survey Point,attraction
13.0005533,77.6233992,3.9528024315953836,Canara Bank,financial
12.9765168,77.6029754,4.893314243208874,Dasaprakash,food service
13.0056797,77.5806627,1.9775583416766822,Nature's Basket,food service
12.9985096,77.5700901,3.344642362101664,State Bank of India,financial
13.0014995,77.6308859,4.615531237254903,Canara Bank,financial
13.0016891,77.6297661,4.497011947273828,Sri Murugan,grocery
13.0016102,77.6313676,4.657517404751819,New Ambur Hot Dum Biryani,food service
13.0015192,77.6309522,4.621083421844271,Singapore Bazaar,clothes
13.0022213,77.6295524,4.450606340268507,NFS,grocery
13.0030529,77.6294349,4.400325511879824,,grocery
13.0015756,77.6290245,4.430423223884311,Janatha,clothes
13.0014203,77.6289872,4.434520586943754,Ajanta,clothes
12.987086,77.6189974,4.597272898337225,Shanti Sagar,food service
12.9815363,77.5955973,4.21339635191912,,financial
13.0033921,77.5783685,2.332349859210927,Pakvan,food service
13.0041697,77.5822694,2.008761754758594,HDFC Bank,financial
13.0579847,77.5919058,4.3018755111127644,More,grocery
13.0305442,77.5951073,1.2842374516042154,Md Guest House,lodging
13.0301654,77.5934939,1.2139754448628886,,place of worship
13.0608187,77.5873,4.649607955323423,Freska,food service
13.0611505,77.5871136,4.688666442835949,Third Wave Coffee Roasters,cafe
13.0591909,77.5875414,4.466782365673195,Hyderabad Biryani,food service
13.0589975,77.5875951,4.444742840982954,Adigas,food service
13.063622,77.5909427,4.930909233869384,ICICI Bank,financial
13.0623962,77.5930084,4.792531985782444,The Big Market,grocery
13.0632832,77.5917375,4.891235223358915,HDFC Bank,financial
13.0637714,77.5905824,4.948912390721743,Svensens Icrecream,cafe
13.0165683,77.5709518,2.3434067808367387,Department of Computational and Data Sciences,education
13.016558,77.5707323,2.3671354806799854,Supercomputer Education and Research Centre,education
13.023272,77.5615952,3.3663588750294444,Sri Varasiddhi Vinayaka Swamy Temple,place of worship
12.9875355,77.6190745,4.563719798358735,,food service
12.9875472,77.6189672,4.555358424764037,Lake View Supermarket,grocery
12.9875826,77.6188927,4.547208746565943,Moritz Nano Restaurant,food service
13.00579,77.5932698,1.505196134832632,Axis Bank,financial
12.9908548,77.6192753,4.299137928302454,Watson's Ulsoor,bar/club
12.9908261,77.6193188,4.304678127711745,Cafe Thulp,cafe
12.9991564,77.6157298,3.377221813425579,Hides Inc,shoes
13.0053566,77.5712414,2.7674097338975634,Oye Lassi,cafe
13.0148535,77.6336331,4.49437188409681,Maha Bazar,grocery
13.0054082,77.5691051,2.9589622472702874,Udupi Upachaar Veg,food service
13.0084103,77.5636893,3.337867565116492,Groceries,grocery
12.9812314,77.6017194,4.351792719355281,Bank of Baroda,financial
12.9812106,77.6018221,4.356636319573194,Sultania Arts Emporium,clothes
12.9811084,77.6014285,4.357915088032495,Lakshmi Vilasa Bank Ltd,financial
12.9825997,77.6028514,4.235075277738139,Amanath Co-op Bank Ltd,financial
12.982353,77.6018643,4.234352672452776,Prem Nivas,lodging
12.9806364,77.602787,4.44404851208547,Hotel Metropole,food service
12.9808223,77.6024278,4.414314852795949,Elite Furnishers,home furnishing
13.0085444,77.5695202,2.752209160241779,Chai Point,cafe
13.0467933,77.5951892,3.072011237941379,Kempapura Masjid,place of worship
13.0025965,77.5981195,1.957982874438583,Nilgiri Supermarket,grocery
12.9802643,77.6022173,4.468996350027679,Indian Overseas Bank,financial
12.9824437,77.6021511,4.232217727123282,Karnataka State Co-operative Apex Bank Ltd,financial
12.9800143,77.6023523,4.499484010729546,Indian Overseas Bank,financial
13.063575,77.5901585,4.929139666711427,Reliance Trends Footwear,shoes
13.0632045,77.592116,4.882054592071324,Domino's,food service
13.0633532,77.5906518,4.9021516636144264,Reliance Fresh,grocery
13.0631724,77.5914073,4.879573386523756,Bank of India,financial
13.0607699,77.5896859,4.620606037020624,The Janatha Co-Op Bank Ltd,financial
13.0633333,77.59087,4.899083933006388,IndusInd Bank,financial
13.001646,77.6316638,4.684955453861465,Axis Bank,financial
13.0014876,77.6295123,4.482132443885089,Temple,place of worship
12.9944952,77.6159529,3.7575272516250955,South Inn,food service
13.0012204,77.6326913,4.805866058640855,Cinepolis,cinema
13.0042413,77.6358455,4.995848525541613,Temple,place of worship
12.9954132,77.5981361,2.7278253253857816,,residential
13.0018629,77.5988299,2.060261093671463,HDFC Bank,financial
13.0016723,77.5506179,4.9328452203340944,Akshaya Mini Bazaar,grocery
13.0038504,77.5534613,4.554993709924695,Domino's,food service
13.0038472,77.5495336,4.951821185701664,Malabar Jewellers,jewellery
12.996332,77.6170443,3.694786586451842,ಕೋಮಲ ರಿಫ್ರೆಷ್‌ಮೆಂಟ್ಸ್,food service
13.0253206,77.6035555,1.3815684310032843,Corone Fresh Spices and Dry Fruits,grocery
13.025295,77.6036548,1.389620821613671,Juba Cafe,cafe
13.0253614,77.6036609,1.393755996958195,KGN Provision Store,grocery
13.0257661,77.6037904,1.4281687998307795,Dream Wear,clothes
13.025883,77.6038199,1.437506157389752,Manoj Textiles,clothes
13.0266169,77.6040449,1.501151819505074,GM Time Center Watch Repair,grocery
13.026938,77.6041637,1.5314916788483381,Marian Kids,education
13.0270552,77.6041687,1.5392053705360942,Deluxe Bedding and Sofa center,grocery
13.0276254,77.6043712,1.5934053461841111,"Mona Nursery, Primary and High School",education
13.0276582,77.604326,1.5915493290828335,Prem Fancy Store,grocery
13.0276805,77.6043445,1.5946244799139033,Sri Vinayaka Hot Chips,grocery
13.0278433,77.6043961,1.6097796783946523,Raghavendra Jewellery Woris,jewellery
13.0243972,77.6032595,1.3058797412343812,Sree Guru Cool Joint,lodging
13.0244213,77.6032614,1.3072302920810368,Star Health,financial
13.0252198,77.6034014,1.3615349312042873,Citrus Dress Materials,clothes
13.0252496,77.6036506,1.3868063863032076,Joy IceCream,cafe
13.0263546,77.6039914,1.4806280087632213,Nizam Collections,clothes
13.0267584,77.6040579,1.5109140957621745,Time House,grocery
13.026904,77.6041555,1.528658232053335,Veena Collections,clothes
13.0272339,77.60426,1.5585686146608082,A1 Ambur Biryani,lodging
13.024064,77.6031704,1.2814361728400079,Cafe Coffee Day,grocery
13.0240911,77.6031919,1.284803926084313,Manjunatha Condiments,grocery
13.0265159,77.6040547,1.495990908773266,SR Consultant Real Estate,grocery
13.0266962,77.6040529,1.5066750784757956,Yakshini Condiments,grocery
13.0267483,77.6041132,1.5153113165446979,,financial
13.0275314,77.6042985,1.580927461130317,MHN Jewellers,jewellery
13.0275936,77.6043528,1.5897295614657403,Goli Vadapav No.1,food service
13.0276765,77.6043712,1.596713118684188,Chitra Darshini,food service
13.0276316,77.604326,1.5898239922433712,Shree Basaveswara Frame Works,grocery
13.0246416,77.603385,1.330052816756478,Mangalore Jewellery Works,jewellery
13.0249623,77.6034912,1.3565352744461183,Sri Manjunatha Fast Food Hotel,lodging
13.025264,77.6035286,1.375975736291261,Fashion House,clothes
13.0252958,77.6035419,1.3789444470605527,Dharmesh Jewellers,jewellery
13.0266474,77.6040449,1.502992570010943,Golden Choice Footwear,shoes
13.0266933,77.6041031,1.511059289496583,Seek n Hide Tours and Travels,grocery
13.0269861,77.6041889,1.5367322245818085,,financial
13.0277189,77.6044033,1.6022888496115097,Chaitra Pan,grocery
13.0277645,77.604407,1.6055811909936188,KGN FootWear,shoes
13.0278097,77.6043901,1.607052350589102,,financial
13.0234261,77.6028721,1.2237620378291303,Darshan Traders,grocery
13.0248424,77.6034721,1.348558337489009,Shakti Traders,grocery
13.0264161,77.6040116,1.4861141530747897,HMS Fast Food,food service
13.0266014,77.6040359,1.4993986210073595,Om Ganesh Juice Center,grocery
13.0274651,77.6042813,1.5751478158742012,Durga Pan Bhandar,grocery
13.0275697,77.6043333,1.5864674879114598,Mummy Daddy Garments,clothes
13.0267774,77.6040589,1.5121652310342508,Maharaja Hi Fashion,clothes
13.0269118,77.6041118,1.5251974943248692,Bangalore Time Center,grocery
13.027668,77.6043446,1.5938214478919657,Sleep Good Matress,grocery
13.0240447,77.6031596,1.2794845289733021,Vinay Bangle Store,grocery
13.0249337,77.6034778,1.3537751368451025,Sri Manjunath Pooja Stall,grocery
13.02502,77.6035096,1.361287001213673,Guru,grocery
13.0273351,77.6042946,1.5680443992844035,Pavithra Enterprises,grocery
13.0275755,77.6043124,1.584997292256533,Cool Corner,cafe
13.0247965,77.6034489,1.3439947004939827,Karnataka Provision Stores,grocery
13.0268892,77.6041118,1.5238044086391553,Five Star Chicken,food service
13.0269891,77.6041517,1.53357050432184,All Brands Collections,shoes
13.0270211,77.6041517,1.5355570490372725,Sri Kampli Someshwara Tiffin Center,lodging
13.0271564,77.6042369,1.5516382726477946,Jagathamba Bankers and Jewellers,jewellery
13.0122683,77.5534545,4.291117724331705,Reliance Smart Bazaar,grocery
12.9944824,77.6153605,3.715296748793912,ಮ್ಯಾಂಗಲೋರ್ ಪರ್ಲ್,food service
13.0222579,77.5922587,0.3292595111477394,Ujwal Bar and Restaurant,bar/club
13.022359,77.5927417,0.34215372618101997,Al Bek,food service
13.0214967,77.5924037,0.24426222425997407,Food World,grocery
12.9939183,77.5854854,2.9200485447701063,Royal Afghan,food service
13.0331587,77.6342405,4.78752256656035,HMR International School,education
13.0012948,77.6324696,4.78058886365911,Cafe Coffee Day,cafe
13.0016385,77.6327548,4.792876067032597,Shoppers Stop,clothes
13.0013092,77.6325644,4.789248237001937,Westside,clothes
13.0245213,77.6350534,4.657204928418818,Beijing Bites,food service
13.0454631,77.626723,4.721098967873761,Jammals,home furnishing
13.0456386,77.6267858,4.738494377303346,PVR entertainment,cinema
13.0255483,77.6370978,4.89193504985785,Sigree Global Grill,food service
13.0250222,77.6372087,4.895887248831288,Aioli BBQ & Grill Smoke House,food service
13.0260656,77.6370378,4.894007358938926,Unwined,food service
13.0456619,77.6267384,4.736061775882515,Payless Shoe Store,shoes
13.0456514,77.626682,4.7305411256958685,Reliance trendz,clothes
13.0456488,77.626725,4.734020112326661,Wood Land,shoes
13.0455861,77.6267196,4.729248880549407,Reliance Foot Prints,shoes
13.0454341,77.6267753,4.723578106914574,Spar,grocery
13.0453766,77.6267807,4.720109265611194,Bombay Dyeing,home furnishing
13.0454262,77.626711,4.717547602299156,Jockey,clothes
13.0453792,77.6267297,4.715928734535037,Max,clothes
13.0453896,77.6268558,4.727418346967211,Mom And Me,clothes
13.0453266,77.6267172,4.711266173286761,levis,clothes
13.0002869,77.5718472,3.070486991108303,Mumbai Spice,food service
12.9971223,77.5731217,3.2316871498472057,Hotel Vaishali,food service
13.0007561,77.5723691,2.9935578338235747,Asha Sweet Center,food service
12.9992108,77.5722756,3.121479390679693,Chandu's Deluxe,food service
13.0026752,77.5720532,2.8769034779585327,Sri Venkateshwara Hotel,food service
12.9972964,77.5718337,3.309241278822743,New Fishland,food service
13.00764,77.5640167,3.337177977956428,Srushti Coffee,food service
13.0067326,77.5642658,3.3531123696193763,Chetty's Corner,food service
13.0018939,77.5784746,2.4540107820285617,Hotel Ayodhya Upahar,food service
13.008246,77.563189,3.395006800702133,Brahmins Thatte Idli,food service
13.0078684,77.5570406,4.036192619587471,1522 the Pub,bar/club
13.0015902,77.6327951,4.799060870394057,Accessory Palace,clothes
12.9919067,77.5705078,3.860543629416813,Allen Solly,clothes
12.9917884,77.5702636,3.8871988340965147,Baboosh,clothes
13.0046726,77.5785939,2.2096935676495635,Chung Wah,food service
13.0056571,77.5690976,2.9453040218615607,1947 Restaurant,food service
13.0011236,77.6326985,4.8110872270211935,AND,clothes
13.0011184,77.632846,4.825835869410678,Arrow,clothes
13.0012099,77.6324625,4.78385290849054,Biba,clothes
12.9916897,77.5711243,3.83913962101602,Cocopelee,clothes
13.000891,77.632441,4.79676694432248,Celio(POI),clothes
13.0006977,77.6325269,4.81438223537773,Flying Machine,clothes
13.0006977,77.6327361,4.834858350474097,Global Desi,clothes
13.0006977,77.6328058,4.841684790854212,Go Colors,clothes
13.0015366,77.632838,4.805746722659393,Jack & Jones,clothes
13.0010139,77.632838,4.829929983602431,Levis(Poi),clothes
12.9914885,77.5711733,3.8538842855208713,AND,clothes
13.0009067,77.6326824,4.819691108806761,Marks And Spencer,clothes
12.9915734,77.5705023,3.89021621813047,Nike,clothes
13.0008257,77.6328326,4.838248903721905,Pepe Jeans,clothes
13.0011158,77.6324517,4.787202153129828,Soch,clothes
12.9914832,77.5710526,3.8621740286135,Columbia,clothes
13.0014529,77.6327548,4.801370742792522,U.S. Polo Assn.,clothes
12.9918688,77.5705197,3.863078415393,Fila,clothes
13.001304,77.6327334,4.806130827524493,,clothes
12.9916949,77.5710365,3.8443968489893208,Celio,clothes
13.0011289,77.6325617,4.7973932466547415,W,clothes
13.0010322,77.6325429,4.8000870891461105,Clarks,shoes
13.0010635,77.6327012,4.814164259474772,Skechers,shoes
12.9918152,77.570602,3.862327678452279,Cotton world,clothes
13.0014686,77.632838,4.808859945788144,Chera Silver Jewellary,jewellery
13.0007029,77.6324786,4.809408824794081,Bulchee,clothes
13.0012386,77.6325617,4.792267636008983,Casio,clothes
13.000959,77.6325429,4.803537767597792,Hidesign,clothes
13.000993,77.6327039,4.817737211052095,Just Watches,clothes
12.9916983,77.5711798,3.8347669242878584,Enamor,clothes
13.0009041,77.632618,4.813497112017956,Puma,clothes
12.9914701,77.5706442,3.8899912768946154,Fabindia,clothes
12.9916022,77.570586,3.882151395688634,Favourite Shop,clothes
12.9917024,77.5703066,3.8918622235662608,Puma,clothes
12.9920289,77.5712576,3.800321489671762,Fazals,clothes
12.9914706,77.5707615,3.882259543785729,Fusion Beats,clothes
12.9918207,77.5705006,3.868571805208684,Proline,clothes
12.9915868,77.5703571,3.898652055647312,Rebook,clothes
13.0499324,77.5980885,3.461462376941684,Desi Tadka,food service
13.0373064,77.6052013,2.435589577218152,Al Khair Restaurant,food service
13.0496657,77.597496,3.4213433470272125,Swastik Bar & Restaurant,food service
12.991691,77.5707302,3.864811900086883,Spar,grocery
12.9916575,77.5703119,3.895447463824259,Bata,shoes
13.0453348,77.626837,4.722072631646592,Gravity,clothes
12.991754,77.5711303,3.8330333398932037,Oval bar,food service
12.9916587,77.5707137,3.8687509700813467,Hush Puppies,shoes
12.9916423,77.5707645,3.8668611338472867,inc.5,shoes
13.0452407,77.6265876,4.694320872472954,people,clothes
13.0452041,77.6265447,4.688153859238004,Planet Fashion,clothes
13.0451728,77.6265313,4.684870719138584,Arrow,clothes
12.9915703,77.5703356,3.9015292573885034,Mochi,shoes
12.9916252,77.5702927,3.899559463872135,Rocia,shoes
12.9916252,77.5702927,3.899559463872135,Rocia,shoes
12.9915977,77.5703852,3.8958294558172257,Metro,shoes
13.0044548,77.5493716,4.945320196149538,Aramane Hotel,food service
12.9918159,77.570522,3.8675720076735307,Soles,shoes
12.9915402,77.5712596,3.843693793646417,Woodland,shoes
12.9908258,77.5578843,4.899877846401225,Navarang Kabab Corner,food service
13.0078812,77.5569436,4.045721094082306,White Horse,food service
13.0081283,77.5545993,4.279551032141698,Hotel Fish Palace,food service
12.9903931,77.5584441,4.88527267534223,Kudla beach,food service
12.9967355,77.5543173,4.828946908915214,Sagar caterers and hotel,food service
12.9917126,77.5708843,3.852779963486164,State Bank of India,financial
12.9966939,77.5687228,3.591514735882009,Hotel Moon Light,food service
12.9918756,77.5701543,3.8869041241693383,Rajhadhani Thali Restaurant,food service
13.0081862,77.5709853,2.6286529889845816,Pizza stop,food service
13.012299,77.5559803,4.021704840210133,High Ultra Lounge,food service
12.9987069,77.5699054,3.344070649480176,Iyer Mess,food service
12.9916087,77.5704303,3.8918720465961063,GINI Jony,clothes
12.9916688,77.5708192,3.8609261429829442,GlobalDesi,clothes
12.9915773,77.5706234,3.881884319938377,Go fashion,clothes
12.9917237,77.5707817,3.8585346879791134,Identity,clothes
12.9916584,77.5708621,3.859034243057089,Jashn,clothes
12.991478,77.5708273,3.8773021722852734,Jockey,clothes
12.9915068,77.5708648,3.872298043136503,Kalanjali,clothes
12.9914885,77.5710096,3.8644940422928644,Kushals,jewellery
12.9917812,77.5705456,3.869056451360641,Lakshitha,clothes
12.9917603,77.5705724,3.8691193621579214,Laven,clothes
12.9916281,77.570791,3.8663779035829178,Levi's,clothes
12.9912093,77.5712013,3.877043594548231,Lifestyle,clothes
12.9917551,77.5705993,3.8677965973827697,Louis Philippe,clothes
12.9914937,77.5709372,3.868740953497745,MaDAME,clothes
12.9916322,77.5708648,3.8611783114530436,Manyavar,clothes
12.991742,77.5706315,3.8668214633535407,Marks Spencer,clothes
12.9917237,77.5704196,3.8824735246751074,Methiyadi stop,shoes
12.9914911,77.5711143,3.8574704066910934,MINC,clothes
13.0313957,77.6359521,4.9061290679776945,Udupi Park Deluxe,food service
12.9982337,77.570518,3.332786628255508,Antarastriya,food service
13.0257816,77.6378902,4.980610017355202,Kera Cafe,food service
12.9917002,77.5704464,3.882758351841594,Reliance trends,clothes
13.0071899,77.5682268,2.944817353072096,Paakashala,food service
13.0220667,77.6302525,4.11231091476613,Raidan RestaurantRaidan Restaurant,food service
13.0050001,77.5654236,3.3271642255713925,Big Straw Boba Bistro,food service
13.0007571,77.563817,3.720334146695288,Sri Raghavendra Store,food service
12.9985408,77.5695317,3.3862543748249516,Satvik Grand,food service
13.0012483,77.5723483,2.95777867694775,Suchi ruchi veg,food service
13.0101274,77.5623351,3.413146430744819,KaatiZone,food service
13.0230092,77.6370539,4.855164616863819,Regency Park,food service
12.9917263,77.5706556,3.8666136895167593,Mom & Me,clothes
12.9918779,77.5704357,3.867871978412577,Mufti,clothes
12.9961953,77.5715924,3.417953397905307,A1 Biryani Restaurant,food service
13.0207053,77.6367655,4.808932202532042,Sukh Sagar,food service
13.0011281,77.5724061,2.9622835299058,Holige Mane,food service
13.0259481,77.6372048,4.909902105355089,Pars Restaurant,food service
12.9916348,77.5709185,3.857434907737799,Neeru's,clothes
12.9917339,77.5706166,3.868519908089385,UP south,food service
12.9915048,77.5704974,3.896587759668891,Sbarro,food service
12.9985137,77.5523235,4.918803900796013,Hotel Nalapaka,food service
12.9814422,77.6030131,4.363817625746472,The Grand Taj,food service
12.983648,77.6090046,4.353423870425209,K. V.,food service
13.059555,77.5909394,4.478947351121919,New Kritunga Restaurant,food service
12.9839499,77.5985328,3.9865158364578805,Tiger Trail,food service
12.9857716,77.6020901,3.8731896898172136,Hilal Restaurant,food service
12.9821477,77.6032233,4.2943543130188875,Impering,food service
13.006544,77.5647739,3.3120808006182823,viking,food service
13.02507,77.6319275,4.330021635877666,Chulha Chowki Da Dhaba,food service
13.028492,77.6347149,4.696730460802272,Paradox Resto-Cafe,food service
12.9997652,77.6173181,3.465028802670366,Shawarma king,food service
13.0239866,77.6329956,4.428713997837507,Tashan The Punjabi Cuisine,food service
13.0240994,77.6340746,4.546271040435306,Thran,food service
12.9914927,77.570894,3.8716447589955236,Prapti,clothes
12.9918978,77.5705614,3.8577601472405156,Pepe Jeans,clothes
12.9914326,77.5709262,3.87488852351458,PEORA,clothes
13.0245897,77.637388,4.9091579061178034,Beijing Bites,food service
12.9916416,77.5709799,3.852821354031004,Spring Summer,clothes
12.9914404,77.571012,3.868619781902705,Pantalons,clothes
12.9914378,77.5708377,3.8801913378763175,Rubans,jewellery
13.0455777,77.6266626,4.723818333068236,Arrow,clothes
13.0452694,77.6267082,4.706592221447765,Louis Phillppe,clothes
13.0454837,77.6266492,4.71621860435214,Peter England,clothes
13.0453218,77.6269445,4.730394130018521,Adidas,clothes
13.0452459,77.6266974,4.704065444198493,Aurelia,clothes
13.045144,77.6267189,4.69896786707246,,clothes
13.0451657,77.6267882,4.706383925599078,Soch,clothes
13.0452896,77.6269201,4.726113263748765,Melange,clothes
13.045145,77.6265266,4.682571240544204,mustard,clothes
13.0450945,77.6265054,4.677312997486241,Cafe Coffee Day,cafe
12.9914091,77.570968,3.874262624764383,Splash Fashion,clothes
12.9919004,77.5706473,3.8518305130130934,Satya Paul,clothes
12.991443,77.571173,3.8579647906941985,Spykar,clothes
12.9916486,77.5711196,3.843100858697467,show off,clothes
12.9917995,77.5707731,3.8524063877758508,Soch,clothes
12.9914127,77.570647,3.894887233617399,U.S. Polo Assn.,clothes
12.9914676,77.5707087,3.8859823140701124,United Colour of Benetton,clothes
12.9919093,77.5705987,3.85427232967025,V.Dot van heusen,clothes
12.991559,77.5705585,3.8877762725137086,Valentine,clothes
12.9914519,77.5711003,3.8618716825612185,Vastrra,clothes
12.9914393,77.5708015,3.8824207946404288,Voylla,jewellery
12.991729,77.5703768,3.884854403042422,Vijayalakshmi,clothes
12.9916854,77.5707845,3.86173609337893,Wills Lifestyle,clothes
12.991835,77.5705452,3.8643533238733343,Allen Solly,clothes
13.0050034,77.6233355,3.7094494218167418,HDFC Bank,financial
12.9948336,77.6107384,3.3687949139190314,Madeena Supermarket,grocery
13.0352764,77.5536076,4.562558656913937,More For You,grocery
13.0235383,77.6090101,1.860155966105409,Ahmeds Retail,grocery
13.0113287,77.5551092,4.136112989385324,Nike,clothes
13.0112427,77.5551711,4.131626683530949,Puma,clothes
13.0491797,77.5933878,3.324193838544602,Nike,clothes
13.0368102,77.57756,2.5249851318340033,Shopwell Supermarket,grocery
13.0273271,77.5782409,1.7747134108223765,Shopping Day,grocery
13.004258,77.6135288,2.835050252560954,Food Mart Super Market,grocery
13.0257621,77.6277381,3.89520850900816,Fine Fare Departmental Store,grocery
13.039288,77.5537006,4.745096040546331,I Mart,grocery
12.9915431,77.5704437,3.896759465944818,Columbia,clothes
13.0116586,77.555137,4.1254573722143,U.S. Polo Assn.,clothes
12.9860742,77.5781146,4.005635070868794,Seasons Serviced Apartments And Guest House,lodging
12.9759013,77.603038,4.96144945371862,Empire Group Of Hotels,lodging
12.9995759,77.6230526,3.979797510271158,Village Super Market,grocery
13.0400011,77.6256898,4.278355212725256,HKGN Stores,grocery
12.987183,77.5784519,3.877820946025102,Super duba Raggi Dosa,food service
13.0030193,77.6353183,4.989759579849321,Canara Bank,financial
13.0030191,77.6353049,4.988414840195291,Hot dum biryani,food service
12.9825626,77.607495,4.400234330070444,Manyavar,clothes
13.0056414,77.5689362,2.9612009478980825,ICICI Bank,financial
13.0056769,77.5691145,2.9426006988486932,HDFC Bank,financial
12.9820341,77.609063,4.51997631150394,Chai Point,cafe
12.9819606,77.6088172,4.516916942794432,Fabindia,clothes
12.9823616,77.6097828,4.518558657271618,Texs Mart,clothes
12.9825635,77.6077831,4.411838360852842,Occaision,clothes
12.9834015,77.6079389,4.332235892778534,Nagareswara Kanyaka Paramesgwari Temple,place of worship
12.9827674,77.6088014,4.433906792892567,Sagar Chats,food service
12.982693,77.6098436,4.487857911709958,TR Vysya Hostel and Choultry,lodging
12.9824503,77.6102305,4.530066764347258,Woodys,food service
12.9823184,77.6099499,4.530494171372803,Gopalan Corner,clothes
12.9822919,77.6099944,4.535193386779368,Shapes and Shades,grocery
12.9846121,77.6123858,4.423356205247528,Sabari Ayappan Bhajana Sabha,place of worship
13.0272334,77.571907,2.3889465473483678,Gilly's Resto Bar,food service
13.009057,77.5803021,1.7364081593986844,Starbucks,cafe
13.0056782,77.5806895,1.9758204417408634,Axis Bank,financial
12.9820158,77.6043514,4.343324054572234,Rickshaw Stand,transportation
12.983394,77.593893,3.995840498296341,Kynkyny Art,grocery
12.9983463,77.6206293,3.8447917916000276,Lemon Rice,food service
12.9887725,77.5885143,3.420509242819837,Bhagawan Sree Maruthi Temple,place of worship
13.0039002,77.6227483,3.7071212040186063,,financial
13.0164835,77.6051223,1.4134313237577898,Kaval Byrasandra,place of worship
12.9978602,77.5519674,4.987222359540111,Empire Plaza,food service
12.9984348,77.5530658,4.85215082653226,Nisarga Family Resturant,food service
13.0450568,77.6265787,4.681022152429387,Ibaco,cafe
12.9873322,77.5945159,3.5620416213604367,Cafe Coffee Day,cafe
12.9966984,77.5613324,4.200648243822024,Al-Bek,food service
13.0022575,77.5521631,4.7533648970765645,Goli Vada Pav,food service
13.0017261,77.5508671,4.90569498340483,Punjab National Bank,financial
13.0023588,77.5528147,4.684165534994291,,food service
13.0374651,77.5616603,3.89480508027821,Down bekary,cafe
13.0105439,77.5504232,4.650759778810345,Hotel Vande Matharam,lodging
12.9805787,77.571467,4.866421547201835,Sheetal Residency,lodging
12.987281,77.5949854,3.571352277748125,Yes Bank,financial
12.97916,77.5757304,4.814927088798304,Sri Ganesha Lodge,lodging
13.0041731,77.6068436,2.29736703124744,Syed Manzil,lodging
12.9962755,77.5733477,3.288678476144603,HDFC Bank,financial
12.9848107,77.601649,3.9637921847784705,Allahabad Bank,financial
13.0395696,77.6209443,3.826495008077769,PG,lodging
13.044455,77.5801705,3.0949963976336106,Brindavan College,education
13.0427167,77.5784812,3.0088972180345697,Ideal Home,lodging
12.9831856,77.6071236,4.320981453638872,Burger King,food service
13.0264736,77.599251,1.0895593677623476,Kingston school,education
12.9798988,77.5759082,4.731565441576151,Suntruppati,lodging
13.0250215,77.6312294,4.2544329594959605,,grocery
12.9890974,77.5936081,3.3609255659991195,Red Latern,food service
12.9777748,77.574757,4.99742918260427,Mayur Comfor Lodge,lodging
12.978436,77.5753365,4.905572251256865,Royal Regency Lodge,lodging
13.008043,77.548444,4.923909537140928,Canara Bank,financial
12.9782866,77.5753838,4.9190410539708855,Royal Lodge,lodging
12.9777193,77.5748871,4.997763248852687,Manjusri Paradise Lodge,lodging
12.9853101,77.6069879,4.096665739061548,Taj Hotel,food service
13.0551593,77.599306,4.056946903419497,Canara Bank,financial
13.0552073,77.6002026,4.081197140501435,Union Bank of India,financial
13.0552084,77.6008534,4.096498179753999,Nice mart,grocery
13.0569362,77.6004968,4.275882505968583,EuroKids,education
12.9968223,77.6195998,3.864072350373897,Dolphins,food service
12.9948513,77.6160845,3.738329885642504,Perfect corner,food service
12.983464,77.6135965,4.59918434201813,BKS,education
12.9817232,77.6096011,4.575127749076809,Raikars,jewellery
12.9817647,77.6093429,4.5595794450896525,Rama's,clothes
12.9819252,77.6093637,4.544159356838911,Ritikas,clothes
12.9819362,77.6093274,4.5414510623468,Union Bank of India,financial
12.9817752,77.609303,4.556771607293343,Trendz shoes,shoes
12.9818648,77.6091062,4.539105638435755,Rocia,shoes
12.9824227,77.6075594,4.417269651414796,Arrow,clothes
12.9824555,77.6074612,4.409936156274878,Van Heusen,clothes
12.9824103,77.6074845,4.415539615191083,Poshaak,clothes
12.9825287,77.6075776,4.407065481589336,McDonald's,food service
12.9817537,77.6094508,4.565417038334462,Bollywood,shoes
12.9818192,77.6095041,4.561100721182754,Western Store's,clothes
12.9823415,77.6078182,4.43613511878339,Blackberrys,clothes
12.9998566,77.6251653,4.156380081475215,Udapas Veg Restaurant,food service
13.0025699,77.6343328,4.909140206324142,Gaurav,jewellery
13.0029704,77.6349278,4.952350657824539,Shri Ram Store,grocery
13.015025,77.6358463,4.730806906383281,Nandana Palace,food service
13.0020607,77.6324471,4.743316755339726,Raghavendra Poona Store,grocery
13.0021714,77.6329882,4.792091225858313,Vijaya Gardenia,food service
12.985305,77.6152381,4.51790363275159,Pepper Cafe,cafe
12.9841388,77.6142655,4.571464672049361,Tasty food corner,food service
12.9817701,77.6097531,4.577105394810413,Woody's,jewellery
12.9818814,77.6094657,4.553090636783736,Children's corner,clothes
12.9817989,77.6092438,4.551783225470963,Favourite shop,clothes
12.9822917,77.6082949,4.460948430424995,Jewel,clothes
12.9817683,77.6094265,4.562867416327179,Brown shop,clothes
12.9974737,77.6202808,3.8748533199714195,HDFC Bank,financial
13.0142154,77.6363852,4.798677961946746,Kairali,food service
12.982442,77.6075006,4.412911640196677,Meena bazaar,clothes
12.9877987,77.618514,4.50270275090593,Adyar Anand Bhawan,food service
12.9810527,77.6076814,4.563816860437791,Fablore,clothes
12.9824199,77.6078755,4.430405994705686,Dulhan,clothes
12.9817589,77.6098823,4.584007207304411,Vero Moda,clothes
12.9812987,77.6077548,4.541244199946588,Senco,jewellery
12.9818243,77.6079537,4.494947975825883,Wearhouse,clothes
12.9812362,77.6077407,4.54715293548496,MS kidswear,clothes
12.9824456,77.6078331,4.426023411129038,Levi's,clothes
12.9824994,77.6076744,4.414009748211646,Blossom,clothes
12.9825764,77.6074569,4.397276707694303,Melange,clothes
12.9824232,77.6075957,4.418681908732871,Kyara,clothes
12.9821759,77.6084798,4.480580762746967,Woodlands,shoes
12.9819937,77.6087142,4.50914783189302,Tasva,clothes
12.9815958,77.6079654,4.518986116275105,Antegra,jewellery
12.9820315,77.6082291,4.484921772885912,Style Hunt,clothes
12.9823728,77.6076265,4.4251261263401975,Reddy and Chinappa,jewellery
12.9825193,77.6076591,4.411336913059642,Zenith,clothes
12.9823449,77.608156,4.449696861172206,Sri Balaji exports,clothes
12.9813936,77.6103946,4.644054998484649,Metro,shoes
12.9824714,77.6077402,4.419572318048378,Blackberry,clothes
12.9824717,77.607517,4.410504165865128,Show off,clothes
12.9817303,77.6095603,4.57260758246986,Mann,shoes
12.9817082,77.6100809,4.598064466488116,Golden touch,clothes
12.9812894,77.610261,4.648529377860935,Metro,shoes
12.9850932,77.5967365,3.8325303599954608,Axis Bank,financial
12.9864713,77.5955848,3.666656722180864,State Bank of India,financial
12.9880543,77.5940452,3.4789326398769154,Vijaya Bank,financial
12.9929602,77.5954898,2.9479207010825763,Featherlite,home furnishing
13.0007498,77.6134894,3.0781765619120627,New Taj Biryani Center,food service
13.000759,77.6134424,3.073712519664496,Pista House,food service
12.9907312,77.5959415,3.1997939439288197,ಶ್ರೀನಿಧಿ ರಿಯಲ್ ಫುಡ್,food service
13.0204879,77.6186105,2.8426195634051505,Masjid Noor ur Rahman,place of worship
12.9845379,77.590531,3.8706695888016345,Nandini,food service
13.0033147,77.6324578,4.6897629857899705,Idli Shop,food service
13.0500016,77.5975254,3.458719341919471,State Bank of India,financial
13.0055374,77.5711178,2.767343123089859,ಬಿಸ್ಕ,cafe
13.0224361,77.5847518,0.8989662537010161,Hotel Emirates,food service
13.0297542,77.6341274,4.667579045726816,Axis Bank,financial
13.0298189,77.6342395,4.6811334862086555,Teak and Walnut,home furnishing
13.0299258,77.6343634,4.697106551983197,Hotel New Karavali,food service
13.0303712,77.6347459,4.74981420956919,Just A 1 Biryani Point,food service
13.0408726,77.620387,3.8660556006264173,Domino's,food service
13.0408987,77.6207343,3.8974187979393977,Meghana Biryani,food service
13.0456035,77.6267868,4.736168494945986,McDonald's,food service
13.0454872,77.6269262,4.740100838848312,Burger King,food service
13.0453918,77.6270134,4.741059887923192,Felicita,food service
13.0316945,77.6357607,4.895438706495357,HDFC Bank,financial
13.0313483,77.6359163,4.900956459436228,Ambur Hot Dum Biryani,food service
13.0312285,77.635814,4.886665464601903,Muthoot Finance,financial
13.030808,77.635518,4.843250917875205,Five Star,food service
13.03269,77.6305228,4.390167950580339,Vbr pu college,education
13.0056696,77.5692888,2.9268479227902993,Veena Stores,food service
12.9860536,77.5949314,3.7069905489885935,Hammered,bar/club
12.9899243,77.5913426,3.268437175967149,Fat Buddha,food service
13.0022241,77.5503743,4.93313054958807,Pavan Fancy Store,clothes
13.0115044,77.5552219,4.120031664849044,Rajdhani Thali,food service
13.0636119,77.5913837,4.928488248128866,The Druid Garden,bar/club
12.9982247,77.5524639,4.920607420609876,Ottetumba,food service
12.9981249,77.5532794,4.848481667071182,Annappa's Naati Mane Hassan Style,food service
12.9981288,77.5579299,4.414595996398899,Sri Eshwar Fruit Juice Center,food service
12.996421,77.5630308,4.073892967844306,Kerala Jewels,jewellery
12.9966687,77.5728097,3.292030421464013,Indian Bank,financial
12.9879742,77.5764499,3.888374915957828,Corporation Bank,financial
13.0018615,77.5506272,4.9235956520439705,V Stitch,clothes
13.0016822,77.550534,4.9407512145599615,Lahari Boutiques,clothes
13.0087266,77.5640845,3.285253109985064,Boston Cotton,clothes
13.0081078,77.5549568,4.243170513922628,Biryani Day,food service
13.0085363,77.5690421,2.7993354173597984,Kotak Mahindra Bank,financial
12.9776542,77.5973699,4.662002898874812,Peninsular Gneiss,attraction
12.9828069,77.5683807,4.82062291686389,Adithya Furnitures and Mattresses,home furnishing
12.980358,77.5737339,4.779146872307878,Rajmahal Boarding and Lodge,lodging
13.0001729,77.5951454,2.1475342149525347,Not Just Wine & Cheese,bar/club
13.0018586,77.5988817,2.062614973773485,HDFC Bank,financial
12.9942834,77.607881,3.248246472948911,f1rstep shoes,shoes
12.9922062,77.6044577,3.283732567186555,Fathima Store,grocery
12.9966741,77.587379,2.574023319180677,HDFC Bank,financial
12.9977029,77.5828216,2.6161117923947663,Prasanna Cloth Center,clothes
12.9975545,77.5821584,2.660424563674145,Indian Overseas Bank,financial
13.0107514,77.5504102,4.647361004896691,Cotton Zone,clothes
13.0047475,77.5487571,4.997490230363333,HDFC Bank,financial
12.9979084,77.5521686,4.965516806250192,HDFC Bank,financial
12.9981821,77.5535026,4.824257590247054,Titan,watches
12.9985641,77.5552753,4.636153016558658,Axis Bank,financial
12.9984849,77.5554044,4.62842205653283,ICICI Bank,financial
12.9969598,77.5613556,4.181299580682208,Tan Shoes,shoes
12.9961986,77.5651338,3.914717914911226,SLN Food Point,food service
12.9966191,77.5675674,3.687648507411866,Mahendra Diamonds and Jewellers,jewellery
12.9966897,77.5686323,3.598850649776733,SVC Co-Operative Bank Ltd.,financial
12.979209,77.6067507,4.721283067788736,Bangalore YWCA,lodging
12.9979227,77.5522341,4.958526236888076,Hotel Nalapaka,food service
12.9983018,77.5527766,4.886741982937239,Karnataka King Biryani,food service
12.9983443,77.5530904,4.854633066556013,Gopal's Pure Veg and Sweets,food service
12.9981658,77.5533488,4.839700052892378,SRN Gems & Jewellery Works,jewellery
12.9981764,77.5534478,4.8297530071365715,Ideal Decor,home furnishing
12.9969929,77.5613395,4.180517784062702,Malgudi's Donne Biryani,food service
12.9967846,77.5626479,4.081449240447907,Karnataka Bank,financial
12.9961741,77.5643288,3.9827006718854268,Variety Footware,shoes
12.9826229,77.5967242,4.105129387276455,Ligne Roset,home furnishing
12.9967132,77.5693101,3.544826755578077,Indira Canteen,food service
12.9966535,77.5702704,3.4769926461688376,Syndicate Bank,financial
12.9966843,77.57085,3.4314830483357066,Canara Bank,financial
12.9894569,77.5735286,3.897706850726093,Kotak Mahindra Bank,financial
12.988504,77.5740252,3.9609929624738163,Roop Kala Silk House,clothes
12.9879136,77.5741488,4.0112666780704815,Ajantha Mess,food service
12.9935528,77.5712961,3.6639254953874345,New Karavali Bar & Restaurant,food service
12.9934739,77.5713892,3.664510924666931,,financial
12.9804313,77.5765457,4.650840510384468,The Rialto Hotel,lodging
13.0032264,77.6313934,4.587075356153233,Sri Mariamman Temple,place of worship
13.0022482,77.6324892,4.739107713967113,7th Day Adventist Malyalam Church,place of worship
13.0032488,77.6314787,4.594619501950803,,grocery
13.0034433,77.6323983,4.678389330008402,,grocery
13.0022519,77.634193,4.908676765970986,Taj Kabab Corner,food service
13.0030721,77.6305453,4.509435487554642,Sri Thirumala Cafe,food service
13.0029189,77.6301438,4.47651082626333,,grocery
13.0033059,77.6290181,4.347604577017632,Mano Provision Store,grocery
12.975729,77.5992456,4.901317730629794,The Chancery Hotel,lodging
12.996966,77.5523974,4.995042257682484,HDFC Securities,financial
13.0066416,77.5488104,4.927768882104581,ICICI Bank,financial
13.0074466,77.5488708,4.896641643753189,Indian Overseas Bank,financial
13.007491,77.5488788,4.894479684758458,Yes Bank,financial
13.0081104,77.5490585,4.857626092134275,HDFC Bank,financial
13.0087675,77.5491545,4.829329664247352,State Bank of India,financial
13.0108921,77.5505079,4.633817488984306,Minla Hotel,lodging
13.0249519,77.5853313,0.9906561470507037,Allahabad Bank,financial
13.0304194,77.5872271,1.3574927707176105,Hebbal Indira Canteen,food service
13.0345665,77.588793,1.7419508469083413,State Bank of India,financial
12.9923067,77.5944585,3.0097922908871637,Ujval,lodging
12.9948258,77.5970478,2.767601773036665,Jayamahal Palace,lodging
12.9956522,77.6015774,2.8112229933981454,Canara Bank,financial
13.0021777,77.5528331,4.690479688487938,Big Mishra Pedha,food service
13.0047307,77.6286191,4.24523661719106,Christ Union Church of God,place of worship
13.0054488,77.6252067,3.8736239849281837,,grocery
13.0441606,77.6010657,2.9194238859559856,,financial
13.0413718,77.6218064,4.02141728408207,Indian Oil,fuel
13.0409375,77.6223743,4.041393503313125,,financial
13.0232316,77.6370445,4.856311513078761,GRT Jewellers,jewellery
13.0233511,77.637035,4.8564998169155125,Dhanlaxmi Bank,financial
13.023331,77.6370384,4.856659983538901,Hyderabad Biryaani House,food service
13.0234803,77.6370308,4.857399245994482,Allen Solly,clothes
13.0236396,77.6370323,4.859286466480546,Angrez,clothes
13.0236855,77.6372866,4.887206985174458,Woodland,lodging
13.0238651,77.6370524,4.864003916834186,Reliance footprints,shoes
13.0240502,77.6373045,4.89334408651996,Titan,watches
13.0249618,77.6369885,4.8713631653521965,Unlimited,clothes
13.0252646,77.6369384,4.870448867148983,Bata,shoes
13.0254074,77.6369322,4.871970033205192,Arrow,clothes
12.9895036,77.5721251,3.975248519526066,State Bank of India,financial
13.027842,77.632007,4.394683813564064,Mazeedar Chicken Taste,food service
13.0296533,77.6340958,4.661480978107057,Domino's,food service
13.0454415,77.6269767,4.7413019158668614,Domino's,food service
13.0466774,77.6279032,4.905066213432635,Sri Devi Grand Veg,food service
13.0412616,77.6149928,3.457426650778162,,place of worship
13.012085,77.5527865,4.365996843338856,Fashion Factory,clothes
13.0225676,77.5847474,0.9051750850982221,SM Silks,clothes
12.9818878,77.5876007,4.1924178901282145,AG Office (Accounts Entitlements),attraction
13.0534563,77.5747466,4.252298785786676,Indira Canteen,food service
13.0264895,77.6040339,1.492515195324916,Shaji Stores,grocery
13.0419285,77.6132521,3.3814127430047924,Country Inn & Suites by Carlson,lodging
13.0029365,77.5535783,4.582654797057031,Go Gas,fuel
13.0028032,77.553522,4.59415276698149,Corporation Bank,financial
12.9978875,77.6021182,2.6033704089560086,Fairfield Apartments,lodging
12.9866165,77.579997,3.874720590536889,3 Page,food service
12.9885728,77.5772213,3.7918745596172583,Sweet,food service
12.9953339,77.5550415,4.846018384145968,Karnataka Furniture,home furnishing
12.9802917,77.5779251,4.612335591507466,Cafe Coffee Day,cafe
13.0426855,77.6095271,3.1944229237230855,Marriott,lodging
12.9986872,77.5531093,4.834641787513623,,place of worship
12.9803587,77.5717968,4.871602757857439,Hotel Kaveri,lodging
12.9945667,77.5691333,3.730674042534012,,bar/club
13.0067648,77.5545209,4.334046517736981,Pizza Hut,food service
13.0578349,77.5875037,4.3175889556817815,Knopcha,food service
13.0628795,77.5926056,4.845870488084091,rara avis,food service
13.0509256,77.6212057,4.701501067561439,Subway,food service
13.0511064,77.621253,4.719948150009916,Domino's,food service
13.0510068,77.6212211,4.709363887181246,California Burrito,food service
13.0508399,77.6211776,4.692354987514556,WOW momo,food service
13.0506091,77.6212545,4.678767270468189,State Bank of India,financial
13.0511515,77.6214595,4.738538596766493,KFC,food service
13.0507698,77.6211686,4.685883828810768,Kinara,food service
13.0511739,77.6213725,4.734146971820248,Chung Wah,food service
13.051133,77.6215445,4.743125566420288,Sizzling Tandoor,food service
13.050685,77.6211396,4.676754887987711,Aaha Andhra,food service
13.0510863,77.6216974,4.750302237705102,Pathankot,food service
13.0452657,77.6209798,4.233428726981311,Axis Bank,financial
13.0451508,77.6209471,4.2221306205755775,Domino's,food service
13.0447975,77.6208872,4.190704270528679,Dunkin' Donuts,food service
13.0448386,77.620895,4.19441913736358,Cafe Coffee Day,cafe
13.0446064,77.6209898,4.184578127073465,,food service
13.0446352,77.6208812,4.178036594280431,Slug,bar/club
12.9927728,77.5889644,2.9730825666875162,Cafe Coffee Day,cafe
13.0492695,77.6038518,3.5558808330659577,Families Supermarket,grocery
13.0552098,77.6026488,4.144463928132111,Udupi Upahar,food service
13.0494493,77.5970187,3.3895810137039133,Syndicate Bank,financial
13.048908,77.596861,3.3275385282452623,Brahmins Thatte Idli,food service
13.050471,77.5976521,3.512444383921348,Srinidhi Sagar,food service
13.0499864,77.5977223,3.4605409713683746,Goli Vada Pav,food service
13.0491546,77.5930152,3.32034895596267,Cafe Coffee Day,lodging
13.0488736,77.6120246,3.915788510434173,Athidi,lodging
13.0221222,77.6034687,1.2395208437276144,Ganesha Temple,place of worship
12.9867899,77.5745807,4.098191280671158,Hotel Sanman,food service
13.0053314,77.5937908,1.5605289714042219,Bharat Petroleum,fuel
13.05809,77.6023671,4.446338325340814,Sannidhy,lodging
13.0557392,77.601085,4.159650307170024,Anugraha Meadows Apartments,lodging
13.0583019,77.6025696,4.474549089068518,Geeta Bhavan,lodging
13.0586436,77.6026098,4.512449723159115,Balaji Paradise,lodging
13.0590291,77.6026081,4.553975046462441,,lodging
13.0553943,77.601308,4.127882745404757,Vega redidency,lodging
13.0560432,77.6000375,4.168587274102625,Chitrakut shelter,lodging
13.0562676,77.6004766,4.202690364033886,Little Elly Preschool,education
13.0567164,77.6023658,4.2982980889855344,Sri Lakshmi Temple,place of worship
13.0557218,77.6006233,4.146734234349829,Tots & teens,education
13.0552023,77.6021755,4.130218208579927,State Bank of India,financial
13.0554196,77.6027913,4.171084063492913,Santosh Jewellers,jewellery
13.0554077,77.6026614,4.166033170253977,Chings,food service
13.05585,77.6014423,4.180551706174143,New little kingdom,education
13.0560584,77.600139,4.1724391700676,Sai Residency,lodging
13.0556948,77.6003197,4.136856563004259,Kriya preschool,education
13.0551835,77.6014661,4.109155846224177,Fashion wear,clothes
13.0543228,77.6014986,4.017152073045206,Rithu saree collection,clothes
13.0551877,77.6015928,4.1129109980857255,Sri sai hot chips,food service
13.0551933,77.6016426,4.114824514917278,Anu Sri,food service
13.0568588,77.6006316,4.270484704463367,Gokulam,lodging
13.0552034,77.6020719,4.127473286742369,Akshaya,lodging
13.0554489,77.6031778,4.185706397802323,ICICI Bank,financial
13.0604851,77.6032571,4.72818838009224,SLS symphony,lodging
13.0579421,77.6023104,4.428893832023011,Sannidhi,lodging
13.0550911,77.6002206,4.068962902007029,Ruchi curry point,food service
13.0566837,77.6011325,4.263156895067063,Sri Sri Apartment,lodging
13.0553376,77.6021935,4.145260314155369,Bank of Baroda,financial
13.0554214,77.6028101,4.171826846454195,Maa Binduvasini Chats corner,food service
13.0554001,77.6028356,4.170294603193272,Anmol garments,clothes
13.0552092,77.601991,4.12588147860221,,clothes
13.0554447,77.602758,4.172800085907081,Shree Lakshmi gifts and fancy store,grocery
13.0553665,77.6030063,4.171753474957348,Dolly creations,clothes
13.0553978,77.603267,4.182959339666856,Fazil home needs,grocery
13.0551721,77.6013115,4.103953191912854,Axis Bank,financial
13.0551718,77.6012008,4.1011164384193695,Klassy Namkeen Mart,food service
13.0551752,77.6011293,4.099690642100681,Santosh Jewellers,jewellery
13.028156,77.558854,3.765246611403582,Comfort Inn & Suites,lodging
13.0292967,77.559646,3.7184201773485435,Panchamukha Ganesh Temple,place of worship
