Landmark Latitude,Landmark Longitude,Distance,Landmark Name,Property Type
12.9359565,77.5183096,3.4593889258741175,Rajarajeshwari Arch,attraction
12.9238284,77.5763354,4.919976916120355,Citibank ATM Jayanagar 7th Block,financial
12.8986538,77.5578162,2.844135502787846,State Bank of India,financial
12.8989528,77.5575938,2.80899589756731,Karur Vysya Bank,financial
12.8986874,77.5577817,2.8392305749187834,,grocery
12.8983313,77.5582799,2.904466617727121,Shop and save,grocery
12.9056992,77.5424892,1.0110481817321242,Veeranjeneya Temple,place of worship
12.9052725,77.5432875,1.108485572666002,Uttarahalli Bus Station,transportation
12.9181989,77.573292,4.4215386492379425,Ganapathi Temple,place of worship
12.9135232,77.5289628,0.7417699111094196,Kumaraswamy Temple,place of worship
12.9409932,77.544655,3.7837678980064546,More,grocery
12.9398244,77.5471352,3.756573124443913,Viviekananda Park,attraction
12.9394898,77.5451718,3.64421406806555,,financial
12.9382164,77.5417664,3.3981421186600076,Sri Sai Mandiram,place of worship
12.9410374,77.542039,3.7091991716282733,Nilgiris Store,grocery
12.9387161,77.5534116,3.9648870919904393,Udupi Upahar,food service
12.9386147,77.5434317,3.491284478339449,Ganapathi Sacchidananda Ashrama,place of worship
12.9381024,77.543378,3.435250557912992,Auden Public School,education
12.9341577,77.5392743,2.896056903943056,Kalabhyraveshwara Service Station,fuel
12.9408732,77.5471975,3.866866075463549,Sharadamba Temple,place of worship
12.9412393,77.547176,3.903696297423176,Mahaganapathi Temple,place of worship
12.9405791,77.5458127,3.7818584214201616,ICICI Bank,financial
12.9265852,77.5509047,2.7284739760821286,Big Bazaar,grocery
12.925511,77.5501686,2.586887934745509,Food World,grocery
12.9261046,77.5502503,2.6410184280008844,Anna Kuteera,food service
12.9236391,77.5534075,2.708242198904813,Eeshwari Theatre,cinema
12.9237141,77.5534616,2.7179913253702623,Shanthi Sagar,food service
12.9323436,77.5437984,2.849620436784267,Auden School,education
12.9380085,77.5496081,3.6889057061877,IBP Petrol Station,fuel
12.9444378,77.5546637,4.579538878951454,Srinagar Bus Station,transportation
12.9318576,77.5648659,4.249734430515266,Muneshwara Temple,place of worship
12.9095131,77.5502862,1.8021811495338518,Bangalore International Public School,education
12.9022641,77.4974982,3.9861681212879416,BGS Public School,education
12.8895751,77.5630383,3.8266837594816763,,financial
12.9040043,77.5734008,4.336582206482065,Pizza Hut,food service
12.8853969,77.5554477,3.5036033719452715,Shiva Bar,bar/club
12.8940827,77.5679951,4.058536022449016,Domino's,food service
12.8941977,77.5680809,4.061969414468578,ICICI Bank,financial
12.894203,77.5681238,4.066004546528195,Sri Krishna Upahar,food service
12.894433,77.5683437,4.077887723918172,HDFC Bank,financial
12.8910036,77.5646686,3.8922061528618492,Mobil Petrol / Gas Station,fuel
12.885794,77.5557036,3.489999910686352,Karanth Upahar,food service
12.9089347,77.5626077,3.135437573423506,Polar Bear,cafe
12.9083281,77.5639541,3.281499375548352,,financial
12.9075699,77.5640131,3.290010682405032,Udupi Swada,food service
12.9089138,77.5625218,3.1261084479097683,NJAC,cafe
12.9134732,77.5590565,2.801352713807616,Kadirenahalli Petrol Pump,fuel
12.9109843,77.5791221,4.931810024090476,Prasiddhi,food service
12.9119447,77.5581363,2.675264406717365,Prarthana School,education
12.9107281,77.5792052,4.939418215783241,Reliance Fresh,grocery
12.9113882,77.5747186,4.458041037513677,,financial
12.8886669,77.5411424,2.3688356355449685,Gubbalala School,education
12.9083213,77.5641425,3.301926894642602,,financial
12.9084259,77.5639762,3.2837785995038704,,financial
12.9019316,77.5611814,3.0740453388838858,State Bank of India,financial
12.8929689,77.5596739,3.3156886111917276,Insight Academy,education
12.8980464,77.5551298,2.6087879707296278,Devarakere Venkataramana Temple,place of worship
12.8988366,77.5572943,2.7841305216303276,Vinayaka Temple,place of worship
12.8830441,77.565967,4.514348172879153,Reliance Smart Point,grocery
12.9089389,77.5664343,3.550172177155608,Dayanand Sagar College of Engineering,education
12.932367,77.5414216,2.7632247566619856,Sri Mahadeshwara Filling Station,fuel
12.9256218,77.5502249,2.600014200301394,KFC,food service
12.9256318,77.5498709,2.5745171360797037,Dal Tadka,food service
12.9249194,77.4993889,4.131480681396092,"Kotak Mahindra Bank, RVCE Branch",financial
12.9267671,77.4973876,4.417246072468218,Hotel Dream Land,food service
12.9250272,77.4986893,4.204982815147224,Udupi Upahar,food service
12.9433773,77.5044892,4.988519147604452,Muneshwara Temple,place of worship
12.9377048,77.50855,4.222170989643959,Vice Chancellor's Lodge,education
12.9368003,77.5169615,3.6129249261373277,The Club,food service
12.9368996,77.5172029,3.6094665049417767,KC'S Club,bar/club
12.9360631,77.5177447,3.4995871238724536,KFC,food service
12.9360526,77.5179485,3.48772120907918,McDonald's,food service
12.9357964,77.5177929,3.4712313744995837,Big Cinemas,cinema
12.9358801,77.5176749,3.4856621607904725,Star Bazaar,grocery
12.9359062,77.5178788,3.4772433859628307,Brand Factory,clothes
12.9359271,77.5179968,3.4729892994280522,,financial
12.9314098,77.515069,3.232776313181388,Church Of The Holy Name Of Jesus,place of worship
12.9312478,77.5154648,3.192012410806567,ICICI Bank,financial
12.9286597,77.5134853,3.1178840021400998,Rajarajeshwari Vidya Shala,education
12.9262076,77.5151161,2.8003973535172597,Classic Polo Showroom,clothes
12.9247698,77.5175891,2.4976556784755184,Shri Nimishamba Devi Temple,place of worship
12.9217044,77.5204162,2.0397959868115207,Bramhi Aahaara,food service
12.9214078,77.5206736,1.9967406729007988,Beijing Bites,food service
12.920634,77.5205368,1.9475750594626118,Coffee Day,cafe
12.9209843,77.5202713,1.9952031604232725,Food World,grocery
12.9202209,77.5201908,1.9445804117500216,Ganesha Temple,place of worship
12.9136589,77.5244341,1.144328522374708,Kalabhairava Temple,place of worship
12.9133609,77.5248364,1.09017548345335,Gayatri Temple,place of worship
12.9141975,77.5293801,0.7695667299668361,Kaalikamba Temple,place of worship
12.9126035,77.5289754,0.67034788469985,Sri Shanmukha Temple,place of worship
12.9125086,77.5271968,0.8210019851541145,Swargarani,education
12.9081687,77.5373087,0.3975447933795375,Quality Nursing Institute,education
12.9061186,77.5418693,0.9325165930461411,State Bank of India,financial
12.9059935,77.5421849,0.9693446915897344,HP,fuel
12.9056118,77.5434456,1.1124157973858242,Government School,education
12.9048588,77.5442073,1.2179418214914257,St Anthony,place of worship
12.903508,77.5442237,1.2798377639599041,Vaishnavi,cinema
12.9064379,77.5443522,1.1835059689458365,Corporation Bank,financial
12.9099779,77.5508753,1.869197190487727,Masala,food service
12.9100302,77.5509021,1.8725470154950457,Masala,bar/club
12.9109528,77.5516022,1.9587120539138796,Domino's,food service
12.9221435,77.5599636,3.217574768574915,Devegowda Petrol Bunk,fuel
12.9284497,77.5733648,4.829770062556792,Namma MTR,food service
12.9414203,77.553445,4.223040491918835,Dragons,food service
12.9328395,77.5638317,4.229601994422731,SSM Public School,education
12.9257438,77.5498097,2.5791431891526124,Bank of India,financial
12.9296912,77.5519662,3.062851627622903,,financial
12.9296755,77.5519983,3.0637741115474615,State Bank of India,financial
12.9372141,77.568841,4.957955591763736,Syndicate Bank,financial
12.9370677,77.568849,4.948226039318684,Syndicate Bank,financial
12.9365631,77.567363,4.788762352300245,,financial
12.925977,77.5504903,2.648459269731692,Levis,clothes
12.927054,77.5506405,2.7474799256752878,Puma,clothes
12.9228555,77.5600873,3.2668743062282246,D Mart,clothes
12.9003434,77.5436207,1.422055441218997,Subramanya Temple,place of worship
12.9339482,77.5664867,4.53102523080629,Kamala Nehru Patashala (Emmanual English School),education
12.9333966,77.5660039,4.451976363260832,Sri Lakshmi Venkateshwara Provision Stores,grocery
12.9321898,77.5656194,4.337120558271647,Sharadamba Temple,place of worship
12.9343751,77.565952,4.515565239609922,Dattatreya Temple,place of worship
12.9327754,77.5660244,4.411455392803987,Abhaya Lakshmi Narasimha Temple,place of worship
12.9332872,77.5679132,4.609346129839418,Plague Ammana Temple,place of worship
12.9342938,77.5660221,4.5157479973112356,Balamuri Ganapathi Temple,place of worship
12.9318604,77.5672556,4.458664511767469,Shanimahatma Temple,place of worship
12.940921,77.5457658,3.8157788215106287,Canara Bank,financial
12.9405681,77.5459187,3.7847224449678327,HDFC Bank Girinagar,financial
12.9366883,77.5488033,3.5183668397827965,State Bank of India,financial
12.935381,77.570171,4.9446272809583895,Sai Baba Temple,place of worship
12.9356689,77.5699296,4.943087532021066,SSM Primary School,education
12.9329243,77.5712761,4.8851113902640675,Ganesh Mandir,place of worship
12.9329402,77.5717482,4.928836383150459,Kumaran Children's High School,education
12.9435227,77.5590375,4.749135817748398,Ritu's designer sarees,clothes
12.9070482,77.5457118,1.3167842249972863,Reliance Fresh,grocery
12.9090588,77.5492656,1.6897375495300604,Kaggis' Bakery,food service
12.9094097,77.5499084,1.7607278683067658,North Karanataka mess,food service
12.9118067,77.5518439,1.998948355652109,Shanimahatma Temple,place of worship
12.9140237,77.5587479,2.7809268915613434,Kaappi,cafe
12.9196818,77.559736,3.0771557234957454,Shop Rite,grocery
12.9206561,77.5601874,3.1660914026136266,Sri Sai Gold Palace,jewellery
12.9094182,77.5274725,0.6776522925061433,Sun Pub,bar/club
12.9253564,77.5496136,2.53310275086031,Nandhini,food service
12.9251321,77.5507224,2.5989012372324796,Pizza Hut,food service
12.9373897,77.56002,4.281752127204077,Holy Child Convent School,education
12.9324223,77.555718,3.5593031277628517,Ganesha Temple,place of worship
12.9201877,77.574944,4.651436021582976,CCD,cafe
12.9244542,77.5643439,3.7573396677694006,Pizza Hut,food service
12.9257822,77.5640113,3.7972013586052538,J cubeez,bar/club
12.9279154,77.5563831,3.259520776915251,Shiva Temple,place of worship
12.940021,77.5651693,4.876887254185034,Allahabad Bank,financial
12.9387311,77.563322,4.634528077684948,Sri Rama Temple,place of worship
12.9403137,77.5645095,4.850658635479902,Mini Punjabi Dhaba,food service
12.9393831,77.5641393,4.748199399527404,Ganesh FruitJuice Centre,food service
12.9233352,77.5545915,2.790803594518089,Mane thindi,food service
12.9251478,77.5507385,2.601369456329645,Chung wah,food service
12.91702,77.5782971,4.9236418301524045,More,grocery
12.9112343,77.5784318,4.858631083501333,Jagadamba Jewellers,jewellery
12.9198472,77.5782896,4.9915253552586565,Syndicate Bank,financial
12.923688,77.5535473,2.7235459697976254,Canara Bank,financial
12.9236725,77.5536141,2.728220703178516,Axis Bank,financial
12.923626,77.5538171,2.742542519037721,Salon,grocery
12.9237619,77.5532989,2.707390325184723,Iyangar Bakery,food service
12.9240077,77.5534639,2.7383728801471374,Spectacles store,grocery
12.9235841,77.5539351,2.7499224879630724,Titan Eye+,grocery
12.9240913,77.553374,2.7365577319165166,Goli Vada Pav,food service
12.9241697,77.552991,2.7098341933137227,Chroma Mega Store,grocery
12.924405,77.5647251,3.7914077491297027,McDonald's,food service
12.9243475,77.5652656,3.840587567315736,SnapFitness,grocery
12.9243266,77.5653238,3.845159763555622,State Bank of India,financial
12.9243318,77.5653613,3.849046470947544,Natural Salon,grocery
12.9245828,77.5649697,3.824048961925854,Bangalore One For Senior Citizens,grocery
12.9245932,77.5648877,3.8167054212913545,Nandini Milk Booth,cafe
12.9247045,77.5648373,3.8176219177314468,Hopcoms,grocery
12.9244834,77.5641605,3.7412925056057484,,food service
12.9243632,77.5641391,3.7329868461936013,,grocery
12.9246664,77.5642101,3.755621459087314,Baskin Robin's,food service
12.9247449,77.5642316,3.76180871337003,Goli Vada Pav,food service
12.9257017,77.5644655,3.8354751688967936,Mobile store,grocery
12.9257906,77.5640961,3.8056273424552076,Cafe Coffee Day,cafe
12.9260154,77.5641098,3.8194591710439196,Tandoor,food service
12.9260625,77.5646983,3.8772735148214656,Kati Zone,food service
12.9261618,77.5645588,3.8697028524600467,Anand Bhavan,food service
12.9268619,77.5641149,3.8682562315140174,SLV Swadisth,food service
12.9241331,77.5663009,3.9304585826929284,SLV fast food,food service
12.9241122,77.5664449,3.9434920749273754,Stationary,grocery
12.9239606,77.567255,4.015580593317675,HOPCOMS,grocery
12.9249818,77.5512039,2.6246834294736576,Domino's,food service
12.9246981,77.5508112,2.572121360124885,Reebok Store,grocery
12.9258745,77.5501431,2.6143736578681422,Cafe Coffee Day,cafe
12.925817,77.550127,2.608511602730919,Beijing Bites,food service
12.9260889,77.5504555,2.6549192456468975,Mast Kalandar,food service
12.926078,77.5484214,2.5081590010864825,Mom and Me,clothes
12.9440879,77.5293108,3.964447596779194,HP,fuel
12.9519559,77.5368963,4.823559431731197,Shaneshwara Temple,place of worship
12.9397172,77.5238766,3.6099601860165964,Indian Oil Petrol Pump,fuel
12.947907,77.5327064,4.362007807266927,Shell,fuel
12.931206,77.5153867,3.193609329601438,Axis Bank,financial
12.9271588,77.5105943,3.236920350086298,Rajarajeshwari Temple,place of worship
12.9245212,77.4981445,4.234617489305697,Sathkar Juice Centre,food service
12.9391021,77.5556301,4.134600028594651,Gondavalekar Sadgur,place of worship
12.9220691,77.5755122,4.77168898035474,JSS Composite PU College,education
12.9046486,77.5297658,0.6180026869693125,Patalamma Temple,place of worship
12.9017846,77.5183793,1.8275196457736147,RNS Institute of Technology,education
12.9066368,77.5360253,0.3416706747414509,Anjaneya Temple,place of worship
12.9244905,77.5653351,3.8545240330978037,Pegs and pints,bar/club
12.9244383,77.5654289,3.8609397574009896,Lakshmi bar,bar/club
12.9398383,77.5451133,3.6785151307661392,Belliah Milk Booth,grocery
12.9383665,77.5411678,3.398196550148079,Bhandarakeri Mutt Bhagavathashrama,place of worship
12.9406461,77.5477204,3.865464102454559,Axis Bank,financial
12.9252469,77.5648035,3.8429053949453866,Public Library,education
12.9294812,77.5637259,3.9935936211082597,Laxmi Sagar Deluxe,food service
12.9301278,77.5636876,4.032289238755714,,financial
12.935471,77.5608687,4.189378345945484,ICICI Bank,financial
12.931931,77.5640576,4.18543275882888,,financial
12.9371253,77.5585054,4.151671665411904,Corporation Bank,financial
12.9389525,77.5566263,4.184260073603272,Public Library,education
12.9239653,77.5705721,4.344234360582566,,financial
12.9357213,77.5609969,4.218944921744798,Andhra Bank,financial
12.9340245,77.5619702,4.163731318871598,Kabab and Biriyani,food service
12.9269195,77.5682037,4.255490845459598,,financial
12.9264381,77.5691045,4.316852798593112,,financial
12.93577,77.5613294,4.248146674200904,SLV Fast Food,food service
12.941632,77.5641945,4.935005214390607,Sri Vishvesha Agencies,fuel
12.9416578,77.5644359,4.954697501972702,Canara Bank,financial
12.9525197,77.5409488,4.9368949658759895,Gaali Anjaneya Temple,place of worship
12.9437044,77.5603994,4.852241065670483,Hotel Mangala,food service
12.9432666,77.5585119,4.693044847294406,,place of worship
12.9418539,77.555564,4.384511333852362,Indian Bank,financial
12.9398411,77.553976,4.10324634596847,HDFC Bank,financial
12.9396697,77.5546603,4.127557139660548,,financial
12.9416816,77.5555618,4.368280764360342,Mahila Co-operative Bank,financial
12.9418698,77.5563504,4.432665395442557,ICICI Bank,financial
12.9263122,77.4945152,4.6751745652491055,Gnanabodhini English Pre-Primary School,education
12.9402637,77.5577692,4.3751467698512005,HDFC Bank,financial
12.9185562,77.5553293,2.5902109541167997,Royal Mart,grocery
12.9181694,77.5547822,2.5183190017588726,,financial
12.9180303,77.5571707,2.749676435978919,Ice Cafe,food service
12.917953,77.5571384,2.7431967969049302,,financial
12.918619,77.5518425,2.2569720791808594,Temple,place of worship
12.9184077,77.5591112,2.960540259007199,Sahakari Vidya Kendra,education
12.9295981,77.5681912,4.403988627950401,Pin Ball,clothes
12.9297811,77.5682637,4.421422548060293,Indian Oil,fuel
12.9164891,77.559186,2.8972534081171846,Venkateshwara Temple,place of worship
12.9255011,77.5499538,2.5700600012413783,,financial
12.9254619,77.5499726,2.5682919629875296,HDFC Bank,financial
12.925974,77.5641049,3.816680700391626,Punjab National Bank,financial
12.906013,77.5419622,0.9457357331743996,State Bank of India,financial
12.9342211,77.5345124,2.8403618434582953,Union Bank of India,financial
12.9336327,77.5343127,2.7743492437364834,PES Food Court,food service
12.9335839,77.5344798,2.7694322642997644,Cafe Coffe Day Express,cafe
12.905899,77.5417339,0.9264510412793724,Maramma Temple,place of worship
12.9180956,77.557202,2.7555651782432453,SLV,food service
12.9165327,77.55716,2.6901080777995077,Anjaneya Temple,place of worship
12.9146638,77.559228,2.8475405195429127,Prarthana School,education
12.9115707,77.5493949,1.733103977378282,Chikkalasandra Raghavendra Swami Mutt,place of worship
12.9130191,77.5463267,1.4527670394613585,A.R Minimart,grocery
12.9103056,77.5454924,1.2928220854018706,,grocery
12.9151671,77.552159,2.128376813022996,Chikkalasandra Bus Stop,transportation
12.9178136,77.5561808,2.6412984615389674,,grocery
12.9123803,77.5371751,0.5584622909601035,AGS Layout Bus Stand,transportation
12.9072121,77.5462363,1.3708013338719875,IOCL,fuel
12.9036309,77.5440956,1.261301423804894,Vaibhavi,cinema
12.9022871,77.5185188,1.7908703802978205,Canara Bank,financial
12.9023899,77.5176413,1.874217900564579,,education
12.8875501,77.5706995,4.650360825602145,,financial
12.8921409,77.5721791,4.560586307767205,HDFC Bank,financial
12.8828036,77.5704042,4.912246186894204,Srinidhi Public School,education
12.8835009,77.5698955,4.822224103750835,,financial
12.9286056,77.5453234,2.5488240656746797,Cafe Coffee Day,cafe
12.9438068,77.542,4.0075677999706185,Jnana Deepthi English Primary and High School,education
12.8856688,77.5418794,2.709728093668927,Temple,place of worship
12.9216283,77.5701608,4.2074677906307745,Kadamba Bar,bar/club
12.9373332,77.5582484,4.1513840166251015,Canara Bank,financial
12.9381919,77.556125,4.0839608261529055,Relience Fresh,grocery
12.9348094,77.5556281,3.7541312833723093,HDFC Bank,financial
12.9347536,77.5556142,3.748377750685464,State Bank of India,financial
12.9381111,77.5565458,4.104123248310358,Bank of Baroda,financial
12.9369041,77.5577545,4.080459646399762,Vinayaka Vidya Samsthe,education
12.910373,77.553198,2.1237076021995653,Hemavathi Homes Apartment,residential
12.9152651,77.5592492,2.866094093881685,Total Auto Gas,fuel
12.9324534,77.5486407,3.100188069621875,Shri Chamundeshwari Temple,place of worship
12.9307552,77.5475178,2.87559912587271,State Bank of India,financial
12.924471,77.5523785,2.6807061232780622,Standard Chartered Bank,financial
12.9233245,77.5533301,2.6802435389799224,Kamakya Theatre,cinema
12.9331275,77.5345817,2.7190827529516506,PES Boys Hostel,lodging
12.916348,77.5591356,2.8873765997593472,Prasanna Ganapati Temple,place of worship
12.9088477,77.5486338,1.6208579686756168,Shanthi Sagar,food service
12.9075154,77.5468074,1.4287952764197052,Royal Mart Supermarket,grocery
12.9093408,77.5493517,1.7001116404463983,Farm Fresh,grocery
12.9092276,77.5630344,3.182126926566838,Liquor Paradise,bar/club
12.9094955,77.5642924,3.3191201820043985,Axis Bank,financial
12.9117561,77.5671503,3.6436329848534914,UCO Bank,financial
12.9117471,77.5671495,3.6434532164698954,UCO ATM,financial
12.9117262,77.5671334,3.641499804060304,SBI ATM,financial
12.9112765,77.5670395,3.62706253528922,Ganesh Juice Center,cafe
12.9111406,77.567002,3.621843657708637,Five Star Chicken,food service
12.9093837,77.5664401,3.5515275274659075,Bank of Baroda,financial
12.9094255,77.5655013,3.4499075581609895,State Bank of India,financial
12.9089445,77.5652653,3.4234795323894684,Oriental Bank of Commerce,financial
12.9060149,77.5645008,3.3537394923593093,Shri Vasavi Kaniyaka Parameshwari Temple,place of worship
12.9058829,77.5649045,3.3986418866788712,Udhbhava Kumarswamy Temple,place of worship
12.9051908,77.5647732,3.39243901854209,Shri Shri Shri Gangaparameshwari Temple,place of worship
12.904979,77.5646338,3.380225776156138,Shri Shri Chamundeshwari Temple,place of worship
12.9046865,77.565528,3.480451790891547,Axis Bank,financial
12.9048653,77.5657348,3.5002104927548903,Shri Banashankari Darshini,food service
12.908434,77.568877,3.814925607052039,,place of worship
12.9091739,77.5687268,3.798915464334443,Mother Mary School,education
12.9266584,77.5199911,2.488593070824636,Monish Corner,food service
12.9247082,77.5196155,2.344364603926169,Lakshmi Departmental Stores,grocery
12.9244128,77.5190496,2.3602673193555184,Namdhari's Fresh,grocery
12.9242219,77.518945,2.3522696818461366,Carmel School Ground,education
12.9112575,77.5200179,1.5080261819692962,Dew Drops Montessori School,education
12.9228792,77.5207873,2.1075782522078867,Le Pape,clothes
12.932532,77.5161545,3.2613071675790377,Total Gaz,fuel
12.9387638,77.5511668,3.8437527021595286,KKN coaching classes,education
12.9296028,77.5628234,3.922246893529795,Wine Baron,bar/club
12.9278968,77.5622171,3.758594930217309,SBI ATM,financial
12.9272865,77.5615907,3.6642132653720525,IDBI Bank,financial
12.9416718,77.5605078,4.680131373417053,Shiva's Chats,food service
12.9241055,77.5671349,4.010647546478465,Kwality'S Ice Cream Parlour,food service
12.9240481,77.5673878,4.032738079641525,Indian Bank,financial
12.8896399,77.5633218,3.84830268751727,Ammys Biriyani,food service
12.8896722,77.5633449,3.84841836953981,Canara Bank,financial
12.9042627,77.5066253,2.973379331594314,Indian Oil,fuel
12.9045616,77.5057926,3.0572543365652116,Pallavi,food service
12.9043665,77.5053944,3.103218911600242,State Bank of India,financial
12.9048448,77.5050195,3.1356718837096587,UCO Bank,financial
12.8990538,77.4963065,4.190112641277399,SJB Institute of Technology,education
12.921883,77.5675933,3.957526088908732,BNM Institute of Technology,education
12.926408,77.5158466,2.7599298402152326,State Bank of India,financial
12.9198566,77.5142588,2.443851028108257,Apex Bank,financial
12.9263463,77.5647627,3.8991191754034773,Jalsa,food service
12.9080649,77.5625213,3.1267331947583847,Ganesha Temple,place of worship
12.9078395,77.5625176,3.126991308331198,Kalabairaveshwara Temple,place of worship
12.9072506,77.5600169,2.8590097067068316,Shop & Save,grocery
12.9109471,77.5793168,4.952673331830975,Canara Bank,financial
12.9109649,77.5792295,4.9433242789450444,Zuari Furniture,home furnishing
12.9110032,77.5788747,4.905141428621661,State Bank of India,financial
12.911014,77.5788106,4.898266674985392,Western Union,financial
12.9110226,77.578561,4.871302594346371,Rolls of heaven,food service
12.9108461,77.5782827,4.840172212072986,Sri Devi,food service
12.9110549,77.5781943,4.831808766165379,Kotak Bank,financial
12.9110743,77.5780397,4.815195591120668,Sunrise Restaurant,food service
12.9110743,77.5780949,4.8211693356322325,Nayana Fabco,clothes
12.9193173,77.5041769,3.408984859368472,Café Coffee Day,cafe
12.9188148,77.5025188,3.5600340655445115,"Mindtree Global Village, Phase 1",office
12.917916,77.5033878,3.4396979507230356,"Mindtree Global Village, Phase 3",office
12.9180697,77.5025687,3.5295447932429678,"Mindtree Global Village, Phase 2",office
12.918899,77.5005452,3.76637880339207,"Mindtree Global Village, Phase 5",office
12.9175165,77.5780372,4.906718389236529,ICICI Bank,financial
12.899315,77.4963246,4.180877801176242,,financial
12.8996006,77.4958799,4.219851285984309,Tea Coffee,cafe
12.9209531,77.5213014,1.9129374651217221,BET Convent,education
12.9113891,77.5531687,2.1334816659803253,ICICI Bank,financial
12.9313955,77.5179594,3.0458518371327465,Twillight Tandoor Resto,food service
12.9313595,77.5135774,3.3318014072105,Urban DIET,education
12.935519,77.5020395,4.545209742744824,Vinayaka Temple,place of worship
12.9433024,77.5055822,4.907716340622175,University Cafeteria,cafe
12.9365363,77.5167879,3.5970978431682448,Sri Krishna Nandagokula Veg,food service
12.8783359,77.512809,4.063229031997678,RV College of Architecture,education
12.9188235,77.5203753,1.8300327733056612,Hopcoms,grocery
12.9178772,77.5204317,1.7622079902818812,State Bank of India,financial
12.9162563,77.520671,1.6418946775188057,Kaapi Katte,food service
12.9061516,77.5209983,1.403191327291673,OSR Andhra Spice,food service
12.9221365,77.5204974,2.068068991723928,Feet Shop,shoes
12.9357187,77.5345513,3.0069374375609983,Campus Mart,grocery
12.9342254,77.5344569,2.8406550862137787,,financial
12.9355646,77.5345308,2.9897414524835204,Nescafe,cafe
12.9333545,77.5350149,2.7463805746975383,PES South Indian Mess,lodging
12.9392188,77.5600997,4.440970383246845,Prasad Icecream Parlour,cafe
12.9229279,77.5699054,4.233351485542585,Repco,financial
12.8812854,77.5255154,3.1731551102787923,,place of worship
12.8813153,77.5250805,3.1834441842906487,,attraction
12.9221578,77.576215,4.847158666317635,Madhura Bhavan,food service
12.9232169,77.5766524,4.929582278978848,Syndicate Bank,financial
12.9269593,77.5454463,2.398549971739149,Apartment,lodging
12.9017851,77.5563991,2.579360412843956,Shanmukh Dixit Astrologer,place of worship
12.9326403,77.5656287,4.368280560033724,Koli Mane,food service
12.8920481,77.5719005,4.537172486127182,Greenvalley high school,education
12.9188109,77.5687298,3.9619800790017172,Sea Spice,food service
12.9271751,77.561435,3.6432924228449965,The Platter,food service
12.8867987,77.5675026,4.400567547898605,Hani Foundation Montessori,education
12.9256357,77.5646389,3.8482366248406463,Swadesh Tadka,food service
12.9269753,77.5643645,3.8979115382037524,Rasoi Restaurant,food service
12.9235989,77.5550354,2.846986393061307,Mantra Multicuisine Restaurant,food service
12.913853,77.5426932,1.1330890921986558,Sri Chaitanya Techno School,education
12.9247336,77.565329,3.8663321058124556,Ayda Restaurant,food service
12.9402569,77.5533988,4.1094737181304515,Hotel New Karavali,food service
12.9243553,77.5648981,3.805524871898046,Vinny's,food service
12.9222433,77.5618332,3.403178141774562,Vi Ra's Bar and Restaurant,food service
12.9431647,77.5415743,3.927726164710007,The Biryani Cafe,food service
12.9240662,77.5642334,3.7267636796453614,Smacznego,food service
12.9268231,77.548292,2.5638800046881207,Chicken Hunt,food service
12.9306311,77.5535559,3.254640778299303,Karavali Lunch Home,food service
12.9257484,77.5642118,3.8141591643624797,Tandoori Knight,food service
12.9391651,77.5637852,4.704108159076928,Rolls Corner,food service
12.9329124,77.5684358,4.630696012345549,Sea Rock,food service
12.9363723,77.5682018,4.844912963586914,Amandé Patisserie,food service
12.9266174,77.5646489,3.9037733553308485,Roving Feast,food service
12.9234527,77.5697585,4.240830798660283,Pure and Natural,food service
12.9303018,77.5666608,4.307176155816688,New Prashanth Hotel,food service
12.9349664,77.5469781,3.257926956180225,Bengaluru Coffee House,food service
12.9278495,77.5462411,2.5282651566668526,Mandara Bar and Restaurant,food service
12.9216335,77.5702729,4.219084294255158,K27 - The Pub,bar/club
12.9285834,77.5457702,2.5710186948126244,Ayodhya Upachar,food service
12.925663,77.5644456,3.8314777847764403,Rolls on Wheels,food service
12.9279866,77.5519145,2.9171190707524097,Janahaar,food service
12.9416198,77.5573584,4.47134577080747,New Sri Banashankari Donne Biriyani Corner,food service
12.9245511,77.5655512,3.878444584299282,Ammi's Biryani,food service
12.9415734,77.5578002,4.49479876140686,Coffee Bytes,food service
12.9256305,77.5649466,3.877067642700326,Hari Super Sandwich,cafe
12.9528642,77.5289366,4.938773852717995,Donne biryani house,food service
12.9170843,77.5596138,2.96171080260832,Udupi Ruchis,food service
12.94167,77.5564774,4.421867406211838,Matru Sagar,food service
12.9334596,77.5463009,3.075209655446904,Halli Dhaba,food service
12.9152705,77.5609497,3.044809707978978,Sri Banashankari Nati Style,food service
12.9447368,77.5537072,4.558162753310087,Rao's Biryani Center,food service
12.9396288,77.5667866,4.970832736927297,Kamath Bugle Rock,food service
12.9266045,77.5459463,2.3948819296216386,Kairali,food service
12.9401607,77.5643716,4.828031645341131,Szechuan Dragon Chinese Restaurant,food service
12.9376671,77.5676462,4.892160384268429,Hotel Dwarka,food service
12.9328003,77.5688005,4.655716659332255,Koli Mane,food service
12.8827967,77.5693891,4.823976634926091,,financial
12.9233777,77.5700231,4.264086873299185,Bata,shoes
12.9237659,77.5696566,4.244281890060527,MVJ PU College,education
12.8792546,77.5672683,4.895658184044495,Corporation Bank,financial
12.8799338,77.567328,4.850351357568243,State Bank of India,financial
12.8831848,77.566088,4.51467773560572,,financial
12.8830444,77.5696076,4.8266742938021165,Bhuvaneshwari Traders,grocery
12.8922387,77.5655484,3.9086538685790813,RMS International School,education
12.8947916,77.5687362,4.101925589377764,Indian Overseas Bank,financial
12.8852815,77.5669092,4.443805976316449,Surabhi Veg,food service
12.8844123,77.5665775,4.472387637909374,,financial
12.9079578,77.5783267,4.839712620050181,ICICI Bank,financial
12.8854655,77.5668774,4.429051094110979,Thindi Potha,food service
12.8915698,77.5652629,3.9169426313101474,NIIT,education
12.8912738,77.5649779,3.906189133372115,Athithi Grand,food service
12.9074342,77.578346,4.84313811033266,Karnataka Bank,financial
12.9062397,77.578546,4.870440203378157,Aurick Boutique,lodging
12.8835026,77.5714748,4.962458631214047,Mahalakshmi Provision Store,grocery
12.9261828,77.5643228,3.8487829592691054,Casa Blanca,food service
12.8801126,77.5681771,4.907030290039455,,financial
12.9053331,77.5533196,2.161126820692607,Bright Way School,education
12.9070086,77.5488113,1.6506300560060037,Kona Kafe,cafe
12.8797355,77.5678057,4.903853941804862,,financial
12.8857953,77.5705791,4.740973001714882,,financial
12.8850398,77.5703422,4.765178424168687,,financial
12.9417055,77.5560577,4.399906793671568,Yemkay Supermarket,grocery
12.9070872,77.5461078,1.3587275196961486,ICICI Bank,financial
12.9070854,77.5460136,1.3486329934676546,ICICI Bank,financial
12.9074367,77.5471724,1.4689991907918916,Bramhi's Chat Shop,food service
12.9081551,77.5477526,1.5264158777310968,Vishal Mega Mart,clothes
12.9070254,77.5331667,0.1932752864562053,Rotti Mane Dhabha,food service
12.9094886,77.5499478,1.7654130864408197,,financial
12.9070372,77.5455784,1.302638859305066,HDFC Bank,financial
12.9174899,77.5732745,4.401508093524166,,financial
12.9135341,77.5588078,2.7761982781397077,Vanani Bar and Restaurant,food service
12.9070542,77.5456383,1.3088024165115864,Naksha Restaurant,food service
12.908455,77.5481904,1.5729236401348008,Karnataka Bank,financial
12.9107538,77.5513427,1.9280647814630545,Uttarahalli Biriyani House,food service
12.9174334,77.5732706,4.399703912588827,Shri Krishna Bhavan,food service
12.907027,77.5455382,1.2984865660762168,Axis Bank,financial
12.9084296,77.5481682,1.5705674415787354,,financial
12.9095004,77.5499914,1.7701989534158122,,financial
12.9081105,77.547977,1.5509175264978385,,financial
12.90929,77.5492265,1.6863215301784318,South Grand,food service
12.9040828,77.5441927,1.2492964632683292,Kanva Mart,clothes
12.9065159,77.5437703,1.120039859643226,Prestige Smart Kitchen,home furnishing
12.9070435,77.5458167,1.3281169119150427,Reliance Fresh,grocery
12.9074709,77.5472253,1.4743523865816683,Canara Bank,financial
12.9085041,77.5482249,1.5765812105444332,Goli,food service
12.9072748,77.5469062,1.442133514464439,Vinayaka Rice Traders,grocery
12.9072677,77.546892,1.4406901193265127,Jana Bharat Gas Agency,fuel
12.9316906,77.5555034,3.483576010782898,Sankethi's,lodging
12.9236826,77.5734024,4.616680278162517,Aaradhya Food Line,food service
12.9299855,77.5411817,2.5036414820206585,North Karnataka Joladda Roti,food service
12.9162291,77.5405845,1.1237270781826765,Ganesha Mural,place of worship
12.9314007,77.5577461,3.6304730689042355,ಶ್ರೀ ಕೃಷ್ಣ ಪಿ ಯು ಕಾಲೇಜು,education
12.9455741,77.5384918,4.134345644787504,Sri Gururaghavendra traders,grocery
12.9293898,77.5519618,3.0370663101891893,Adyar Ananda Bhavan,food service
12.9459315,77.5385939,4.175169233439427,Sri Vaibhava Ganapathi,place of worship
12.8968227,77.5569403,2.8455848250209175,Sacred Neem tree,place of worship
12.9191661,77.5511655,2.224511721528005,RoyalMart,grocery
12.9220858,77.4953504,4.413206182466647,royal andaaz,food service
12.8938836,77.556381,2.9605327284367875,Rays Academy For Learning,education
12.9368059,77.517737,3.5720592129885493,Canara Bank,financial
12.9400466,77.5242659,3.6329070364621234,Ashwini Bar and Restaurant,bar/club
12.9411112,77.52503,3.724969204284062,,financial
12.9237056,77.5526771,2.650842855127501,Vaishali,food service
12.9263972,77.502667,3.8954517705153027,Metro Cash and Carry,grocery
12.9274069,77.5026998,3.9503596581731855,Royal Oak,home furnishing
12.9248746,77.4985655,4.2098070487790045,Sri Lakshmi Juice Center,food service
12.9249452,77.4986325,4.206610291053175,Anda Ka Funda,food service
12.9173939,77.5781136,4.912128769862869,Mandarthi Veg,food service
12.9147197,77.5179327,1.8337163836098234,Santhrupthi Hotel,food service
12.9309162,77.5473845,2.8834203402998595,Bengaluru Coffee House,food service
12.9306773,77.5474666,2.86531447920731,Karnataka State Co-Operative Apex Bank Ltd,financial
12.9306982,77.5474396,2.865773842915359,Davanagere Bajji Centre,food service
12.9407678,77.542786,3.700897505906532,Saphalya Credit Co-op. Society,financial
12.9397235,77.5424829,3.5802223061499996,Charan Stores,grocery
12.9358925,77.5477749,3.3886312195676505,HDFC Bank,financial
12.9360376,77.5479197,3.4101141268415045,Zoyo Wholesale Center,clothes
12.9366134,77.5483683,3.489240005157781,MediBase,education
12.9369584,77.5486218,3.535917885219265,KKN coaching classes,education
12.9373192,77.549336,3.6073836528524876,Aahar Utsav,food service
12.9376675,77.5492313,3.636332891994681,KBS Family Mart,grocery
12.9377041,77.5492421,3.6404816374377016,Havyaka Mess,food service
12.9393634,77.5501453,3.849339582822753,,grocery
12.9386661,77.549057,3.7265917705410736,coffee bite,cafe
12.9389386,77.5517171,3.890298559738098,Mument Fashion Zone,clothes
12.9389282,77.5515602,3.8807798685455213,New Sagar Fast Food,food service
12.9391987,77.5517587,3.9175832998145284,Prince Selections,clothes
12.9391909,77.5517929,3.9186877371546833,Lalith Fashions,jewellery
12.9389157,77.5518525,3.895495807862878,Bunt's Biriyani Palace,food service
12.9388223,77.5521241,3.9015380464559875,K.M. Fashions,clothes
12.9387032,77.5524202,3.906757770104121,Kotak Mahindra Bank,financial
12.9386785,77.5525989,3.914521428284259,T.N.T. Jewellery Works,jewellery
12.9386602,77.5526706,3.9168658583953473,Inder Jewels,jewellery
12.9386426,77.5527913,3.9220933800593865,Mahalakshmi Jewellers,jewellery
12.9385877,77.5528631,3.92103132400687,Sri Gowri Ganesha Jewellery Works,jewellery
12.9385824,77.5529046,3.9229186291398235,Sri Sharada Enterprises,grocery
12.9386125,77.5528785,3.924254307606891,Pushpa Fancy and Bangle Stores,grocery
12.9386079,77.552908,3.925516953432409,Maruthi Textile Showroom,clothes
12.9386047,77.5529496,3.9276108581721596,Meenakshi Textiles,clothes
12.9386001,77.5529777,3.9287980353126226,Kasthuri Garments,clothes
12.9385903,77.5530441,3.9317121207741734,Meenatshi,grocery
12.938587,77.5530642,3.932565134743023,Sri Mahalakshmi Ghee Center,grocery
12.9387354,77.5532091,3.954905991188807,Shoe Planet,shoes
12.9387596,77.5530776,3.949575046924011,Praveen Kumar Textiles,clothes
12.938804,77.5529925,3.9488590896153286,Dhanalakshmi Departmental Stores,grocery
12.9388112,77.5529268,3.945769131961579,Ambika Jewellers,jewellery
12.9388491,77.5527685,3.940312405627566,J.K. Traders,grocery
12.9389125,77.5525077,3.9315702441209037,Millenium Bar and Restaurant,bar/club
12.938672,77.5523172,3.897998546119725,Rose Art,clothes
12.9386805,77.5523454,3.900391169602944,Manoor Maiya's South Kitchen,food service
12.9387811,77.5521845,3.9009658462947203,Venkateswara Chats,food service
12.9387151,77.5520336,3.886277019135183,Brahmin Cafe,food service
12.9361997,77.5510016,3.5890583164909335,Ganesh Traders,grocery
12.9045529,77.5101864,2.587588797801141,Lakvin Shelters,lodging
12.940807,77.5416769,3.674908610461752,Janana Deepthi School,education
12.9302122,77.5150097,3.1339618959218396,R.R. Cafe,cafe
12.932306,77.5165647,3.2150591864725695,Stone House Cafe,cafe
12.9315906,77.5174586,3.0943697254108367,Young World,education
12.912753,77.5658534,3.5162218214656233,Mosque,place of worship
12.9397956,77.5631777,4.709922592626287,,grocery
12.9130455,77.5557129,2.436625442075047,Bhumika Paradise,lodging
12.9074344,77.5468204,1.4310492490564632,Reliance Trends,clothes
12.9015782,77.5503174,1.969041898467461,,attraction
12.9099594,77.5499367,1.7676183380502333,Patanjali Store,grocery
12.9099841,77.5500912,1.7845300433015059,Happy Pockets Supermarket,grocery
12.9090169,77.5530601,2.100820088041405,Srinidhi Fast Food,food service
12.9092402,77.5527258,2.0651780767148726,Saraswati Supermarket,grocery
12.9227174,77.5563021,2.9059127192530356,Mane Thindi,food service
12.8788073,77.5254107,3.4415721848735807,,attraction
12.9053691,77.5327172,0.38372899872666744,City Viewpoint,attraction
12.8876714,77.5525948,3.1089367436120945,,financial
12.8876714,77.5525439,3.1053013652339,,financial
12.8876505,77.5507441,2.9822955017454484,,financial
12.8876583,77.5507012,2.978732946517118,Bank of India,financial
12.9460972,77.5304519,4.174177718405379,,financial
12.9180704,77.5161687,2.165656274335741,khandoba,lodging
12.9240574,77.5678454,4.078154211512301,Hari Super Sandwich,food service
12.9102591,77.4901432,4.721934189068415,Pushpa Sadan,place of worship
12.9275842,77.5153381,2.8923552330308238,,place of worship
12.9263673,77.5156313,2.7731115053747866,HDFC Bank,financial
12.8873821,77.5688673,4.489964085263649,GHPS Konanakunte,education
12.9048912,77.5280275,0.7441553284433344,City Mart,grocery
12.8898311,77.5728954,4.739653007730365,"Carmel Jyothi LPS, Chunchanagatta",education
12.9356072,77.5344944,2.9943572245498653,Food Corner,food service
12.933823,77.5342179,2.795270071066095,Great Indian Bhukkad,food service
12.9340481,77.5344673,2.8209828176876126,Celestial Heights,lodging
12.9334557,77.5356164,2.761805445190881,Lending Library,education
12.9353489,77.5351147,2.968409700579303,Reference Library,education
12.9032482,77.5787159,4.918619493298284,"Thrishool School J P Nagar, Jaragana Halli 1",education
12.8951036,77.5703915,4.256214651740395,"Jyothi Kendriya Vidyalaya HPS, Jaragana Halli 1",education
12.9020965,77.57588,4.632283893979016,"Sri Vidyanikethan HPS Jaragana, Jaragana Halli 1",education
12.8991056,77.5763195,4.742847861542391,"Vivekananda HPS, Jaragana Halli 1",education
12.9040441,77.574382,4.4416610583320955,"Shreyas School Jaraganahalli, Jaragana Halli 1",education
12.8996164,77.5756288,4.657291533741456,Sincere Vidyalaya Jaraganahalli 1,education
12.9131883,77.5406751,0.9082882357101425,Taaza cake,food service
12.9138994,77.5374377,0.7081046306921193,Nandini Milk Parlor,cafe
12.9433649,77.5266311,3.9306257116298857,,financial
12.9111628,77.5097365,2.609623172493887,Panchasheela Polytechnic School,education
12.9465799,77.5299453,4.232562105946206,,financial
12.9251181,77.498842,4.194454653350214,Rolls Rice Cafe,cafe
12.9264213,77.500273,4.122699740096217,Brew Kings,bar/club
12.9203305,77.5601312,3.145496496165618,ICICI Bank,financial
12.9205605,77.5601846,3.1613634385909535,Syndicate Bank,financial
12.9349174,77.5367638,2.935442408782206,Coffee House,cafe
12.9349665,77.5367068,2.9401709812814674,HDFC Bank,financial
12.938738,77.5230114,3.535593020971933,Vidya Vikas Polytechnic,education
12.9366068,77.5176248,3.558629232750284,Eastwind (Delicious Biryani),food service
12.9364637,77.5159062,3.639807759475778,Go Gas,fuel
12.9347724,77.511431,3.7717145386182045,SKL Grand Rooms,lodging
12.9415972,77.5643731,4.945133441955724,Canara Bank,financial
12.9275729,77.5470424,2.550690938799595,Curtains N More,home furnishing
12.8834749,77.550013,3.3159219507537383,Sindhoor,food service
12.8864483,77.5661623,4.302576546780497,Kakkal Kai Ruchi,food service
12.9441073,77.5265184,4.01397838257072,Gurushree Grand,food service
12.9425833,77.5254053,3.8739911523130868,,place of worship
12.9410881,77.5244316,3.739342684553113,,place of worship
12.9304328,77.5062892,3.8285633825455903,,financial
12.9518775,77.5369187,4.815040939626206,Mohan Fashions,clothes
12.9486204,77.5348721,4.441937136218923,Punjab National Bank,financial
12.902777,77.5073782,2.9255872111278327,Chitrakala Parishattu,education
12.9417677,77.5258988,3.7735108594128377,B M Valley School,education
12.9246587,77.4983083,4.224879762856621,Biryani Bhavan,food service
12.9245593,77.4981916,4.231739806549768,Domino's,food service
12.9250769,77.4987938,4.197167185641543,Sip n Hog,cafe
12.9250534,77.4987596,4.199373898568366,Biryani Katte,food service
12.9134949,77.5565779,2.538618330855456,Muneshwara Temple,place of worship
12.9248061,77.4984306,4.2197891981569615,Dosa Hut,food service
12.9332662,77.5403188,2.8258820247136147,Union Bank of India,financial
12.92499,77.4994006,4.133775560530295,,financial
12.9316197,77.5062449,3.916881741856777,,financial
12.9001694,77.5603874,3.0458303108572315,Veg Corner,food service
12.9001862,77.5603615,3.0425813179907553,Veg Corner,food service
12.9454491,77.509215,4.872080324655954,Department of Geology,education
12.9254097,77.4986469,4.227655548324112,"Orchids The International School, Mysore Road",education
12.912102,77.4916924,4.566571467523527,Prakruti Apartments,lodging
12.9126223,77.4921221,4.525380100715838,Vanani Apartments,lodging
12.9144145,77.5208702,1.527334572286831,HDFC Bank,financial
12.9276526,77.5620661,3.7297229341385827,Thamboola Fine Dine Vegetarian Restaurant,food service
12.905931,77.54275,1.02981317954054,G.r. Correspondence College,education
12.8889323,77.5522838,2.9820590779382528,OYO 19119 Shrungara Rooms,lodging
12.9348259,77.5116992,3.757796541693583,Mane Upahara,food service
12.9130094,77.5210675,1.44891236358031,State Bank of India,financial
12.9337223,77.5623383,4.1706959244078625,Sri SIdhi Subrahmanya Temple,place of worship
12.9322882,77.5641817,4.220597377153349,SBI ATM,financial
12.9357431,77.5613135,4.244811158610925,State Bank of India,financial
12.9356558,77.5609792,4.2124118306698985,,financial
12.9363701,77.561999,4.346634928675073,Narasimha Swamy Temple,place of worship
12.9084569,77.5119601,2.3542493498494443,Reliance Smart Point,grocery
12.8967362,77.5633917,3.4839017267373333,The Millet Store,grocery
12.9333791,77.5546325,3.562766514296036,Galaxy Elite,lodging
12.9398699,77.5624828,4.6652685185528835,Kumaraswami temple,place of worship
12.8818677,77.5694693,4.89322889390904,Kings & Queen Apartment,lodging
12.8811748,77.5698134,4.9699107225985815,Silicon Enclave Residential Layout,lodging
12.8679234,77.5430553,4.645551733822527,BLR Brewing Company,bar/club
12.910857,77.565731,3.48217098667461,,grocery
12.9305557,77.5063562,3.8315922741172592,Puma,shoes
12.9349331,77.5119513,3.749803606341863,Thalassery Restaurant,food service
12.9167617,77.5216256,1.5850819394894098,Sangameshwara Temple,place of worship
12.9200603,77.5108428,2.7793631447203735,Anjaneya Temple,place of worship
12.8830755,77.549322,3.3146306979885223,Hari Super Sandwich,food service
12.8832022,77.5485669,3.261271361837599,Krishnam Udupi Hotel,food service
12.8921207,77.5632926,3.7008697512786695,SAF Snowdrops Apartment,lodging
12.8830731,77.5486374,3.277527459283572,Onesta Italian,food service
12.8833886,77.5493843,3.2882529255597728,Ratnadeep Supermarket,grocery
12.8832665,77.5663985,4.535244107078276,HDFC Bank,financial
12.9285826,77.5028976,4.00287938401997,Bharat Petroleum,fuel
12.8880165,77.5625753,3.8850313236649074,MINISO,grocery
12.8884506,77.5633076,3.921395448841124,LuLu Daily,grocery
12.8881316,77.5629401,3.909478850654438,PVR Superplex,cinema
12.9040621,77.5079079,2.840333365535074,Big Barrel Brewpub,bar/club
12.8831068,77.5486654,3.2757750008242383,Empire Restaurant,food service
12.8829353,77.5487865,3.2988448781252497,Barbeque Nation,food service
12.8837021,77.5486217,3.2160695764799017,Adayar Ananda Bhavan (A2B),food service
12.9330518,77.5158827,3.325461251244028,Bank of Baroda,financial
12.8791863,77.5455794,3.5250954746601213,Bata Showroom,shoes
12.9059616,77.5734858,4.325018318197156,,financial
12.9266736,77.4943694,4.70645655601864,Gnanabodhini Kannada Higher Primary School,education
12.9264043,77.4942917,4.701459080396319,Gnanabodhini English Higher Primary School,education
12.8877982,77.5627778,3.917095048995835,Rasotsav,food service
12.8886906,77.5634793,3.9214538342318637,Magnolia Bakery,cafe
12.8743199,77.5421124,3.9295566428742768,HP,fuel
12.8735904,77.5428076,4.026343925314085,Fareaway,grocery
12.8708103,77.5426386,4.322515089839243,Chethana Public School,education
12.9161105,77.5740163,4.448958977704927,,financial
12.9317722,77.5157033,3.222338833852165,1522 Pub,bar/club
12.9404174,77.525115,3.6480023289090195,PVR Cinemas,cinema
12.9403965,77.5254154,3.637601799138574,Subway,food service
12.9401822,77.5253256,3.6169352961198333,Burger King,food service
12.9402744,77.5253631,3.6258494389145124,Pizza Hut,food service
12.9176033,77.5359611,1.0214842680436458,Shri Anjaneya Temple,place of worship
12.918168,77.5360872,1.085718660033821,Shri Arkeshwara Temple,place of worship
12.8883669,77.5637072,3.9622440545242723,GOPIZZA,food service
12.8882388,77.5634819,3.9503929586449065,Punjab Grill,food service
12.8880845,77.5633371,3.9475044366940297,You Mee,food service
12.8879146,77.563042,3.9325708638512618,Birkenstock,shoes
12.8874779,77.5624412,3.909167286880337,Shaya,jewellery
12.8657795,77.5392947,4.810087022418835,ICICI Bank,financial
12.9364245,77.5349405,3.086959997429984,Indira Canteen,food service
12.9415978,77.5317487,3.665161903536778,,food service
12.9250501,77.551074,2.6197816651312618,GULP,bar/club
12.9145452,77.5659207,3.554494789762953,,place of worship
12.8953421,77.5392996,1.604338547106659,Family Super Market,grocery
12.9403206,77.5253838,3.6302692902205433,KFC,food service
12.9404349,77.5254297,3.6413594816233075,MBA Chatwaala,food service
12.9402277,77.5253419,3.6213925537037754,Shivsagar Restaurant,food service
12.9404593,77.5253435,3.6462932160805845,Wow! Momo,food service
12.9403644,77.5253986,3.634591645515464,Charminar,food service
12.9401567,77.5252131,3.617263933403965,Squeez juice bar,food service
12.9403808,77.5253327,3.638128173761749,Westside,clothes
12.9402284,77.5251687,3.6261974314408714,Reliance Fresh,grocery
12.9401657,77.5251809,3.619118575555094,Reliance Trends,clothes
12.9404757,77.5252607,3.6502927745555476,Srinidhi Silks,clothes
12.9061896,77.5780386,4.815851513087993,HDFC Bank,financial
12.9062943,77.5758493,4.578286794100543,1522,bar/club
12.9061749,77.5789241,4.911762662242513,Yello,education
12.9063819,77.5775686,4.763794647050056,Tipsy Bull,bar/club
12.9066927,77.5790664,4.924223328412638,Vidyasagar Preschool,education
12.9060288,77.5792706,4.950203695075747,,financial
12.9060151,77.579232,4.946119019350669,State Bank of India,financial
12.9062042,77.5793891,4.961898036842812,Jodhpuri Furniture,home furnishing
12.9061991,77.5794423,4.967686826920147,Federal Bank,financial
12.9066859,77.5768602,4.685395678161116,IndusInd Bank,financial
12.9063706,77.5777546,4.783992827116642,The Big Market,grocery
12.9062077,77.5754154,4.531916013042833,Bank of India,financial
12.9072425,77.5787712,4.8898615311618565,Indira Canteen,food service
12.929597,77.5343709,2.3259579528563066,Sharada Shri Public School,education
12.9174621,77.5758584,4.674319219517461,Sri Roshni Creations,clothes
12.9174902,77.5751993,4.605143540514076,Raymond,clothes
12.9523737,77.5438444,4.980747579878327,Kadamba Classic Hotel,food service
12.9294996,77.5352415,2.3201024754161703,Ba Guru Thindi Madona,food service
12.882822,77.5659984,4.532620253558633,Karnataka Bank,financial
12.88336,77.5664513,4.533253207113581,Udupi Upahar,food service
12.8883217,77.5630735,3.9089312358031023,Glen's Bakehouse,cafe
12.8878061,77.5624901,3.891506906059178,United Telugu Kitchens,food service
12.8825494,77.5467206,3.2321557702236214,Namma Adigas (Veg),food service
12.8823832,77.5466504,3.2454824837858887,Anand,food service
12.9072066,77.5639201,3.2817227995219853,Axis Bank,financial
12.9073172,77.5639625,3.285717488817428,Thalassery Restaurant,food service
12.9068996,77.5637704,3.2674223463329657,State Bank of India,financial
12.9080228,77.5639733,3.2841736884742705,Namm Kannada,cafe
12.9034744,77.5626424,3.19223766387122,Indira Canteen,food service
12.9058079,77.5582074,2.677658182664109,Indira Canteen,food service
12.9059954,77.5584233,2.6984963912817475,Sri Krishna Aramane,food service
12.9054582,77.5597765,2.8512174947076603,Samskruthi Public School,education
12.9071177,77.5597872,2.835026742320827,Canara Bank,financial
12.9071693,77.559871,2.843744948672126,ICICI Bank,financial
12.9072014,77.5611853,2.9857551998501393,Sri Dharani Ladies PG,lodging
12.9070772,77.5612731,2.9960524886619013,Ladies PG,lodging
12.906785,77.5597188,2.8301574649231154,Sabji Corner,food service
12.9045091,77.5617103,3.073445849981522,Davangere Mirchi,food service
12.9054739,77.5595592,2.8276333087131293,Sri Chakravarthi Jewllers,jewellery
12.90657,77.5596122,2.8205347537611503,Pooja Jewellery,jewellery
12.9065915,77.5594915,2.8072987996625214,Jockey,clothes
12.9071935,77.5602324,2.882690218653149,Veer Soningra Fancy Store,clothes
12.9073157,77.5610733,2.9729537559581813,Vcer Electronics & Home Appliances,home furnishing
12.9069615,77.5620697,3.0830175737451393,Idly 24,food service
12.9069955,77.5627497,3.1563512749761147,Stop N Joy,food service
12.9067497,77.5633478,3.222779001257542,Eat N Drink,food service
12.9067255,77.5634068,3.2293404692179113,Donne Biryani Corner,food service
12.9064621,77.5634377,3.234794725350477,Bharath Furnitures,home furnishing
12.9063719,77.563376,3.228912802314229,Chowdeshwari Rice Traders,grocery
12.9061183,77.5630534,3.19646138371499,JK Furniture,home furnishing
12.9060177,77.5630052,3.192280638657197,Jagli Thindi,food service
12.9056549,77.5628214,3.176481237838367,Century Ply,home furnishing
12.9047876,77.5623541,3.138005710595757,Titan,watches
12.9052359,77.5626122,3.1592639556348456,SLV Refreshment,food service
12.9024293,77.5688598,3.876030503485261,Masjid e Faiz,place of worship
12.903466,77.567628,3.7250532908991634,Masjid e Abu Bakr,place of worship
12.9030947,77.5703658,4.02460687818023,Bismillah Provision Store,grocery
12.9043117,77.568727,3.8296640304390257,New Era Primary & High School,education
12.9045614,77.5694311,3.9020053708614624,Masjid e Umar,place of worship
12.9032032,77.5697228,3.9538867578971453,Masjid e Usman,place of worship
12.9048902,77.5683146,3.777593813423841,Yaseen Store,grocery
12.9047967,77.568269,3.77386169528981,Hello Provision Store,grocery
12.9036411,77.5680175,3.763804206768155,St. Thomas International School,education
12.9034673,77.5687028,3.8401424099469774,Aswad Day Care,education
12.8939593,77.567857,4.0503534592564625,Zudio,clothes
12.9038928,77.5307716,0.6196054577557474,Paakashala Heritage,food service
12.8816467,77.5505825,3.521221997316414,Malgudi Amrutha Chaha,cafe
12.8876535,77.5626484,3.915402973517788,Lucky Chan,food service
12.9246083,77.500843,3.9747836462612667,Ganesh Temple,place of worship
