Landmark Latitude,Landmark Longitude,Distance,Landmark Name,Property Type
13.0476857,77.5742994,4.070428599530206,Big Bazaar,grocery
13.0383199,77.5646766,4.738637512612132,,fuel
13.0492109,77.547547,3.616391220136835,Kamat Nandanvan,food service
13.0483161,77.5520608,3.603456435545164,Ekadanta Temple,place of worship
13.0483946,77.5426609,3.887206582059489,Dosa Camp,food service
13.0452298,77.547996,4.029500057265249,Jalahalli Village,transportation
13.0468252,77.5494119,3.8208642278651284,Ganesh Upahara,food service
13.0492252,77.5474051,3.6193819353082013,Nilgiris,grocery
13.0397585,77.5555028,4.51452127443717,City Supermarket,grocery
13.0400303,77.5555993,4.483889938615589,Spencers Daily,grocery
13.0436252,77.5536883,4.098953702240346,Hindustan Petroleum,fuel
13.0460808,77.5460984,3.9953625871526692,Sharadambal Temple,place of worship
13.0466974,77.5440647,4.003445918651661,Raghavendra Temple,place of worship
13.0521546,77.5515881,3.192110173335012,Bharath,food service
13.051811,77.5517989,3.225326511105968,Kadamba Veg,food service
13.0489683,77.5440769,3.768199572344846,Durga Restaurant,food service
13.0457661,77.5416305,4.199637294256282,Father Mathews School,education
13.0369119,77.5659032,4.916524424534346,Shanthi Sagar,cafe
13.038095,77.569086,4.866468588201906,RMV Club,bar/club
13.0380165,77.5693434,4.882280223560876,RMV Club,food service
13.0372579,77.566121,4.883329746804344,Chicken County,food service
13.0369962,77.5573938,4.817591983015307,Mathikere Masjid,place of worship
13.1028474,77.5770272,3.293713853170262,Schezwan,food service
13.1061576,77.5798146,3.7696654194250327,Namma Mane,food service
13.1048022,77.5810644,3.747833722462872,Drishya,education
13.1044566,77.5832328,3.8863444029710656,Mallu Bakery,food service
13.103198,77.5842815,3.876025693916698,Kadai,food service
13.1050842,77.5809991,3.765841118874884,ATM,financial
13.104987,77.5834226,3.9420396984598223,ATM,financial
13.097386,77.5913697,4.151304922053557,Venkateshwara Petrol / Gas Station,fuel
13.0592352,77.5939566,4.613086270820121,Green Country Public School,education
13.0884936,77.5460644,1.5168671282349144,Sambhram Boys Hostel,lodging
13.0815389,77.5475289,1.0646134498216384,Noorani Masjid,place of worship
13.0694057,77.5451149,1.7913788355562255,Akshya Complex,grocery
13.0565507,77.5474538,2.8493904792463636,Ebenezer Marthoma Church,place of worship
13.0541469,77.549106,3.042143038548261,HMT Guest House,lodging
13.0511982,77.5526747,3.2765543365794727,State Bank of India,financial
13.0474055,77.5445463,3.911316198633797,HMT Kinder Garden School,education
13.0478654,77.5442244,3.876086632139539,Mallige School Of Nursing,education
13.0441027,77.5439669,4.277701252241152,St. Claret PU College,education
13.043392,77.5451578,4.311166935655718,Saint Claret School,education
13.0900453,77.54119,2.05069780072891,Brothers Supermarket,grocery
13.0816565,77.5480509,1.010397926194729,City Lights Supermarket,grocery
13.0813456,77.5482816,0.9810793179016578,,financial
13.0990532,77.5812916,3.3319944541545605,Poorna Prajna Education Center,education
13.0996566,77.5838276,3.5903022729943834,ICICI Bank,financial
13.0797232,77.5622908,0.5469459227454395,Durga Devi Temple,place of worship
13.0813561,77.5597829,0.29462940594704506,ICICI Bank,financial
13.0803293,77.5591419,0.20182631392839392,Reliance Fresh,grocery
13.0797112,77.5591265,0.21135529312256604,Adyar Ananda Bhavan,food service
13.0790883,77.5588656,0.21990630079911974,Food World,grocery
13.0775498,77.5587667,0.34782432658716245,Sri Krishna Upahar,food service
13.0767862,77.558223,0.4062217298186844,State Bank of India,financial
13.0769096,77.558535,0.40307777129295463,Mythri Bazaar,grocery
13.0757025,77.558427,0.5284804108213211,Syndicate Bank,financial
13.0753105,77.5579778,0.5623441763152283,Cafe Coffee Day,cafe
13.0695087,77.5561726,1.2083025892024355,,financial
13.0695396,77.5627746,1.3385710738300067,Bharat Petroleum,fuel
13.0637857,77.5593618,1.8525135251703966,Kala Petrol Pump,fuel
13.0535251,77.5571463,2.979680378473239,BEL Guest House,lodging
13.0823148,77.5483971,0.9871389908605243,,financial
13.0721308,77.5492982,1.2556469052470198,Air Force School,education
13.0730662,77.5463531,1.4321985088097053,State Bank of India,financial
13.0390205,77.5641654,4.6526762909026695,Kanti Sweets,food service
13.0374605,77.5657693,4.853878817417683,Domino's,food service
13.0968515,77.5964304,4.621611444155891,Prakash Theatre,cinema
13.0992439,77.5880493,3.941270006136404,Yelhanka Cafe Cofee Day,cafe
13.099742,77.588778,4.037572850289401,Chandra cafe,food service
13.0987998,77.5857428,3.7048110838054633,Heritage,grocery
13.0995417,77.5861639,3.788757831736,Chaitnya nursing School,education
13.0967578,77.5840299,3.425603446380418,Sharavathi(Sagar Deluxe),lodging
13.0965854,77.5846736,3.47475307322742,Ragavendra Swamy Temple,place of worship
13.0965007,77.5851093,3.5102974943291883,Church,place of worship
13.0964591,77.5871761,3.70204540812635,,place of worship
13.0972019,77.5834398,3.3987382319324526,Ganesha Temple,place of worship
13.0989001,77.5876488,3.8841961011139774,CornerHouse,food service
13.0988906,77.5849491,3.6393111836374072,State Bank of India,financial
13.0978498,77.5908977,4.129986768523487,Venkateshwara Swamy Temple,place of worship
13.0988313,77.585668,3.7000196514671706,,financial
13.0987868,77.5859079,3.718905466928183,,financial
13.0991591,77.5878519,3.918160061286065,Axis Bank,financial
13.0938522,77.5826842,3.136073360621542,Union Bank,financial
13.0934035,77.5825112,3.095894851678209,Kanti Sweets,food service
13.098633,77.5773144,2.9756879493426727,Kanti sweets,food service
13.0591093,77.5931284,4.543314033572115,Swathi garden,food service
13.0627642,77.5929313,4.32713712425367,SAFA,clothes
13.0566077,77.5930643,4.6880253568964205,Hindustan Petroleum,fuel
13.0995328,77.5890285,4.04820104288175,Domino's,food service
13.0950433,77.5942125,4.322178833527514,Idli Express,food service
13.0581797,77.5947625,4.748260827956257,Sanjay Food Junction,food service
13.0730486,77.5413377,1.9065922944779339,Kuvempunagar 2nd Stage,transportation
13.0725786,77.5408777,1.9740546756467034,Padma Stores,clothes
13.0663685,77.5936278,4.231781070360349,Shell Ganesh Enterprises,fuel
13.0566632,77.5930793,4.685901024548274,Union Bank,financial
13.0614104,77.5930766,4.410945505009904,Raymond Shop,clothes
13.0835344,77.5848473,3.007246465550454,Pranav Upahara,food service
13.0823952,77.5880175,3.337295969122219,Aashirvad Department Stores,grocery
13.0814599,77.5881516,3.3462469459270148,Smart,grocery
13.0810953,77.5886994,3.404274145436394,,financial
13.0828092,77.5880986,3.3495430428070825,Jnanadeepika School,education
13.0879495,77.5861667,3.24175264555935,Shanishwara Temple,place of worship
13.0811411,77.5879745,3.325921439253205,SBI,financial
13.0367811,77.5660503,4.933848280596674,Via Lucknow,food service
13.0370746,77.5656715,4.894039530081991,Maha Bazar,grocery
13.0594414,77.5928689,4.500149401473993,tuc inn,food service
13.0630099,77.582539,3.3453804517830217,UCO Bank,financial
13.0630099,77.5825229,3.343954375608171,,financial
13.0581249,77.5877178,4.11852366819288,More Supermarket,grocery
13.0579988,77.590347,4.357822405903119,Anjaneya Hanuman Temple,place of worship
13.0431053,77.5567496,4.138671400001204,Indian Oil,fuel
13.0426689,77.5568435,4.187065461327566,Bharat Petroleum,fuel
13.0712887,77.5560963,1.0125526910421685,ICICI Bank,financial
13.0722711,77.5562439,0.9021723861175256,Shiva Bar and Restaurant,bar/club
13.0721802,77.5565373,0.908846127424704,Canara Bank,financial
13.0724465,77.556674,0.8781266172235986,Adigas,food service
13.0763182,77.5569872,0.4462855583291949,Little Lilly's chool,education
13.0740912,77.5667843,1.2409739554619437,Anganavadi,education
13.0725169,77.5564198,0.8728236791063884,Indus Ind Bank ATM,financial
13.0841934,77.5604445,0.5503875725445855,Axis Bank,financial
13.0839191,77.5609033,0.5604853133323299,State Bank of India,financial
13.068655,77.558625,1.3054500749790392,Vijaya Bank,financial
13.0689767,77.5581507,1.2650387694354086,Sindhu Bar and Restaurant,bar/club
13.0681465,77.5601663,1.3894834426789933,Sri Shanishwara Temple,place of worship
13.0598353,77.5776438,3.1709621945594315,Naidu Bar and Restaurant,bar/club
13.0598058,77.5767863,3.1094736646092684,Sree Mahaganapathi Temple,place of worship
13.0600947,77.5766579,3.0764763009769416,Ranganatha Bar and Restaurant,bar/club
13.06084,77.5756311,2.9401087163698634,Union Bank,financial
13.0612056,77.5749043,2.8570923685152176,ICICI Bank,financial
13.0631863,77.5727244,2.5356193355761976,Indian Bank,financial
13.0636896,77.5721105,2.4497264582671763,More,grocery
13.0637683,77.572199,2.449440347800825,The Big Market,grocery
13.0637178,77.5720279,2.4414964935513845,Axis Bank,financial
13.065099,77.5708064,2.2387823439333028,Indian Oil,fuel
13.0666704,77.5703287,2.074170247696976,ICICI Bank,financial
13.0666286,77.5703088,2.076108415334028,State Bank of India,financial
13.0717094,77.5678536,1.4929970302182598,Nethravathi Bar and Restaurant,bar/club
13.0725801,77.5672904,1.3845414814601071,Sri Manjunatha Wines,bar/club
13.0719157,77.5667309,1.38630803520479,Sri Veerabhadreshwara Temple,place of worship
13.0727682,77.5663519,1.292770183378215,ICICI Bank,financial
13.0698267,77.5638554,1.3672313274939016,Canara Bank,financial
13.06942,77.5624389,1.3348669691203738,Essay Petroleum,fuel
13.0692445,77.562181,1.3413116344374039,SBI,financial
13.0692521,77.5622181,1.3421324315884176,ICICI,financial
13.0692615,77.5622483,1.342482124848031,Canara Bank,financial
13.0682388,77.560175,1.37969946040021,Durgashri Upahar,food service
13.0701469,77.5555323,1.1470860776679659,Bank of India,financial
13.0753507,77.5580493,0.5590191977380797,Beijing Bites,food service
13.0757648,77.5582233,0.5169341942805638,Ammi's Biryani,food service
13.0770166,77.5585772,0.3935097427688744,HDFC Bank,financial
13.0707472,77.5558279,1.0761669411439745,Kanti Sweets;Axis Bank,financial
13.0862742,77.5554523,0.690809340791886,Raksha Bar and Restaurant,bar/club
13.0814716,77.559567,0.2789027625728702,Easy Day,grocery
13.0754182,77.5577982,0.5481421744981644,ING Bank,financial
13.0720739,77.5561694,0.9249475904174975,Mr. Chef,food service
13.0795306,77.5590352,0.2096188363018917,Karnataka Bank,financial
13.0782069,77.558981,0.2988320872548137,DCB Bank,financial
13.0785089,77.5590898,0.28128215085234726,Indian Overseas Bank,financial
13.0789222,77.5592094,0.260681095512075,Just Books CLC,education
13.0788692,77.5591795,0.26168589420755795,Domino's,food service
13.0812236,77.5594805,0.25872501649466334,Corporation Bank,financial
13.0802741,77.5594981,0.2404627928491085,City Central Library,education
13.0841288,77.5601764,0.5269933509195167,Sri Raghavendraswamy Temple,place of worship
13.0601253,77.5587008,2.2510150392494768,ICICI Bank,financial
13.0601513,77.5586148,2.2475116493899923,HDFC Bank,financial
13.0997283,77.5758556,2.950382512292389,Axis Bank,financial
13.1004947,77.5765336,3.062789539707347,UCO Bank,financial
13.069463,77.5562587,1.2124741583798322,Dhanalakshmi Bank,financial
13.0695997,77.5560764,1.1993205295472578,OPAL Solutions,office
13.0775521,77.5813643,2.626858648088087,,place of worship
13.099148,77.587717,3.9051587415509177,Indian Overseas Bank,financial
13.1005731,77.5881723,4.033152980641073,Rathna Kushka Center,food service
13.1070925,77.5756631,3.5813098580588694,Sri Ganesh Bake Paradise,food service
13.0933876,77.6007265,4.924897738214779,Ganesh Uphaar,food service
13.0400516,77.5573893,4.477846899233679,Union Bank of India,financial
13.0403573,77.5574215,4.443865521720813,Vijaya Bank - Gokula,financial
13.0610953,77.5540677,2.1659801989779734,Rajarajeshwari School,education
13.0365347,77.5620534,4.896286614104691,Muthuraiswamy Ayappa Temple,place of worship
13.063134,77.579815,3.10018649647042,Krishna Dairy,grocery
13.062591,77.582191,3.3418919523744743,Hopcoms Fruits N Vegetables,grocery
13.0682911,77.5601527,1.3734874597346036,J K Mart,home furnishing
13.0425009,77.5658935,4.307767409398388,Vrushi Apartment,residential
13.0374157,77.5661276,4.866265935740515,Ibaco,cafe
13.1076263,77.5747358,3.5767054446022555,Shiva Temple,place of worship
13.1076367,77.5734215,3.5045471118049627,Billal-E-Masjid,place of worship
13.1011334,77.5770354,3.1518181815014668,Royal Mart,grocery
13.102259,77.5769737,3.2404217665003077,State Bank of India,financial
13.103966,77.5715601,3.0503740859880293,Bank of Maharashtra,financial
13.099335,77.5772599,3.0254075295387586,Autorickshaw Stand,transportation
13.099474,77.5891287,4.053985251971736,Subway / Polar Bear,food service
13.0994519,77.5891437,4.05407789491139,Pizza Hut,food service
13.0993909,77.589218,4.057381973679083,Beijing Bites,food service
13.0994241,77.5891823,4.056017848384216,Mast Kalandar,food service
13.0993366,77.5775339,3.046828867957183,Udupi Grand,food service
13.093793,77.5712363,2.1281775139847996,Royal Mart,grocery
13.1044583,77.5726419,3.157814717003036,,education
13.1057039,77.5774402,3.568456666869529,ICICI Bank,financial
13.1022123,77.5769646,3.2358652014922726,State Bank of India,financial
13.0975803,77.5844426,3.5126061454873896,IDBI Bank,financial
13.0374079,77.5654203,4.852609279837554,Akshaya Deluxe,food service
13.0615669,77.5311976,3.5113042421818506,,place of worship
13.0712763,77.5121441,4.990986075565496,,grocery
13.0571395,77.548177,2.759821826254772,St. Mary's Orthodox Valiapalli,place of worship
13.0778369,77.5789149,2.3596785183857154,,education
13.0813597,77.5839205,2.8878919903300075,,grocery
13.0788225,77.5717807,1.5795570865058572,Agricultural Engineering,education
13.0579847,77.5919058,4.498491023520131,More,grocery
13.0608187,77.5873,3.9085635392132665,Freska,food service
13.0611505,77.5871136,3.871343218132253,Third Wave Coffee Roasters,cafe
13.0591909,77.5875414,4.033049973302973,Hyderabad Biryani,food service
13.0589975,77.5875951,4.050331722636904,Adigas,food service
13.063622,77.5909427,4.091890835929697,ICICI Bank,financial
13.0623962,77.5930084,4.35317763819859,The Big Market,grocery
13.0632832,77.5917375,4.185705572676553,HDFC Bank,financial
13.0637714,77.5905824,4.049576528945342,Svensens Icrecream,cafe
13.0807749,77.5879758,3.3251983413167743,Indian Bank,financial
13.0814685,77.5882534,3.357301125673537,Axis Bank,financial
13.0913689,77.580564,2.805243815765938,,place of worship
13.1110497,77.5797494,4.194907051566498,Bus Station Puttanahalli,transportation
13.0683712,77.5598029,1.3566735231340492,Ganesha Temple,place of worship
13.1044636,77.5950418,4.892227374180702,Chowdeshwari Temple,place of worship
13.0987953,77.596965,4.763906356119319,Skanda Sagar,food service
13.063575,77.5901585,4.018805410522459,Reliance Trends Footwear,shoes
13.0632045,77.592116,4.226237401844041,Domino's,food service
13.0633532,77.5906518,4.0775847569068695,Reliance Fresh,grocery
13.0631724,77.5914073,4.159480076593584,Bank of India,financial
13.0607699,77.5896859,4.12891019674419,The Janatha Co-Op Bank Ltd,financial
13.0633333,77.59087,4.099570193852245,IndusInd Bank,financial
13.1052531,77.5772085,3.5134727621858404,State Bank of India,financial
13.0928978,77.5878761,3.5969005396753335,Sparsh Creations,clothes
13.0927647,77.5879077,3.5943318417040415,Grub,food service
13.059555,77.5909394,4.315692948429137,New Kritunga Restaurant,food service
13.0788541,77.5591782,0.2626151813285753,Amma's Pastry,cafe
13.0856906,77.555749,0.6195522303793013,,financial
13.0435746,77.5532589,4.109222415987616,New Kiran Super Bazar,grocery
13.0942914,77.5459382,1.9802723322301559,SLN Super Market,grocery
13.039288,77.5537006,4.579168881613752,I Mart,grocery
13.0945389,77.5858712,3.476958124821491,Devi's Shop,grocery
13.0990214,77.5768362,2.968224204255722,Dazzle Super Market,grocery
13.093863,77.5866655,3.5210094438081545,Bharath Co-Operative Bank,financial
13.0659754,77.600105,4.905303242000752,Five Star Chicken,food service
13.0661389,77.5983966,4.724601427160024,State Bank of India,financial
13.0674182,77.5569653,1.435204712385932,,financial
13.0374651,77.5616603,4.789014687377874,Down bekary,cafe
13.044455,77.5801705,4.696185713959712,Brindavan College,education
13.0427167,77.5784812,4.770676574919761,Ideal Home,lodging
13.0998575,77.5976396,4.88132583324697,Papa John's,food service
13.0865943,77.5912059,3.7402332065714283,9th Mile Dhaba,food service
13.1155339,77.5770221,4.4612454089610285,Ganesha Shrine,place of worship
13.1143086,77.5791243,4.458683695711224,Shri Anjaneya shrine,place of worship
13.0673396,77.593683,4.199001394419034,Vijaya Bank,financial
13.0661591,77.5971544,4.597221227113274,Reliance Fresh,grocery
13.0636119,77.5913837,4.135016798975291,The Druid Garden,bar/club
13.0996791,77.5304733,3.6140440283252198,Sambhram NRI Hostel,lodging
13.0757935,77.6031285,4.991512113817357,Sri Vinayaka hot chip's,food service
13.0756655,77.6029434,4.973029379723907,Corporation Bank,financial
13.0534563,77.5747466,3.5360808063803,Indira Canteen,food service
13.0705029,77.577765,2.4729931742564055,Ganesha Temple,place of worship
13.0578349,77.5875037,4.119476932900842,Knopcha,food service
13.0628795,77.5926056,4.289871124981907,rara avis,food service
13.0951038,77.5699828,2.143594161283034,Purva Venezia,lodging
13.0727847,77.6017837,4.892735882914364,Sri Sanaischara temple,place of worship
13.0755912,77.602687,4.94628274102751,Clara Prime Inn,lodging
13.0725494,77.6026735,4.992179652783897,Treebo Hoppers stop,lodging
13.075489,77.6028284,4.962729997948819,Corporation Bank ATM,financial
13.0759489,77.6018756,4.854758344946648,Blue mas butterfly,clothes
13.0744127,77.57006,1.53239038758961,Shani Temple,place of worship
13.0715699,77.5652901,1.3038493073543302,Temple,place of worship
13.0717558,77.5652705,1.2870654487927888,Shiva Temple,place of worship
13.0638286,77.5864221,3.650721940089646,Oi Playschool,education
13.0635883,77.5870373,3.721777004396708,Kyara,clothes
13.0638835,77.5880338,3.7997357532940135,Breadworks,food service
13.0638295,77.5871557,3.719591814896663,Canara Bank,financial
13.0638577,77.5901963,4.0079766536744845,Blyton's Bar,bar/club
13.063911,77.5831924,3.347850773319371,Allahabad Bank,financial
13.0668023,77.594974,4.3508611157679224,Sri Vinayaka Hot Chips,food service
13.0666013,77.5955056,4.412618128852026,Udupi Garden,food service
13.0666891,77.5957734,4.436500788587058,ICICI,financial
13.0668568,77.5956679,4.419409683980056,Shoba Hyper Mart,grocery
13.066374,77.5971954,4.593268489098749,Sip 'N' Crunch,food service
13.0580013,77.5960278,4.876035349682521,Balaji Andhra Mess,food service
13.0938786,77.594727,4.3270075098707546,Spar,grocery
13.1034453,77.5843576,3.9003200435417638,Cafe Coffee Day,cafe
13.0950508,77.5972832,4.631988219342744,Cafe Coffee Day,cafe
13.0632918,77.5910715,4.121071214200813,Swiss Cream,cafe
13.0712071,77.5806832,2.7300975055602548,Academic Cafeteria,cafe
13.0665131,77.5966238,4.529773605445771,State Bank of India Amruthahalli Branch,financial
13.0661787,77.5979961,4.682243882153291,ICICI Bank ATM,financial
13.0662126,77.597857,4.666786676968829,HDFC Bank,financial
13.066438,77.5969948,4.570413585306145,Mylari-Inn,food service
13.0662012,77.5979099,4.672609252222727,HDFC Bank Atm,financial
13.0665224,77.596578,4.524756010268975,SBI ATM,financial
13.0605479,77.588392,4.023879744188065,Unmask cold pressed cooking oil,grocery
13.066602,77.5963556,4.4990924260117415,Sri Sudha Co-Operative Bank Ltd,financial
13.0725613,77.6024947,4.972877190736733,Beijing Bites,food service
13.0731021,77.5931659,3.9690487740465814,Anand Timbers,home furnishing
13.0941517,77.5954046,4.406376872637704,INOX,cinema
13.0660933,77.5983768,4.724275928965519,Kadak Hotel,food service
13.0659269,77.6002158,4.918406379627572,Rolls Delight,food service
13.0979031,77.5662138,2.181378309051926,State Bank of India,financial
13.0982036,77.5691333,2.366887355444735,Axis Bank,financial
13.1035707,77.5841725,3.8945096345377177,New Udupi Veg,food service
13.1037262,77.5840102,3.8929176260696288,Biryani Zone,food service
13.0568114,77.5469099,2.845254850704327,Lassi Shop,food service
13.0576985,77.5465371,2.7716042604366637,shop@rite,grocery
13.0592583,77.5458048,2.6514347391559685,,financial
13.0610821,77.5446421,2.539712580229868,,place of worship
13.0817003,77.5486667,0.945252779636455,Cloud 8,clothes
13.0820883,77.5486372,0.9563266889417095,Oyalo Pizza,food service
13.0825154,77.550201,0.8044342199845864,Red Rose Furnitures,home furnishing
13.0845049,77.5527571,0.6754102161304608,State Bank of India,financial
13.084774,77.5532332,0.6611094478845799,Hindustan Petroleum,fuel
13.0864617,77.5557974,0.7013293111377813,,place of worship
13.0893042,77.5563392,1.0039760940171456,Emily Chilli Cafe,cafe
13.0401787,77.5574362,4.463730624910998,Lassi Shop,food service
13.116341,77.5781161,4.597201739873774,3 Peg Bar and Restaurant,food service
13.1140618,77.5789194,4.423650312426423,Royal Mart,grocery
13.0662737,77.5586338,1.568948829681321,Mallikarjuna Flourmills,office
13.063717,77.5906393,4.057816525340445,Watsons,food service
13.0626929,77.5898165,4.032776255455374,Nathaniel School of Music,education
13.0468704,77.5758244,4.227407099138071,,food service
13.047544,77.544573,3.8958858734784885,"Orchids The International School, Jalahalli",education
13.0535572,77.5752216,3.5544761160764016,Iyengar Bakery,cafe
13.0543023,77.5685759,3.1413619875812917,Vyasa International School,education
13.0719107,77.524488,3.672673923825225,Canara Bank,financial
13.0623983,77.5182099,4.677501712230064,Axis Bank ATM,financial
13.0604743,77.5313611,3.570859498387957,Canara Bank ATM,financial
13.0997967,77.5792365,3.2163940721548028,Allahabad Bank,financial
13.0779626,77.5786126,2.3255460318929893,Canara Bank,financial
13.0384524,77.5649122,4.728512861163096,Bank of Baroda,financial
13.0845693,77.551989,0.7424907824787319,Bismillah Hotel,food service
13.0724189,77.5244541,3.662252581941167,Annapoorna Hotel,food service
13.0721671,77.546269,1.4980484523366246,Chilli Shots Restaurant,food service
13.044658,77.552906,3.9938048004534457,Dashami Fast Food,food service
13.0972087,77.5454177,2.2751110928551515,Ambabavani Temple,place of worship
13.0691806,77.5809502,2.8475386125011224,Trupti Thindi,food service
13.0690971,77.5809341,2.8500228216563146,Nila Food Corner,food service
13.0354488,77.5551021,4.995204922323612,,place of worship
13.0628968,77.576413,2.8371661614690478,Cafe Naturals,cafe
13.0376973,77.5595009,4.745726482019444,Athumanesar church,place of worship
13.0409904,77.5636179,4.427020174204667,,financial
13.0700921,77.574569,2.1911475384177392,#28,lodging
13.0586132,77.5931287,4.572226927405569,Thalassery Restaurant,food service
13.06375,77.5777442,2.882587468072294,Naksha Greens Juice and Snack Bar,food service
13.0720813,77.5728428,1.9187217519664037,JNS Tiffin Centre,food service
13.0475645,77.5288249,4.771384470022015,Prasad Enclave Temple,place of worship
13.0641829,77.5748723,2.6176130472283017,Sierra Syllable,lodging
13.1040018,77.5715488,3.0531860423799593,Sri Skanda Buy 'N' Save,grocery
13.1038752,77.5716205,3.045008105322037,Ali's Juice Centre,cafe
13.1038513,77.5716192,3.042650789831079,Kolkata Rolls Corner,food service
13.1038006,77.5716996,3.0422657473759718,Bapanna's Iron Stall,clothes
13.0961136,77.575873,2.6719406818177025,Guru,lodging
13.0496666,77.5753548,3.9310044821119416,Charana residency,lodging
13.0496812,77.5753996,3.932016898444626,Sahana Residency,lodging
13.0496462,77.5753753,3.934077565949956,Charana Residency,lodging
13.1034041,77.5716253,3.0003413470867097,Organic Basket,grocery
13.103222,77.5716133,2.9823616219786704,Belleza boutique,clothes
13.103085,77.5716252,2.9700396743467024,Bangarpet chats,food service
13.1031352,77.5716231,2.974679380957918,Shri Lakshmi Venkateshwara Jewellery Works,jewellery
13.0705642,77.576758,2.372491089774751,Nitiksha Rasoi,food service
13.0534758,77.5753819,3.5715613320281396,Udupi upahar,lodging
13.0494769,77.5757339,3.9698278277338854,,shoes
13.0494386,77.5757447,3.9740965527426084,,lodging
13.0683205,77.5785541,2.662918572713954,Santhu Spicy Table,food service
13.0596934,77.5930734,4.504804535235224,Nature's Basket,grocery
13.0668211,77.5928883,4.1388431868593525,Huliyappa's Donne Biryani,food service
13.1012054,77.5716623,2.796301592821281,Cafe 64,cafe
13.1025457,77.5717503,2.9263374950014303,Freshmart,grocery
13.1022469,77.571747,2.8981419177150127,Brixton Cafe,cafe
13.1026917,77.5716231,2.9327384437067345,Meeni's Fashion,clothes
13.102683,77.5715176,2.925879443023361,Mahid Western Botique,clothes
13.1013535,77.5718208,2.819545093971638,Fine Dot,grocery
13.1015775,77.5717756,2.8375263309778016,Little Milennium School,education
13.1012136,77.5717751,2.803881425437454,Balle Balle Punjab,food service
13.1028191,77.5716462,2.946083704518463,Purple Box,food service
13.1027795,77.5716423,2.9421223531073197,Blossoms women collection,clothes
13.1040156,77.571348,3.043563319872562,Sana foot wear,shoes
13.1003315,77.5700827,2.621772009132163,New Age PreSchool,education
13.1041105,77.5705109,3.0084733533759427,Colours Ladies Fashion Designer Boutique,clothes
13.1038501,77.5713463,3.0275547016609825,Uptown botique,clothes
13.1040407,77.5711475,3.0351745901500196,Dee Dulhan,clothes
13.1040242,77.5709721,3.0242193206530006,Sri Arunachala Hot Chips,food service
13.1040884,77.5706223,3.0120831458985733,Bombay Vada Pav Center,food service
13.1040333,77.5709423,3.023520204397726,Sri Ganesh Fruit Juice center,food service
13.1040974,77.5706648,3.015171762887605,Kuns Roll,food service
13.1040977,77.5704907,3.006180032028906,Kolkata chats and panipuri bhandar,food service
13.1041074,77.5705422,3.0097867644357224,Rolls Corner,food service
13.1041084,77.5703675,3.0009002488685397,Five star Chicken,food service
13.1041336,77.5702836,2.9990919822581477,Bangarpete Chats,food service
13.1110315,77.5802135,4.22262901382453,,place of worship
13.0588929,77.5860351,3.921648605041474,The rich crust cafe and bar,cafe
13.1039498,77.5727951,3.1188111120188067,Coconut stall,food service
13.1040121,77.572233,3.0923330994266633,Fusion Bytez,food service
13.1040195,77.5726021,3.1141529955483183,Street Food,food service
13.1040278,77.5726029,3.114980120770356,Street shop,clothes
13.10408,77.5731574,3.1522512826588476,North Eastern Rose Momo Shop,food service
13.1040279,77.5732277,3.1515645126233744,Prema Sugarcane Juice stall,food service
13.1039776,77.5734594,3.160732120235239,Gobi and Chaat,food service
13.1039238,77.5743228,3.208626418432985,Santosh footwear,shoes
13.1039351,77.5739504,3.1866284020921394,Maruthi textiles,clothes
13.1038382,77.5742737,3.197782107588462,Mahakaleshwar Garments,clothes
13.1038288,77.5744504,3.2079841781873166,Sahana Collections,clothes
13.1038871,77.5745656,3.22050575021915,Rang women's wear,clothes
13.1038287,77.5746321,3.2194237613940295,Mangal jewellers,jewellery
13.1038303,77.5747948,3.229886541568354,Beereshwara Hot Chips,food service
13.1038025,77.5749664,3.238344751882564,Traffic jam,clothes
13.1037228,77.5755565,3.2694996917738126,klaize,clothes
13.1068384,77.5708394,3.294064993412117,Biriyani hut,food service
13.1067216,77.570814,3.2812151130293037,KARAVEER TEA SHOP,cafe
13.0606314,77.5896449,4.133273506691869,Cafe Rome,cafe
13.0479288,77.5785318,4.274751660479834,Adyar Ananda Bhavan,food service
13.0688434,77.5803865,2.8095253852432576,Café Nosh,cafe
13.0608078,77.5821447,3.4586739687582955,Vishal Mega Mart,grocery
13.0605339,77.5897128,4.145258331972427,Hi Seoul,food service
13.0619585,77.5878057,3.8861809245962506,Davanagere Benne Dosa,food service
13.0620285,77.5876772,3.870248594660598,State Bank of India,financial
13.0623347,77.587278,3.815571887341777,Lakshmi Silk and Sarees,clothes
13.0632343,77.5860528,3.65015270627028,Vaibhav Jewels,jewellery
13.0637468,77.5853374,3.554333830779088,Brahmin's Thatte Idli,food service
13.0641062,77.5848818,3.491425071955996,Canadian Play School,education
13.1030189,77.5596069,2.53638084110197,ತ್ರಿವಿಕ್ರ,lodging
13.0553554,77.5930022,4.762280507698495,Fabindia,clothes
13.0554338,77.5930008,4.757080050274699,Peepai Kitchen & Brewery,food service
13.0372716,77.5659201,4.877613083348801,La Casa Brew + Kitchen,bar/club
13.0770305,77.5922254,3.8027687750478263,UDAY HUTS,food service
13.1090384,77.5803302,4.0532861993710005,Simpli Namdhari's,grocery
13.0628823,77.5940591,4.430731831507768,Simpli Namdhari's,grocery
13.0477325,77.5762392,4.165278527499346,,financial
13.0545024,77.5755966,3.489883512943538,HDFC Bank,financial
13.0943149,77.5950327,4.375072549449745,Popeyes,food service
13.1042673,77.5703697,3.0165967144192374,Taste Buds,food service
13.1040417,77.5712205,3.039191569297123,New Indian Bakery Y,cafe
13.103999,77.5715933,3.0553602697242335,Harsha Bakery,cafe
13.1040043,77.5715574,3.0538973399702423,Sri Skanda Retail Store,grocery
13.1038749,77.5716206,3.0449849388795704,Ali Bhaiya,food service
13.1038278,77.5716243,3.040686337294178,,financial
13.1038496,77.5744911,3.212424932527106,,financial
13.1038454,77.5745698,3.21699901336809,,financial
13.1037864,77.5753327,3.260537306852984,Thalassery Restaurant,food service
13.1022585,77.5717252,2.8979515877475936,Brixton,cafe
13.1012712,77.5717578,2.8081433723721134,Stopover,food service
13.0997175,77.5758749,2.9509306033858467,,financial
13.099653,77.5761409,2.965465713595486,,financial
13.0997586,77.5764915,3.0001985666031965,Sri Brahmalingeshwara Juice Chaats & Condiments,cafe
13.1004522,77.5765336,3.059330269980319,,financial
13.0637785,77.5906715,4.057817524304723,And It Was Called Yellow,food service
13.0635574,77.5902577,4.029235277055124,Holige Mane,food service
13.0368157,77.5659898,4.928814191306879,New BEL Road SOCIAL,food service
13.0945187,77.5949442,4.374241064482618,Nasi and Mee,food service
13.0397397,77.5640747,4.572165193557985,Indira Canteen,food service
13.0436723,77.5674972,4.22287040100627,,education
13.0983837,77.5731577,2.644131221075059,IDFC First Bank,financial
13.0983798,77.5731391,2.6424918541484024,,financial
13.0984057,77.5732531,2.652717121163729,the organic world,grocery
13.0984191,77.5733317,2.6594044236350625,Ajfan Dates and Nuts,grocery
13.0983856,77.5732747,2.6525507130622885,Barbeque Nation,food service
13.0984363,77.5734192,2.6670538435987567,KFC,food service
13.0984813,77.573668,2.688549158085463,Subway,food service
13.0553339,77.5940306,4.854590210951464,Chianti,food service
13.0553896,77.5943314,4.877819640824504,Candles Brewhouse,bar/club
13.0725691,77.6024289,4.965707847052355,Domino's,food service
13.0601937,77.5813253,3.434127546400898,Amiel Gourmet,food service
13.055451,77.5940239,4.846552702878392,Hebbal SOCIAL,food service
13.0598645,77.592659,4.45648960251423,Omega IX,bar/club
13.0483167,77.574566,4.0213644483852375,Gangamma Temple,place of worship
13.0927841,77.593926,4.20413406996664,Westside,clothes
13.0928279,77.59389,4.202062048837915,HomeTown,home furnishing
13.0931578,77.5939788,4.22339215653454,Urban Ladder,home furnishing
13.0933683,77.5939798,4.231459963683294,Pai furniture,home furnishing
13.0627726,77.5872356,3.7863361708913277,Glen's Bakehouse,cafe
13.0600654,77.592715,4.450357494358349,Kyba,food service
13.0552622,77.5941685,4.871402487992362,Barbeque Nation,food service
13.058685,77.5924599,4.506598795644355,Mani's Dum Biryani,food service
13.0586149,77.5926095,4.524462583819222,Malwan Tadka,food service
13.0586077,77.5927247,4.535447633549868,Attide biz,lodging
13.0627373,77.5923307,4.270551165727057,faye.in,clothes
13.0627974,77.592266,4.261261661207211,Jockey,clothes
13.0629383,77.5919502,4.223676996125206,Jayateja Jewellers,jewellery
13.0629587,77.5919622,4.223795218994263,Donne Biriyani Aramane,food service
13.0629032,77.5919506,4.225503327362335,MOJO Pizza,food service
13.0628837,77.5920111,4.232321512024124,BOX8,food service
13.0629924,77.5918882,4.21495327566099,Blak The Shoe Store,shoes
13.0630418,77.5917159,4.19584527224103,Yes Bank,financial
13.0632511,77.5910266,4.118836312642945,Sangeetha Restaurant,food service
13.0635219,77.5904076,4.045457846038013,Sree Ganesha Fruits,food service
13.063533,77.590357,4.040026728867667,Durga Times,watches
13.0636616,77.5899684,3.996096473095402,Go Colours!,clothes
13.0636656,77.5898283,3.982450170901951,Swathishri,clothes
13.0636703,77.5897697,3.9765888513867864,Radha Krishna Collection,clothes
13.0636455,77.5895433,3.9561954275667284,McDonald's,food service
13.0636355,77.5896015,3.962285677792493,Dazzle Branded Garments,clothes
13.0636466,77.5893918,3.9416500247994573,BASICS,clothes
13.0636037,77.5892082,3.9263690025416693,Godrej Interio Kitchens,home furnishing
13.0636482,77.5890425,3.908219657269305,Hanuman Stores,grocery
13.0636337,77.5888045,3.886315243198047,Swathi Enterprises,clothes
13.0636377,77.5884858,3.855806029166912,,clothes
13.063619,77.5882408,3.8335710089961132,SLV BUY & SAVE,grocery
13.063619,77.5877547,3.7875972653844703,Bangarpet Chats,food service
13.063619,77.5877168,3.784020121333956,Sree Ganesh Fruit Juice Centre,food service
13.0636267,77.5876478,3.7770894674528273,Lassi Shop,food service
13.0638372,77.5872251,3.7257121685539656,aurelia,clothes
13.0638418,77.5872695,3.7296483898098445,W for woman,clothes
13.0638317,77.5874436,3.746633699190768,,clothes
13.0638363,77.5874944,3.751183010742356,Sree Sreedhara Jewels,jewellery
13.0638503,77.5875648,3.7570784465961515,fabindia,clothes
13.063843,77.5881151,3.809622421342576,Restaurant 1179,food service
13.0638874,77.5887347,3.8662592316842597,Allen Solly,clothes
13.0638488,77.5883852,3.83498932679502,Peter England,clothes
13.063874,77.5893876,3.9294146849649962,globaldesi,clothes
13.0638767,77.589644,3.953877002979337,Levi's,clothes
13.063868,77.5897493,3.964439277060664,Manyavar,clothes
13.0639758,77.5898809,3.971589416845468,Axis Bank,financial
13.0639378,77.5899559,3.980746290034294,Siyaram's Shop,clothes
13.0637287,77.590293,4.02385477390734,,transportation
13.0636881,77.5905633,4.0519539833461975,Louis Philippe,clothes
13.0636847,77.5905928,4.054969678354987,Van Heusen,clothes
13.0636761,77.5907629,4.071808052781775,Pizza Hut,food service
13.0632662,77.5919337,4.205518337016014,Unlimited,clothes
13.0632661,77.5917897,4.1916080534419295,,financial
13.0630734,77.5921547,4.236560734063352,Shiva's kabab corner,food service
13.0630591,77.5922004,4.241694408278179,hyderabad bawarchi Multi Cuisine Restaurant,food service
13.071089,77.5895275,3.640695325657999,Pottery Barn,home furnishing
13.0712131,77.590296,3.7168442698880733,Breitling,watches
13.0711687,77.5905193,3.741461118156343,Tod's,shoes
13.0710596,77.5907312,3.7668516240249024,Jimmy Choo,shoes
13.0706618,77.5909437,3.801260512430334,Nautica,clothes
13.0708173,77.590992,3.801434683664377,La Vie en Rose,clothes
13.0707363,77.591228,3.828493482777078,Jockey,clothes
13.0712451,77.590135,3.699096392638843,Woodland,shoes
13.0710714,77.589907,3.680696383029173,Columbia,clothes
13.0712556,77.5899875,3.683409341117578,ASICS,shoes
13.0705201,77.5907345,3.784039568093845,Malabar Gold and Diamonds,jewellery
13.0704482,77.5909618,3.8099188723044914,Third Wave Coffee,cafe
13.0704391,77.5911308,3.827741204121161,Chaayos,cafe
13.0704162,77.5911033,3.8256206181234838,Canali,clothes
13.0712092,77.5904489,3.7328988738275126,Michael Kors,clothes
13.0708754,77.5901927,3.716520339999055,Brooks Brothers,clothes
13.0708473,77.5903456,3.7332897106428327,Bally,shoes
13.0710864,77.5899325,3.682882849599838,Polo Ralph Lauren,clothes
13.0709714,77.5899097,3.6841004853301222,Diesel,clothes
13.0709244,77.5900385,3.6989593636667903,Chanel,clothes
13.0710132,77.5902584,3.7190523279596457,Kate Spade New York,clothes
13.0710511,77.5908592,3.7804468653267036,Versace,clothes
13.0704802,77.5908405,3.7963123739657405,Ermenegildo Zegna,clothes
13.0703365,77.5914466,3.8637824188002092,Hermès,clothes
13.070313,77.5915915,3.879566462686339,Burberry,clothes
13.0706174,77.5916974,3.8810069805368155,Balenciaga,clothes
13.0708656,77.5915499,3.858048756333867,Dior,clothes
13.071153,77.5906862,3.7593330742007947,Valentino,clothes
13.0708238,77.590473,3.747265642761067,Gucci,clothes
13.0706252,77.5904381,3.7499301036525923,Emporio Armani,clothes
13.0707454,77.5909853,3.8029689549723487,Louis Vuitton,clothes
13.0708173,77.5897796,3.675475437053109,Victoria's Secret,clothes
13.0711021,77.5906728,3.7594758999756044,Jack & Jones,clothes
13.0711106,77.590597,3.751319446887304,American Eagle Outfitters,clothes
13.0709878,77.5908934,3.785934873496341,Perch,cafe
13.0709708,77.5911912,3.8174792299889875,Allen Solly,clothes
13.0709368,77.5912844,3.828222322891149,Louis Phillippe,clothes
13.0708506,77.5914191,3.8448764312769717,Van Heusen,clothes
13.0707337,77.5916103,3.8683609747605257,Loyal World Supermarket,grocery
13.0704045,77.5914963,3.86677516186951,Pantaloons,clothes
13.070603,77.5905374,3.7609413042456743,Tanishq,jewellery
13.0712797,77.5898943,3.6729665182209374,Puma,clothes
13.0713052,77.5897696,3.6591996997953036,Skechers,shoes
13.0713209,77.5896945,3.6508983721619654,Reebok,clothes
13.0711119,77.5896053,3.648065004487836,Nike,clothes
13.0705632,77.5906654,3.7754925035236706,Tim Hortons,cafe
13.0710204,77.5907325,3.7681813860881364,Starbucks,cafe
13.0709244,77.5912099,3.8208362514191156,Nagas,food service
13.0709035,77.5912837,3.829160652874914,Wow! Momo,food service
13.0706821,77.5911798,3.825164328479783,Keventers,food service
13.0708963,77.5913313,3.8343387985808337,Shiv Sagar,food service
13.0707075,77.5911127,3.817396213566331,Subway,food service
13.070411,77.5911362,3.8291997358526517,Popeyes,food service
13.0704489,77.591047,3.818734148021578,Pizza Hut,food service
13.0704704,77.5909793,3.8110235406698143,Burger King,food service
13.0704913,77.5908566,3.7976266820872464,Chili's,food service
13.0705612,77.5905608,3.7647065976425407,Pizza Express,food service
13.0705828,77.5904703,3.7546280025256924,Rajdhani,food service
13.0705985,77.5903831,3.7450810932172214,Nando's,food service
13.0706703,77.5903221,3.73645443087074,Waffle World,food service
13.0708088,77.5903818,3.738260787340764,Punjab Grill,food service
13.0708316,77.5902115,3.7198526235552056,You Mee,food service
13.0709479,77.5899017,3.684007849716391,Jamie's Italian,food service
13.0709074,77.5900231,3.69789412379351,Burger Seigneur,food service
13.0710328,77.5900586,3.6976620183128923,KFC,food service
13.0710518,77.5899285,3.6835417756885,Bhartiya Jalpan,food service
13.071136,77.589502,3.6365738948669657,INOX Megaplex,cinema
13.0705638,77.5905307,3.761501516504018,Burma Burma,food service
13.0704868,77.5909122,3.803538236187395,Cafe Allora,cafe
13.0708401,77.5916163,3.8657414534457972,Reliance Trends,clothes
13.0703,77.5914741,3.867803110618218,Max,clothes
13.0706736,77.5909732,3.803955264528699,Tissot,watches
13.0708421,77.5905367,3.753313817214025,Swarovski,jewellery
13.0711798,77.5906949,3.759433014075267,Tommy Hilfiger,clothes
13.0711563,77.5906084,3.7511231678508556,Calvin Klein,clothes
13.071202,77.5904073,3.728780171323542,Magnolia Bakery,cafe
13.0710518,77.5900231,3.693379847060832,Clarks,shoes
13.0709571,77.5899942,3.693329804705562,Birkenstock,shoes
13.0712634,77.590239,3.7093815203645284,Lacoste,clothes
13.0713509,77.5898024,3.6612284358424243,Marks & Spencer,grocery
13.0711602,77.5895671,3.64258805725803,Lifestyle,clothes
13.0708682,77.5895852,3.6536810994239484,H&M,clothes
13.0704861,77.5907399,3.785690385894884,Armani Exchange,clothes
13.0703862,77.5910202,3.817966035470414,Vero Moda,clothes
13.0703692,77.5911207,3.8289330541383824,Mango,clothes
13.0705756,77.5915781,3.869895860924103,Zara,clothes
13.0386087,77.5742563,4.9895463704123015,Udupi Garden,food service
13.0681222,77.5791911,2.7337195553663616,Calm Down Cafe,food service
13.0709074,77.5907533,3.773814700669094,Andrea's Brasserie,food service
13.0979279,77.5842154,3.5134098012429447,The Food Street,food service
13.0697368,77.5552541,1.1972371930706929,All Season Supermart,grocery
13.0726452,77.5564497,0.8582951850499929,Pantaloons,clothes
13.0752074,77.5576357,0.5699987263405772,Vishal Mega Mart,grocery
13.0770798,77.558288,0.3767001439254572,Annapoorna Refreshments and Sweets,food service
13.0894389,77.5560759,1.0221194440028654,Woodstock,home furnishing
13.0950191,77.5775303,2.7353023656908277,Udupi Tiffin Centre,food service
13.0950571,77.5801197,2.967260512510892,Trends Woman,clothes
13.0960581,77.5786491,2.90156378069983,Toto Gents & Ladies Wear,clothes
13.0944409,77.5809525,3.006529369002177,Dhanalaxmi Bank,financial
13.0945203,77.5808265,2.9995369368572495,7th Heaven,cafe
13.0953669,77.577956,2.7953816803453106,Madeena Sumaya Hotel,food service
13.0948564,77.5800486,2.94855297482236,Damensch,clothes
13.0955168,77.5781297,2.8204290958392377,Chowdeshwari Mart,grocery
13.0946288,77.576266,2.5999946066652,Sri Durga Provision Store,grocery
13.0948037,77.5768631,2.6631544954116695,Sri Lakshmi Venkateshwara Provision Store,grocery
13.0948257,77.5800923,2.9506456542717907,Mandya Military hotel,food service
13.0947406,77.5805133,2.9838379294990136,Sri Venkateshwara Hot Chips,grocery
13.099218,77.5851031,3.67375619678362,Bengaluru Central Cafe,cafe
13.0941061,77.5810734,2.9985061739210774,,financial
13.0940728,77.5811514,3.0038837320696152,Kotak Mahindra Bank,financial
13.0976471,77.5839056,3.4681589916841506,INOX Garuda,cinema
13.0624547,77.5588986,1.994454387406432,,place of worship
13.0638859,77.5591996,1.8393850815774935,Udupi Vaibhava,food service
13.065917,77.5599037,1.6267724748356498,,home furnishing
13.068884,77.557403,1.2718856997601464,Bannur Muttom Biryani Point,food service
13.0691052,77.556616,1.2492804045640624,Sri Durga Veg,food service
13.069397,77.5559973,1.2226717124785318,Yes Bank,financial
13.1022874,77.5952661,4.784632955433919,Hemant Textiles,clothes
13.1022867,77.595242,4.7823489570307975,Sri Yashaswini Tindi Mane,food service
13.102288,77.5951568,4.774491780546916,Svimal Jewelers,jewellery
13.1023103,77.5949288,4.754565532999112,Ayesha Fashion Centre,clothes
13.0705715,77.5905475,3.7629970201540113,Sally by 1522,bar/club
13.0983166,77.5735045,2.6631036228782494,Orah Brew Garden,bar/club
13.0696459,77.6016015,4.945312280442053,,place of worship
13.0710194,77.5909062,3.7863065260147186,Plan B,food service
13.070892,77.590808,3.779981974693376,Cafe Noir,food service
13.0706075,77.5911879,3.8283392537113343,Biba,clothes
13.0706432,77.5903939,3.744769300718223,W,clothes
13.070951,77.5899653,3.690518174148065,IndieFusion,clothes
13.0709744,77.5898855,3.6814917445831257,Mohanlal Sons,clothes
13.0709643,77.5903859,3.7338303777198165,Soch,clothes
13.098829,77.5846299,3.6069838723431684,Leons Grill,food service
13.0680231,77.5791747,2.7376657451771735,Calm Down Cafe,food service
13.0709551,77.5905318,3.7492938021902877,Ishaara,food service
13.0711653,77.5904409,3.733393508945675,Karigari,food service
13.0711299,77.5905713,3.7480557443780813,Plaka,food service
13.0984485,77.573512,2.67467457611241,Burger King,food service
13.0983851,77.5735959,2.6753599367263416,House of Commons,bar/club
13.0795514,77.59238,3.8028083716379477,The Fisherman's Wharf,food service
13.0707996,77.5896261,3.660123792690725,Azorte,clothes
13.0952619,77.5973193,4.64398914791295,Stanley,home furnishing
13.0588573,77.5876258,4.062168849059697,GOPIZZA,food service
13.0595575,77.5875065,4.006346024652681,Chaayos,cafe
13.0601781,77.5876486,3.979686919863368,Starbucks,cafe
13.0583321,77.5859595,3.953411814850454,Mulabagilu Dosa Point,food service
13.1067029,77.5766556,3.606849040831764,Santhosh Punjabi Dhaba,food service
13.1062954,77.5775528,3.6280668703524412,Vishal Mega Mart,grocery
13.1003379,77.5766435,3.0581944452107654,Indira Canteen,food service
13.0954483,77.5942633,4.34450434092508,,place of worship
13.0841518,77.5600968,0.5239811067393052,Chamundi Tiffins,food service
13.0775559,77.5584635,0.3332504008144171,Reliance Trends,clothes
13.077362,77.5584342,0.352104860888293,Fast Fashion,clothes
13.0788455,77.5588573,0.23703358541930536,Majaa Thindi,food service
13.0599066,77.5586214,2.2747108451997247,,education
13.0645468,77.5593929,1.7689761916251807,Indira Canteen,food service
13.0692664,77.5561334,1.2355342921149028,KFC,food service
13.0794214,77.5590078,0.21237528782796672,IDFC First Bank,financial
13.0803434,77.5592571,0.2143154151717521,Soch,clothes
13.0813906,77.5594806,0.2664829241348467,Khadim,clothes
13.084284,77.5597473,0.5153800477857107,,place of worship
13.0978647,77.5634022,2.0603592096256382,Green City Supermarket,grocery
13.0979611,77.5669306,2.222601057791415,,place of worship
13.0939407,77.5818254,3.059646521307478,Theobroma,cafe
13.0937315,77.5823796,3.100691908873814,Indian Oil,fuel
13.0966453,77.5836357,3.3828415703860903,Ujjivan Small Finance Bank,financial
13.0988282,77.5872114,3.8398714590956065,Yes Bank,financial
13.0979598,77.5967141,4.699888755290961,,place of worship
13.0978667,77.5963115,4.6559518534326765,Union Bank of India,financial
13.0982708,77.5966166,4.704857276171871,Biryani Paradise,food service
