Landmark Latitude,Landmark Longitude,Distance,Landmark Name,Property Type
12.9359565,77.5183096,4.359260471112907,Rajarajeshwari Arch,attraction
12.9309141,77.5850854,4.759637720677635,Citibank,financial
12.9330058,77.5836988,4.4960368749084125,ICICI Bank,financial
12.9365895,77.5804447,3.9725733687345848,Bharat Petroleum,fuel
12.9369025,77.5848426,4.341308979184351,Mahashakthi Enterprises,fuel
12.9328185,77.5830433,4.454101190389597,Foodworld,grocery
12.9309193,77.5837775,4.651271386125384,Canara Bank,financial
12.9289702,77.5839921,4.813119749811694,State Bank of India,financial
12.9238284,77.5763354,4.694991853018385,Citibank ATM Jayanagar 7th Block,financial
12.9741824,77.5753745,3.1446291019301524,Sukh Sagar,food service
12.9543746,77.5930172,4.536683871074709,Adyar Ananda Bhavan,food service
12.9680027,77.578642,3.1474109128237235,Chickpet Cross,attraction
12.9498004,77.5865608,3.931670719207999,Lalbagh Glasshouse,attraction
12.932868,77.5872561,4.8116963621836915,Ganesha Temple,place of worship
12.9778503,77.5722059,3.1342789507359288,Sri Raghavendra,food service
12.977709,77.5722837,3.1295198075417088,Canara Bank,financial
12.9985927,77.5687751,4.85983827610209,The Malleshwaram association,bar/club
12.9762752,77.5767096,3.3967426990889122,Hotel Hindustan,lodging
12.9760075,77.5763577,3.348398720377147,Anand Sagar Punjabi Dhaba,food service
12.9769025,77.5763491,3.407057266872095,Hotel Anand Regency,lodging
12.9550389,77.5854279,3.71098812256894,Mavalli Tiffin Rooms,food service
12.9907411,77.5577577,3.6712281300191902,Navarang Bar,bar/club
12.9700819,77.5890809,4.292770874837669,Temple Ruins,place of worship
12.9955258,77.5717703,4.69160499767885,Hallimane,food service
12.9931291,77.5715961,4.449048468313753,New Krishna Bhavan,food service
12.9932258,77.5717309,4.465611462881632,Sri Krishna Lodge,lodging
12.9931208,77.5710734,4.420585466853937,Sampige Theatre,cinema
12.9727199,77.5805523,3.5465182509833015,State Bank of India,financial
12.9738444,77.578582,3.4187848127872775,Bank of India,financial
12.973729,77.578957,3.4475268587219956,Indian Bank,financial
12.9736365,77.5791669,3.462212232549426,Adigas,food service
12.9735992,77.5803131,3.568897006288959,Kids Kemp,clothes
12.9514719,77.5774905,2.9334789697102046,Rajasthani Parotha Point,food service
12.9510029,77.5776381,2.96282750467618,Arya Vysya Refreshments,food service
12.9506894,77.5786753,3.080478300641069,,food service
12.9505258,77.5785913,3.076805132840274,,food service
12.9507057,77.5784906,3.060740684245857,,food service
12.9512912,77.5774906,2.9387710359770387,,food service
12.9522306,77.5897955,4.220994721940594,,food service
12.9532525,77.57754,2.89366213945868,Canara Bank,financial
12.9967798,77.5404068,4.43770936691356,Indian Oil,fuel
12.9966627,77.5400464,4.435785054705293,Bharat Petroleum,fuel
12.9929911,77.5390937,4.077402502281878,ICICI Bank,financial
12.9965228,77.5423272,4.358849760202771,St Charles High School,education
12.9918012,77.5379737,3.9949464478842334,State Bank of India,financial
12.9938216,77.5387868,4.175544844848756,Shiva Temple,place of worship
12.9951833,77.5396211,4.291337893944159,Guru Sagar Hotel,food service
12.9974545,77.5403023,4.5130395648849895,Fresh@Heritage,grocery
12.9990578,77.5695202,4.939158545968299,State Bank of India,financial
12.9885908,77.5442935,3.451553065330886,Carmel High School,education
12.993098,77.5421028,3.9946727605530703,Temple,place of worship
12.9972514,77.541656,4.454423806640424,,grocery
12.99695,77.5679373,4.656277686519979,ICICI Bank,financial
12.9901236,77.5722985,4.202206429593168,Vishnu Sagar,food service
12.9898878,77.5726957,4.203694561180361,Sangeeth Bar and Restaurant,bar/club
12.9940976,77.571267,4.525930944391329,ICICI Bank,financial
12.9933312,77.57187,4.4832577334613335,Corporation Bank,financial
12.9953279,77.5712934,4.647961906026919,Kolkata Chaat,food service
12.9547341,77.593073,4.539011808221047,,transportation
12.9571863,77.5862334,3.7823742026842733,Indian Oil,fuel
12.9430329,77.5849889,4.022396283679498,Brigade Homestead,lodging
12.9309204,77.5840319,4.672056690615604,Ganesh Darshan,food service
12.9330581,77.584422,4.553821713134967,Upahara Darshini,food service
12.9330431,77.5843044,4.544829473718292,Nagarjuna Chimney,food service
12.9678501,77.5927753,4.6124288058578315,Mishra Pedha,food service
12.9998952,77.5648773,4.849688425396583,Grace Church,place of worship
12.9601639,77.5945806,4.689251139646971,Utsav,food service
12.994359,77.5711764,4.546853063876114,Rasa,food service
12.9767317,77.5891659,4.580778975668393,,food service
12.9681567,77.5876645,4.084408218026445,Canara Bank,financial
12.9681499,77.5880527,4.124752908577849,State Bank of India,financial
12.9704007,77.5874248,4.133587524492909,Nisarga,food service
12.9711546,77.5869902,4.11737082039129,Auto Stand,transportation
12.9752515,77.5886667,4.460541202624799,Mathsyadarshini (Fish Canteen),food service
12.9717817,77.5942306,4.881846181921595,Cafe Coffee Day,cafe
12.9686616,77.5875127,4.084007865905002,Karnataka Bank,financial
12.9723026,77.5863596,4.100017510948985,Corporation Bank,financial
12.9848514,77.570647,3.6160257661524033,,place of worship
12.9848155,77.5707656,3.620223652302912,Chamundeshwari Temple,place of worship
12.9857544,77.570503,3.6895953352615884,,place of worship
12.9863991,77.5707542,3.7642169120812183,,place of worship
12.9884301,77.5713911,3.990673511527936,Mariyamma temple,place of worship
12.9887069,77.5708345,3.9842418297106,Temple,place of worship
12.9895905,77.5708543,4.069007417172391,Sri Jada Muneshwara Swamy Temple,place of worship
12.9908918,77.5696342,4.128266768763983,Muttumariyamma temple,place of worship
12.9922759,77.568733,4.219433093454851,Anjaneya temple,place of worship
12.9921674,77.5683888,4.192080561894088,Deccan school,education
12.9917534,77.5680966,4.136814936365536,Rama Temple,place of worship
12.991587,77.5684205,4.1357744270023735,Anganavadi,education
12.9921317,77.569768,4.256511310700726,Om Sakthi Temple,place of worship
12.9733828,77.5872809,4.238565286334681,YMCA Hostel,lodging
12.9758502,77.5891031,4.5316837884241785,Parkview Hotel,food service
12.9677758,77.5889307,4.20598160794071,Kempe Gowda Tower,attraction
12.9782425,77.5825221,4.039494940181575,Freedom Park,attraction
12.9671651,77.580199,3.2773205209872573,Chatpat,food service
12.9697027,77.5796625,3.3189163527928582,Cane Crush,cafe
12.9742892,77.5778952,3.380467939738055,Sri Vinayaka Juice & Chats Center,cafe
12.9703805,77.5800395,3.3858493855510527,Hotel Madhuvan,food service
12.9733292,77.5824593,3.761630549348132,State Bank of India,financial
12.9851989,77.5794229,4.264561003199342,Sana Di Ge,food service
12.9481567,77.5628973,1.6863276947841273,Sri Gavigangadhareshwara Swamy Temple,place of worship
12.9554112,77.5918509,4.400926738681651,Mysore Resham Emporium,clothes
12.9736525,77.5801953,3.560509964555793,Coffee Day,cafe
12.9756686,77.5749645,3.2046115213339164,Chicken County,food service
12.9772698,77.570304,2.9425245895753047,Hare Krishna Pure Veg Restaurant,food service
12.9772479,77.5704213,2.9496732661622693,Balaji Restaurant,food service
12.9784725,77.5696765,2.99418902098959,Canara Bank,financial
12.9484631,77.5798653,3.278907508111251,Citibank,financial
12.9709419,77.5735425,2.7844819088742083,Sri Kailaseshwara Temple,place of worship
12.9734503,77.5751186,3.076454556648821,Fresh Cane,cafe
12.9310045,77.5830947,4.5893434369978285,Pizza Hut,food service
12.9625258,77.5656883,1.6227279799171406,Anjaneya Temple,place of worship
12.9431459,77.5893564,4.451053978398374,Ganesha Statue,place of worship
12.9429538,77.5927317,4.799092917660262,Masjid Abu Bakr (RAA),place of worship
12.9409932,77.544655,2.0587781385511206,More,grocery
12.9398244,77.5471352,2.1068044165532007,Viviekananda Park,attraction
12.9394898,77.5451718,2.198319585742622,,financial
12.9382164,77.5417664,2.4649235258642026,Sri Sai Mandiram,place of worship
12.9410374,77.542039,2.17054447247044,Nilgiris Store,grocery
12.9387161,77.5534116,2.191413292335977,Udupi Upahar,food service
12.9386147,77.5434317,2.3532062358151062,Ganapathi Sacchidananda Ashrama,place of worship
12.9381024,77.543378,2.408421653217131,Auden Public School,education
12.9341577,77.5392743,2.98850560618245,Kalabhyraveshwara Service Station,fuel
12.9408732,77.5471975,1.9915788694391576,Sharadamba Temple,place of worship
12.9412393,77.547176,1.9524820805590493,Mahaganapathi Temple,place of worship
12.9405791,77.5458127,2.0620068288047873,ICICI Bank,financial
12.9265852,77.5509047,3.5291985005514626,Big Bazaar,grocery
12.925511,77.5501686,3.650555940583693,Food World,grocery
12.9261046,77.5502503,3.5842870096446493,Anna Kuteera,food service
12.9236391,77.5534075,3.8629136195667635,Eeshwari Theatre,cinema
12.9237141,77.5534616,3.8549318222574027,Shanthi Sagar,food service
12.9323436,77.5437984,3.002203035668796,Auden School,education
12.9380085,77.5496081,2.266516967556813,IBP Petrol Station,fuel
12.9444378,77.5546637,1.5850085248680896,Srinagar Bus Station,transportation
12.9437007,77.5649097,2.1914994070630525,Ganesh Bhavan,food service
12.9931738,77.5391448,4.0948241632898155,Bhutan Board Furniture,home furnishing
12.9972009,77.540616,4.476907323935467,Pizza Hut,food service
12.980921,77.576491,3.7064267533580186,Hotel Maurya,lodging
12.984036,77.577955,4.060527253432323,Hotel Raceview,lodging
12.989096,77.572253,4.103793254413652,Hotel Swathi,lodging
12.9340338,77.5874849,4.7569904346521925,Saraswati Vidya Mandir,education
12.9268857,77.5833568,4.924482263508636,RV Dental College,education
12.9271452,77.5778773,4.503625883642983,Nehru Smaraka Vidya Kendra,education
12.9387689,77.5841184,4.163872841212571,Community English High School,education
12.9355883,77.5808383,4.074630591577202,City Central Library,education
12.9899522,77.5378467,3.809349197671801,Bank of India,financial
12.9958306,77.5401339,4.344269837580162,Axis Bank,financial
12.9850452,77.579248,4.23906536037191,Nalapad's Hotel Bangalore International,lodging
12.9848493,77.580868,4.351191524627016,37th Crescent Hotel,lodging
12.9995896,77.5409326,4.725592852235673,Shri Avani Shankara Matha,place of worship
12.9727609,77.5701982,2.598109209082425,Sudha Lodge,lodging
12.9717886,77.5705791,2.5661269208213455,Radha Krishna Delux Lodge,lodging
12.9753224,77.5758147,3.256150330657367,Ganesha Temple,place of worship
12.9677686,77.569887,2.266970585817742,Super talkies,cinema
12.974344,77.5712299,2.795642122338646,Hotel Mahaveer,lodging
12.9443745,77.5695112,2.5057813283428447,Karanji Anjaneya Temple,place of worship
12.9443687,77.573044,2.816830624096214,Canara Bank,financial
12.9318576,77.5648659,3.287070425824784,Muneshwara Temple,place of worship
12.9809052,77.5754392,3.6222577889735605,Axis Bank,financial
12.9856254,77.5788885,4.2571386941246185,Hotel Janardhan,food service
12.9910826,77.5789046,4.71023995478009,Gandhi Nagar High School,education
12.9681074,77.5413652,1.5344044037284716,Sri Ganesha Temple,place of worship
12.9690223,77.5433246,1.4737229841490211,Sri Mariamma Temple,place of worship
12.9694039,77.5436196,1.489991668740946,Rama Mandira,place of worship
12.9697541,77.5441469,1.4916857352423418,Government School,education
12.9672919,77.5426111,1.375282332667199,SLV Fast Food,food service
12.9724264,77.5388651,2.071169386037203,Durga Chats,food service
12.9672031,77.541844,1.4269229079624222,Paratha Point,food service
12.9676187,77.541608,1.4774486876942532,LJB Iyengar's Bakery,food service
12.9673021,77.5421438,1.4114225173914987,Nature Fresh,cafe
12.9670358,77.5433138,1.3026950076176675,Shakthi Ganapathi Temple,place of worship
12.9673129,77.5417077,1.4460340848856386,Mamatha Departmental Store,grocery
12.9655564,77.5417627,1.3138442829457508,The New Cambridge High School,education
12.9676709,77.5415073,1.4893096789472575,Auto Rickshaw stand,transportation
12.967339,77.5427777,1.3667548984923659,CYCD,lodging
12.9671974,77.5428831,1.34744447434743,Vodafone,grocery
12.9673076,77.5425508,1.381051331682685,Seetha General Store,grocery
12.9916942,77.5457901,3.7594739692908616,Indian Oil,fuel
12.9853569,77.5792692,4.265061145767436,Kabab Studio,food service
12.9853129,77.5792466,4.259876026228711,Goldfinch Hotel,food service
12.9685151,77.5371276,1.9129700512040657,,financial
12.9834716,77.5856742,4.653548590350477,Nike,clothes
12.9578638,77.5932147,4.53706514125443,Foody's,food service
12.9993806,77.5685062,4.929619206620328,Villa Pottipati,lodging
12.9982568,77.5694946,4.856482200282269,Shree Sagar CTR,food service
12.9984695,77.5692319,4.86671369123429,,jewellery
12.9986733,77.5692346,4.887625409651734,,grocery
12.980883,77.575992,3.6639708177833197,Fortune Park JP Celestial Hotel,lodging
12.9551259,77.5741985,2.5014957526820316,Bangalore Institute of Technology,education
12.9564316,77.5741194,2.4764866097287777,Kempegowda Institute of Medical Sciences,education
12.9541058,77.5741524,2.5152055449526496,VV Puram College of Arts and Commerce,education
12.9827809,77.5592036,2.849887026734667,Total Superstore,grocery
12.9363255,77.5767626,3.6833377588900635,U D Residency,food service
12.9655798,77.5845651,3.6888105456429194,,financial
12.932367,77.5414216,3.079937725749681,Sri Mahadeshwara Filling Station,fuel
12.9599222,77.5728426,2.3359773296206665,Indian Medical Association,education
12.9450769,77.5903688,4.477611200098081,Masjid e Inayat,place of worship
12.9365,77.582432,4.151388407049695,HDFC Bank,financial
12.9865791,77.5403594,3.360194599376413,Total gas,fuel
12.98568,77.5421189,3.202334751944161,Canara Bank,financial
12.9860568,77.5418754,3.250399195324164,Karnataka State Co-op Apex Bank,financial
12.9862868,77.539676,3.357014285405317,Muneshwara Temple,place of worship
12.9353703,77.582448,4.227426348594779,Temple,place of worship
12.9353912,77.5827887,4.255526210434362,,place of worship
12.9433387,77.5850711,4.016245506720528,Cafe Coffee Day,cafe
12.9287707,77.5824139,4.704318348936071,Canara Bank,financial
12.962267,77.530001,2.354486457422389,Global Chess Academy India,education
12.932818,77.5842985,4.5598524335067045,Corporation Bank,financial
12.999295,77.5680608,4.902775325706495,Sai Shakti,food service
12.9420282,77.5802856,3.6215613746525235,Indian Oil,fuel
12.9766211,77.5725503,3.069018759302133,Swathi Deluxe,food service
12.9324379,77.5862539,4.753104357672134,Addidas,clothes
12.9306133,77.5825147,4.571620364988163,Nandini,food service
12.9256218,77.5502249,3.6380338424731917,KFC,food service
12.9256318,77.5498709,3.638408718130832,Dal Tadka,food service
12.9582352,77.517911,3.623385197464459,Bangalore Blaze Girls High School,education
12.9368003,77.5169615,4.428622931424817,The Club,food service
12.9368996,77.5172029,4.400646536225354,KC'S Club,bar/club
12.9360631,77.5177447,4.4030030127754545,KFC,food service
12.9360526,77.5179485,4.385413787190248,McDonald's,food service
12.9357964,77.5177929,4.415439789412696,Big Cinemas,cinema
12.9358801,77.5176749,4.420716192144028,Star Bazaar,grocery
12.9359062,77.5178788,4.400849848545276,Brand Factory,clothes
12.9359271,77.5179968,4.388997826396984,,financial
12.9314098,77.515069,4.94080584039363,Church Of The Holy Name Of Jesus,place of worship
12.9312478,77.5154648,4.91775113009461,ICICI Bank,financial
12.9221435,77.5599636,4.129690470447113,Devegowda Petrol Bunk,fuel
12.9409932,77.5671094,2.5748133045577735,Puttige Mutt,place of worship
12.9284497,77.5733648,4.089657711639094,Namma MTR,food service
12.9414203,77.553445,1.8929688461134508,Dragons,food service
12.9328395,77.5638317,3.139807346663417,SSM Public School,education
12.9454627,77.5714069,2.601756334623075,Ladies Wear House,clothes
12.9442215,77.5725983,2.785824332095227,Corporation Bank,financial
12.9444504,77.5722351,2.7389654298276476,Food world,grocery
12.9257438,77.5498097,3.626265893432238,Bank of India,financial
12.9296912,77.5519662,3.184203783123493,,financial
12.9296755,77.5519983,3.186024169447437,State Bank of India,financial
12.9372141,77.568841,3.016925166712389,Syndicate Bank,financial
12.9370677,77.568849,3.030149370349786,Syndicate Bank,financial
12.9365631,77.567363,2.9774628327094432,,financial
12.925977,77.5504903,3.597701570401889,Levis,clothes
12.927054,77.5506405,3.4775889167463845,Puma,clothes
12.9228555,77.5600873,4.0557181315544515,D Mart,clothes
12.9440288,77.5727582,2.8122184098240752,Shiv sagar,food service
12.944502,77.5728401,2.7902239673472855,Cafe Coffee Day,cafe
12.9444313,77.5729353,2.8031648974915275,Adyar Anand Bhavan,food service
12.9393809,77.5712615,3.0153221050528063,Bhavani Bangles,jewellery
12.9321895,77.5862459,4.769193856593465,Nike,clothes
12.9322783,77.5862513,4.763648447689151,United Colors of Benetton,clothes
12.9318182,77.5862459,4.794462371211767,MAX,clothes
12.9973265,77.5403657,4.497495372632276,Cafe Coffee Day,cafe
12.9856724,77.5420617,3.2034734616306726,Canara Bank,financial
12.9305893,77.5862057,4.876277020250343,she,clothes
12.988545,77.5377868,3.6679650960898966,New Shanti Sagar,food service
12.9972063,77.5402705,4.487355833968944,HDFC Bank,financial
12.9330961,77.5823147,4.373640072412311,Lassi Park,cafe
12.9339482,77.5664867,3.167995812807374,Kamala Nehru Patashala (Emmanual English School),education
12.9333966,77.5660039,3.194290341835364,Sri Lakshmi Venkateshwara Provision Stores,grocery
12.9321898,77.5656194,3.2916107096006284,Sharadamba Temple,place of worship
12.9343751,77.565952,3.0974810209754526,Dattatreya Temple,place of worship
12.9327754,77.5660244,3.2554885344573266,Abhaya Lakshmi Narasimha Temple,place of worship
12.9332872,77.5679132,3.3122659281688134,Plague Ammana Temple,place of worship
12.9342938,77.5660221,3.1091341846732226,Balamuri Ganapathi Temple,place of worship
12.9318604,77.5672556,3.410100661727851,Shanimahatma Temple,place of worship
12.940921,77.5457658,2.0271746074422685,Canara Bank,financial
12.9405681,77.5459187,2.059866563498829,HDFC Bank Girinagar,financial
12.9366883,77.5488033,2.4212166120325214,State Bank of India,financial
12.9970293,77.5539717,4.313531816991133,Shanti Sagar Hotel,food service
12.9333166,77.5726226,3.611876547638363,Sri Kumaran Children's Home,education
12.935381,77.570171,3.26609934275855,Sai Baba Temple,place of worship
12.9356689,77.5699296,3.224758699977275,SSM Primary School,education
12.9383716,77.5700155,3.0021621760710935,Srinivasa Cool Corner,food service
12.9329243,77.5712761,3.5550815110009717,Ganesh Mandir,place of worship
12.9329402,77.5717482,3.5849976297346777,Kumaran Children's High School,education
12.9435227,77.5590375,1.8444512229830525,Ritu's designer sarees,clothes
12.9140237,77.5587479,4.990496791221043,Kaappi,cafe
12.9196818,77.559736,4.391596684853576,Shop Rite,grocery
12.9206561,77.5601874,4.296305494537731,Sri Sai Gold Palace,jewellery
12.9253564,77.5496136,3.6703248819937593,Nandhini,food service
12.9251321,77.5507224,3.6910717035327454,Pizza Hut,food service
12.9872341,77.549974,3.2184258656981997,Gangasagar Chats,food service
12.9880757,77.5496789,3.3135018396473903,,cafe
12.9314867,77.5761365,4.014899330331654,New Shanti Sagar,food service
12.9373897,77.56002,2.5100184485030925,Holy Child Convent School,education
12.9324223,77.555718,2.9184884341423047,Ganesha Temple,place of worship
12.9347018,77.583688,4.379487055611703,Malabhar Gold,jewellery
12.9322759,77.5858767,4.731643233974347,Prince jewellery,jewellery
12.9309688,77.5857909,4.814769172671007,Favourite Shop,clothes
12.9300904,77.5858231,4.879732484261023,Khazana Jewellery,jewellery
12.9288216,77.5861538,4.998658638373896,Reliance jewellery,jewellery
12.9285577,77.5819646,4.686294981633721,Maiyas,food service
12.9265874,77.5839026,4.989726142285715,Cafe Coffee Day,cafe
12.9287808,77.5856675,4.962015357407081,Shanti Sagara,food service
12.9201877,77.574944,4.951606176987656,CCD,cafe
12.9244542,77.5643439,4.020556984633274,Pizza Hut,food service
12.9257822,77.5640113,3.8696605437509404,J cubeez,bar/club
12.942427,77.5671829,2.463322989591774,Sri Raghavendra Swami Mutt,place of worship
12.9279154,77.5563831,3.4247027736924975,Shiva Temple,place of worship
12.9453673,77.5672085,2.2424750734901098,Nevaditha school,education
12.9444263,77.5651593,2.1510624151761486,SSVM GP Branch,education
12.9423037,77.5713284,2.8035944838269513,Rama Rao & sons,jewellery
12.9408398,77.5732596,3.0686396011838264,,education
12.940021,77.5651693,2.526650360284634,Allahabad Bank,financial
12.9387311,77.563322,2.535485789244968,Sri Rama Temple,place of worship
12.9403137,77.5645095,2.458352050719554,Mini Punjabi Dhaba,food service
12.9393831,77.5641393,2.5210670697938737,Ganesh FruitJuice Centre,food service
12.9535544,77.5678415,1.8642098180070719,BVSS Maharatta Hostel,lodging
12.9455787,77.5679644,2.2912459871304263,BASE,education
12.9462008,77.5679859,2.2509900106590788,Bull Temple Filling Station,fuel
12.9449194,77.5680581,2.3451242529912206,Cane-o-La,food service
12.9446167,77.5677552,2.341637094118955,State Bank of India,financial
12.9480672,77.5682863,2.1607983792763923,SLV Delite,food service
12.9473887,77.568194,2.1932115451344827,HSBC,financial
12.9233352,77.5545915,3.9060991494523165,Mane thindi,food service
12.9251478,77.5507385,3.6892945726779716,Chung wah,food service
12.950339,77.5673443,1.947427042728389,ICICI Bank,financial
12.9649944,77.5958779,4.882026138662833,Kirtilals,jewellery
12.9638583,77.5961698,4.895816752847421,American Express bank,financial
12.9997052,77.54097,4.737112320285163,Sri Avani Shankar Mutt,place of worship
13.001119,77.5411129,4.886430093027142,Gautham College of Nursing,education
13.00091,77.5412684,4.859985571163366,Hamsa Sagar,food service
13.0000789,77.5409358,4.778361652739055,Anupama English School,education
12.9285616,77.5820034,4.6889667902070284,Kolhapuris,food service
12.9276361,77.5779238,4.464992342026046,Polar Bear,food service
12.9278474,77.5782069,4.466992457737094,Gelato Italiano,food service
12.9285276,77.5826445,4.741084455143147,Sukh Sagar,food service
12.928559,77.5823467,4.715600922500295,Union Bank of India,financial
12.9287733,77.58578,4.97171093869274,Pavitra paradise,food service
12.9425192,77.5854098,4.088007463197512,Adigas,food service
12.933221,77.5825309,4.382784621439557,Bhima jewellers,jewellery
12.932994,77.5852313,4.627500724061392,Reliance Fresh,grocery
12.9329962,77.5850947,4.6156141516971205,Subz,food service
12.9313369,77.5862297,4.8261703502070885,Awesome,clothes
12.9294525,77.5861468,4.952324851404101,Boots Bazaaar,shoes
12.9306365,77.5862902,4.880061476301914,Vasudev Adigas,food service
12.9287644,77.5858624,4.979069513780077,Cool joint,food service
12.928945,77.5859387,4.972066827590433,Kalaniketan,clothes
12.9298539,77.5861419,4.923102099992582,Raymond,clothes
12.9290329,77.5859122,4.963483054050666,Roop sangam,clothes
12.9295627,77.5861454,4.94427460693728,Van Heusen,clothes
12.9459429,77.5956857,4.997921891207362,Jade Empress,food service
12.9459575,77.5951685,4.9436145493413255,Keys Hotel,food service
12.9467025,77.5942807,4.828447387928159,Raghavendra Swamy Temple,place of worship
12.9494002,77.5926204,4.581140021123399,Bhagini Hotel,food service
12.997825,77.5499844,4.3951185793889485,Swati Deluxe,food service
12.9955579,77.5503454,4.141969021474738,Ranganatha Swamy Temple,place of worship
12.998275,77.550863,4.44298216914324,Gokul Vegetarian,food service
12.9980255,77.5499457,4.417542892940687,My Looks,clothes
12.9963776,77.5514093,4.2316948877845375,Health and Glow,grocery
12.9940551,77.5513325,3.9734398775404673,Yesukrupalaya Church,place of worship
12.9966873,77.5723319,4.834194039856515,Domino's,food service
12.9950177,77.5716418,4.63524210893632,State Bank of India,financial
12.9872807,77.5494174,3.2269505589461716,Sree Nandini Palace Restaurant,food service
12.9978128,77.5712095,4.890259506006657,Kanti Sweets,food service
12.923688,77.5535473,3.8583913706806814,Canara Bank,financial
12.9236725,77.5536141,3.86056528061385,Axis Bank,financial
12.923626,77.5538171,3.8671850796593548,Salon,grocery
12.9237619,77.5532989,3.848617403239445,Iyangar Bakery,food service
12.9240077,77.5534639,3.8223580824655583,Spectacles store,grocery
12.9818644,77.5488914,2.631397466591066,Hanuman Temple,place of worship
12.9822699,77.5489012,2.6761540907678665,Ganesha Temple,place of worship
12.978954,77.5493836,2.3041300769473922,State Bank of India,financial
12.9235841,77.5539351,3.8727376502432715,Titan Eye+,grocery
12.9240913,77.553374,3.8125055771427427,Goli Vada Pav,food service
12.9241697,77.552991,3.801632816517585,Chroma Mega Store,grocery
12.924405,77.5647251,4.04031916526356,McDonald's,food service
12.9243475,77.5652656,4.067640718843036,SnapFitness,grocery
12.9243266,77.5653238,4.072140735156165,State Bank of India,financial
12.9243318,77.5653613,4.073117413419596,Natural Salon,grocery
12.9245828,77.5649697,4.031501383185334,Bangalore One For Senior Citizens,grocery
12.9245932,77.5648877,4.027179096085768,Nandini Milk Booth,cafe
12.9247045,77.5648373,4.013663694723442,Hopcoms,grocery
12.9244834,77.5641605,4.010591898192001,,food service
12.9243632,77.5641391,4.022333996497568,,grocery
12.9246664,77.5642101,3.9933805691669915,Baskin Robin's,food service
12.9247449,77.5642316,3.9860173322982746,Goli Vada Pav,food service
12.9257017,77.5644655,3.895721152725497,Mobile store,grocery
12.9257906,77.5640961,3.8720564521369867,Cafe Coffee Day,cafe
12.9260154,77.5641098,3.84924819998941,Tandoor,food service
12.9260625,77.5646983,3.8677614711167796,Kati Zone,food service
12.9261618,77.5645588,3.85187916603625,Anand Bhavan,food service
12.9268619,77.5641149,3.7617610117416493,SLV Swadisth,food service
12.9241331,77.5663009,4.13248294261793,SLV fast food,food service
12.9751954,77.5480369,1.9103381454809374,Pethis Petrol Pump / Auto Gas Station,fuel
12.9735605,77.5455754,1.8063202455068905,Sri Adichunchanagiri Mutt,place of worship
12.9746034,77.5476693,1.853879518726571,Shani Mahatma Temple,place of worship
12.9756293,77.5482085,1.9544252368091297,,fuel
12.9739042,77.5475916,1.7799362881533596,,financial
12.974819,77.5460413,1.9225051445325503,Siddaganga Student Hostel,lodging
12.9737683,77.5442442,1.8822626979293358,Vasavi Polytechnic College,education
12.9241122,77.5664449,4.140761804216145,Stationary,grocery
12.9239606,77.567255,4.191587174723296,HOPCOMS,grocery
12.9249818,77.5512039,3.7071940459012085,Domino's,food service
12.9246981,77.5508112,3.7391600773935547,Reebok Store,grocery
12.9258745,77.5501431,3.610260568755675,Cafe Coffee Day,cafe
12.925817,77.550127,3.616713528403749,Beijing Bites,food service
12.9260889,77.5504555,3.5853628162441615,Mast Kalandar,food service
12.926078,77.5484214,3.599272630510788,Mom and Me,clothes
12.9719282,77.5380966,2.0859683878357553,Sai Kamala Abharans,jewellery
12.9706632,77.5368842,2.083259210620166,ICICI Bank,financial
12.9734181,77.5419268,1.9647720827240183,Shanti Sagar,food service
12.9716571,77.537278,2.126869056077493,Indraprastha,food service
12.9734314,77.5385798,2.176548691847571,Vijaynagar Central Library,education
12.9722157,77.5383702,2.089200211635005,GoldMine Jewellary,jewellery
12.9723673,77.5375011,2.165843679233098,Hanuman Temple,place of worship
12.9686453,77.5362586,1.9978898286961408,City Union Bank,financial
12.9684833,77.5361547,1.9968666999648563,Federal Bank,financial
12.9619713,77.5327333,2.0575954669100858,RNS Vidyaniketan School,education
12.9440879,77.5293108,2.8649496878370657,HP,fuel
12.9599025,77.5328566,2.011513697320443,Bharat Petrol Pump,fuel
12.9646688,77.5330893,2.1007069533294436,KVV High School,education
12.9519559,77.5368963,1.7185955444383871,Shaneshwara Temple,place of worship
12.9397172,77.5238766,3.625199238320404,Indian Oil Petrol Pump,fuel
12.947907,77.5327064,2.328499290656298,Shell,fuel
12.931206,77.5153867,4.927289394950098,Axis Bank,financial
12.9391021,77.5556301,2.1868489077966284,Gondavalekar Sadgur,place of worship
12.9672761,77.5422857,1.3985388248936301,Ganga Sagar,food service
12.9655182,77.541311,1.3503516411831231,St. Johns High School,education
12.9643003,77.5866127,3.8787232254466932,Kamat,food service
12.9607559,77.5070056,4.812713402218421,MK Ahmed Super Market,grocery
12.9606694,77.5122249,4.247549610058829,Shoprite,grocery
12.9612212,77.5073974,4.773536225442122,,residential
12.9491363,77.5893864,4.246644284138999,Peninsular Gneiss National Monument,attraction
12.9800397,77.5713661,3.246105488081314,Sangolli Rayanna,attraction
12.9873383,77.5805314,4.517760892188537,Bharat Seva Dal,education
12.9869904,77.5786112,4.346197554512555,Canara Bank,financial
12.9876512,77.5799188,4.496719115260831,ICICI Bank,financial
12.9868232,77.5800176,4.437887897957789,Richie-Rich,food service
12.9867564,77.5795592,4.397918294405243,Shivananda Stores,grocery
12.9880363,77.5807735,4.591689163470929,Sindhi High School,education
12.9331034,77.585029,4.602702676222168,Chutney Chang,food service
12.9331092,77.5851373,4.611622977279769,Ameoba Bowling Alley,attraction
12.9885341,77.5770137,4.3612502616723505,Cafe Coffee Day,cafe
12.9882804,77.5773698,4.364386108819661,Bharat Petroleum,fuel
12.9879409,77.5768491,4.299162051158886,Citibank,financial
12.9539396,77.5688104,1.953978541041398,Brahmin's Coffee Bar,food service
12.9909647,77.5748146,4.431802348507064,Canara Bank,financial
12.9859821,77.5767419,4.126923744124364,Jain Temple,place of worship
12.9554704,77.5801737,3.139672147620388,Kamat Minerva,food service
12.9877001,77.5782687,4.379599168062841,Park-n-Eat,food service
12.9865401,77.5772559,4.21029897489201,Yadava College,education
12.9596642,77.5829322,3.4257793392243605,,fuel
12.9220691,77.5755122,4.806941846598069,JSS Composite PU College,education
12.9781823,77.5797234,3.785637947909129,Śrī Uḍupi,food service
12.9780729,77.579383,3.7486016355081446,Golden Residency,lodging
12.9775086,77.5793777,3.711719236724386,Hotel Kanthi Comforts,lodging
12.9655419,77.5898511,4.2487806735926155,V T Paradise,food service
12.962625,77.5899443,4.2096405644470085,Mahabaleshwar Temple,place of worship
12.9656255,77.5895554,4.219098835111945,Hotel Geo,lodging
12.9308154,77.5862906,4.867570074144172,Vijaya Bank,financial
12.9307984,77.5865311,4.889055887137367,Karur Vysya Bank,financial
12.9244905,77.5653351,4.055686282552385,Pegs and pints,bar/club
12.9244383,77.5654289,4.064875672714353,Lakshmi bar,bar/club
12.9398383,77.5451133,2.163411636830026,Belliah Milk Booth,grocery
12.9383665,77.5411678,2.477988117035099,Bhandarakeri Mutt Bhagavathashrama,place of worship
12.9406461,77.5477204,2.0043061865945275,Axis Bank,financial
12.9411165,77.5854351,4.159876762728686,ISPG Technologies,office
12.9395349,77.5853734,4.237820623383154,Simpli Namdhari's,grocery
12.934392,77.5895053,4.917128578648092,Amrutesh Darshini,food service
12.9345803,77.5893442,4.891122682344428,State Bank of India,financial
12.938312,77.5843066,4.207923518182682,Sree Rama Vidyalaya,education
12.987094,77.5784442,4.342398399926136,Bangalore Cafe,food service
12.9658764,77.5860284,3.8507487184344913,Pai Vihar,food service
12.9252469,77.5648035,3.9562028133073186,Public Library,education
12.9294812,77.5637259,3.4760782724098345,Laxmi Sagar Deluxe,food service
12.9301278,77.5636876,3.4082299020610303,,financial
12.935471,77.5608687,2.742291633512757,ICICI Bank,financial
12.931931,77.5640576,3.241589874638904,,financial
12.9371253,77.5585054,2.4812030456145204,Corporation Bank,financial
12.9389525,77.5566263,2.2283452630127196,Public Library,education
12.9239653,77.5705721,4.351319013907758,,financial
12.9357213,77.5609969,2.7218310317613077,Andhra Bank,financial
12.9340245,77.5619702,2.9366549307686904,Kabab and Biriyani,food service
12.9269195,77.5682037,3.940621628288408,,financial
12.9264381,77.5691045,4.033775527959,,financial
12.93577,77.5613294,2.730902044427871,SLV Fast Food,food service
12.941632,77.5641945,2.319855599978817,Sri Vishvesha Agencies,fuel
12.9416578,77.5644359,2.333368550250571,Canara Bank,financial
12.9604081,77.5709546,2.1372283034486923,Prakash Cafe & Lodge,lodging
12.9683294,77.5380482,1.8208725339256515,Nisarga Andhra Style,food service
12.9659432,77.5347345,1.9898215455846486,Reliance Mart,grocery
12.9580258,77.5285198,2.473988118053255,Ganesha temple,place of worship
12.9583342,77.5259368,2.753671128669054,Deewar Bar & Restaurant,food service
12.9603129,77.513258,4.133507113613475,Ron-Inn Bar & Restaurant,food service
12.9606716,77.5125104,4.2166861507526985,Nammura Tindi,food service
12.9608906,77.5106429,4.420187418123633,Petro / Gas  Station,fuel
12.9760846,77.5312127,2.943137396096034,,financial
12.9732095,77.5295873,2.881143729327169,Prasanna Ganapathi Temple,place of worship
12.9760637,77.5315131,2.9175155689682946,Ayodhya Food Line,food service
12.9748588,77.5312369,2.8514505104034154,ICICI Bank,financial
12.9762022,77.5292815,3.109799118327299,,financial
12.9752194,77.529075,3.058718138889901,Raghavendra Swami Mutt,place of worship
12.9727782,77.5296785,2.845698319232092,Allahabad Bank,financial
12.974072,77.5309847,2.8171851214367414,Sarvodaya School,education
12.9809408,77.5354587,3.0480649057774634,Vasudev Adigas,food service
12.970452,77.5376044,2.009358126392203,Kodanda Rama Temple,place of worship
12.9645291,77.5387819,1.5266916665927297,Ganesha Temple (RPC Layout),place of worship
12.9771222,77.5466032,2.15288860246056,HP Petrol Bunk,fuel
12.9793805,77.5420846,2.5477772595177117,Shell Petrol Bunk,fuel
12.9590198,77.5700268,2.025549242828674,B.K. Mariappa Charitable Trust Hostel,lodging
12.9577755,77.5694742,1.9651189280628043,S.L.V Hotel,food service
12.9602965,77.5723764,2.2892250856329652,Anjaneya Temple,place of worship
12.9571508,77.5624395,1.2089048136290055,Anjandri Petrol / Gas Station,fuel
12.9604713,77.5652214,1.5222206604218382,HDFC Bank,financial
12.9604086,77.5633761,1.3238731370813994,,financial
12.9598806,77.5640252,1.3846066085323743,,education
12.9534085,77.5435706,1.0043650238881205,Mysore Road Bus Station,transportation
12.9525197,77.5409488,1.2985071928550989,Gaali Anjaneya Temple,place of worship
12.9540088,77.5724909,2.3407394042200407,BBUL Jain Vidyalaya,education
12.9547408,77.5732553,2.4070795715020084,Madhwa Yuvaka Sangha,lodging
12.9544584,77.5733572,2.4233398946130484,Corporation Bank,financial
12.9484672,77.5716218,2.4550215379846354,Bank of Maharashtra,financial
12.9500017,77.5721635,2.43796439997266,,financial
12.9573769,77.5717084,2.208785920520456,State Bank of India,financial
12.9587388,77.5789933,2.9960574889019873,Mariswamy Mutt,place of worship
12.9552387,77.5790523,3.0216141340269425,Nandini,food service
12.9526875,77.5767885,2.8270875872374415,Sri Shanidevara Temple,place of worship
12.952102,77.5763325,2.7943223478648207,Satyanarayana Temple,place of worship
12.9534194,77.573307,2.4411623452511515,Jain Hostel,lodging
12.9544493,77.5699435,2.0605290994772107,Karnataka Bank,financial
12.9556831,77.5676261,1.788146989405021,State Bank of India,financial
12.9557511,77.567272,1.7490549834629487,,financial
12.9551211,77.5663064,1.659513326674101,HDFC Bank,financial
12.9437044,77.5603994,1.8983272082655775,Hotel Mangala,food service
12.9432666,77.5585119,1.8452248435456302,,place of worship
12.9418539,77.555564,1.8871985601647794,Indian Bank,financial
12.9398411,77.553976,2.074518567956863,HDFC Bank,financial
12.9396697,77.5546603,2.1047682809368986,,financial
12.9493264,77.5679362,2.057064879688531,State Bank of India,financial
12.954621,77.5672723,1.7739590116468142,Reliance Digital Electronic Store,grocery
12.9434331,77.5663121,2.317343569204915,ICICI Bank,financial
12.9416816,77.5555618,1.905736164474643,Mahila Co-operative Bank,financial
12.9418698,77.5563504,1.907923738911962,ICICI Bank,financial
12.9451475,77.5719389,2.669184480037115,Citibank,financial
13.0030523,77.5524729,4.975374921892193,Ganesha Temple,place of worship
12.9439251,77.5643566,2.1329755799427064,HDFC Bank,financial
12.9437743,77.5643702,2.146557295918221,ICICI Bank,financial
12.9450945,77.5679803,2.3262617346614993,Domino's,food service
12.9500847,77.5679508,2.018821475253261,Karnatka Rajya Kaigarika Sahakari Bank,financial
12.9552655,77.5675942,1.792955577132822,Darshini,food service
12.9402637,77.5577692,2.1250376284459263,HDFC Bank,financial
12.9717723,77.5729725,2.779880821306058,Ramakrishna Lodge,lodging
12.9469992,77.5641506,1.8733946081224604,Syndicate Bank,financial
12.9436748,77.5641934,2.1424095041302746,Corporation Bank,financial
12.9732886,77.5702017,2.6350681868292285,,financial
12.9725777,77.5702074,2.5863577963465794,HDFC Bank,financial
12.9723215,77.5703735,2.5833364464371673,Union Bank of India,financial
12.9712811,77.5701053,2.4915552247974264,Corporation Bank,financial
12.9715894,77.5701482,2.5153013650907416,,place of worship
12.9715582,77.5704057,2.5359377225263744,Anjaneya - Hanuman Temple,place of worship
12.9672844,77.57,2.2535057799197578,Shree Krishna Auto Gas,fuel
12.9662942,77.5699335,2.2004256723032283,,place of worship
12.95954,77.5685551,1.8694984329760669,Canara Bank,financial
12.9976921,77.5475818,4.396837315027216,Kadamba Veg,food service
12.9972835,77.5465706,4.3632410585150785,KFC,food service
12.9747283,77.5375186,2.360968085205801,Axis Bank,financial
12.9711631,77.5364993,2.1513030960260653,Bank of Baroda,financial
12.9739442,77.5373335,2.3074154048699955,,financial
12.9185562,77.5553293,4.442652863296418,Royal Mart,grocery
12.9886227,77.5378109,3.6748396691971656,Nisarga Andhra Style,food service
12.9612053,77.5271272,2.644181248320015,Domino's,food service
12.961189,77.5272027,2.635840652608897,Allen Solly,clothes
12.9656038,77.5363115,1.8195485444047503,Cafe Coffee Day,cafe
12.9735993,77.5379584,2.2341240682399848,Ganesha Temple,place of worship
12.9685025,77.537261,1.9005101196070535,HDFC Bank,financial
12.9738999,77.5385109,2.2216768993327642,Syndicate Bank,financial
12.9737104,77.5364886,2.349675103085813,Ganesha Temple,place of worship
12.9731576,77.5413648,1.9728076088371893,HDFC Bank,financial
12.972086,77.5292788,2.8393227238449676,Anjaneya Swami Temple,place of worship
12.9800497,77.5771102,3.691905807327865,Mādappa Mes,food service
12.9803795,77.5760204,3.628134620269427,SRS Bus Station,transportation
12.9803246,77.5754733,3.580501434907414,VRL Bus Station,transportation
12.9729823,77.5294961,2.8748370389057225,Amarland Departmental,grocery
12.9181694,77.5547822,4.480147705168279,,financial
12.9180303,77.5571707,4.524348506954135,Ice Cafe,food service
12.917953,77.5571384,4.532374104932497,,financial
12.918619,77.5518425,4.414996955211152,Temple,place of worship
12.9784006,77.5311242,3.1285164356902273,Ganapathi Temple,place of worship
12.9831416,77.5593081,2.891546371089401,Domino's,food service
12.9989198,77.552547,4.516237553305032,Jalpaan,food service
12.9831807,77.5597454,2.910161961646847,McDonald's,food service
12.9993994,77.5525068,4.569423099595146,Axis Bank,financial
12.9184077,77.5591112,4.517198610012132,Sahakari Vidya Kendra,education
12.9721198,77.5282623,2.934660634250194,Shaneshwara Temple,place of worship
12.9295981,77.5681912,3.6786202234679237,Pin Ball,clothes
12.9297811,77.5682637,3.6648901844284936,Indian Oil,fuel
12.9334671,77.5833269,4.432518359101098,The Guha,food service
12.9164891,77.559186,4.728421711090732,Venkateshwara Temple,place of worship
12.9306129,77.5862225,4.876028795292616,Luois Phillepe,clothes
12.9294468,77.5856396,4.911013757349315,Reliance Trends,clothes
12.9291985,77.5861975,4.974849629246254,Allen Solly,clothes
12.9294521,77.5850281,4.8606730989291576,Pin Ball,clothes
12.9738144,77.5517301,1.7232730485140102,Pramod,cinema
12.9735187,77.5502093,1.6943970937483253,Banashankari Temple,place of worship
12.9686251,77.5244618,3.1306417243126066,"Vijaya Bank, Mudalapalya Branch",grocery
12.9608365,77.5701609,2.0576811270746123,Adi Shakti Chikka Annamma Temple,place of worship
12.9614011,77.5698739,2.0364848195665366,Lakshmi Satyanarana Temple,place of worship
12.9617331,77.5700133,2.0578608844983584,Anjaneya Temple,place of worship
12.9706452,77.5369759,2.0744710222714224,ICICI Bank,financial
12.9691501,77.5364636,2.012817440709699,State Bank of India,financial
12.9729139,77.5285404,2.9565371932302176,Hopcoms Mangalore Store,grocery
12.9760451,77.5311984,2.9413416922419184,Karnataka Bank,financial
12.975031,77.5309088,2.8909819978513145,ICICI Bank,financial
12.9745579,77.5327836,2.703043068874339,ICICI Bank,financial
12.9762412,77.5287549,3.1566209889422963,Canara Bank,financial
12.9760661,77.5315149,2.917552351006765,Ayodhya Food Line,food service
12.9762502,77.5320438,2.8896812829081866,Shopper City,grocery
12.9747631,77.5310486,2.8602615814430736,,financial
12.9746886,77.5310295,2.8565687510949065,State Bank of India,financial
12.9745396,77.5307371,2.8706237180726135,State Bank of India,financial
12.972957,77.5397309,2.0574950159599488,Akshata Nati Style,food service
12.9729139,77.5395347,2.066806560046103,Park View Bar & Restaurant,food service
12.9676863,77.5366433,1.9035547964806583,Axis Bank,financial
12.9747618,77.5375499,2.3616989452230506,,financial
12.96777,77.536697,1.9038066865272212,Axis Bank,financial
12.972595,77.5395133,2.0405423319244536,M K Ahmed Super Shoppy,grocery
12.9808177,77.535785,3.0168738594931632,Amaravati Andhra Style,food service
12.9638704,77.5966485,4.947449589176718,Udupi Upachar,food service
12.999291,77.5671481,4.866699256646668,Manjunatha Provisions,grocery
12.9992858,77.5670032,4.860656584865274,Ganesha Provisions,grocery
12.9991395,77.5678347,4.877686073666403,Safal,grocery
12.9993734,77.5669734,4.868662156224694,KT-26 Sriranga Apartments,residential
12.9444288,77.5724461,2.7592348719621347,Indian Bank,financial
12.9749261,77.5308639,2.887238189113186,Canara Juice Center,food service
12.9747524,77.5302655,2.9252794329708207,DIVA Boutique,clothes
12.9775284,77.5175141,4.242966075278409,,clothes
12.9410968,77.5853528,4.152969166846168,Andhra Bank,financial
12.9489694,77.577188,2.9869732717672735,Sri Vasavi Condiments,food service
12.9458998,77.5717344,2.605388800544632,ICICI Bank,financial
12.9457759,77.5717284,2.612169216970097,Sree Jaya Maruti Devalaya,place of worship
12.9457543,77.5724936,2.683892151874271,Sree Charan Bank,financial
12.9686831,77.5369098,1.9430506008204849,McDonald's,food service
12.9813835,77.5753478,3.6522699344427507,Hotel Tourist,lodging
12.9847317,77.578357,4.145998027095159,The Solitaire Hotel,lodging
12.9750295,77.5703109,2.7701746612078524,Hotel City Centaur International,lodging
12.9744293,77.5706029,2.7497955904542177,Sri Krishna Lodge,lodging
12.9738994,77.5706296,2.7140120093935303,Sri Thirumala Lodge,lodging
12.9585995,77.5260442,2.7422058179180198,Corporation Bank,financial
12.9590436,77.5248426,2.87336097223554,Hotel Manjushree,food service
12.9734094,77.5417665,1.9730308582552931,Cafe Coffe Day,cafe
12.9738477,77.5440708,1.8980521397278576,LIC of India,financial
12.9829855,77.5486383,2.7582321051678056,1947,food service
12.9991423,77.5703749,4.985355884499735,Kannika Parameshwari Temple,place of worship
12.9972801,77.5609014,4.453995714202884,Circle Ganapathi Temple,place of worship
12.9472021,77.5714429,2.504078335210338,Mahila,jewellery
12.92545,77.5768905,4.584939218198656,Jalpaan,food service
12.9255011,77.5499538,3.652545141870411,,financial
12.9254619,77.5499726,3.656816627521312,HDFC Bank,financial
12.9699846,77.5797207,3.3368035011668136,Banaras Sweets,food service
12.9700251,77.5799594,3.3623908204187596,ING,financial
12.9732008,77.5789268,3.4158582604597885,ICICI Bank,financial
12.9841172,77.5600221,3.0184518242191563,,fuel
12.975607,77.5751762,3.2188649642288034,Shree Lodge,lodging
12.9750242,77.5520533,1.858870403192148,Karnataka Bank,financial
12.9779674,77.5530323,2.1921767387963733,Al-Bek chiken,food service
12.9799118,77.5541722,2.4201981064878826,Canara Bank,financial
12.965712,77.5363,1.826047350369021,,food service
12.9867912,77.5794891,4.395428113610037,Coastal Express,food service
12.991257,77.5384096,3.9214846662762133,Karnataka Bank Money Plant,financial
12.9894357,77.5729477,4.177049726224107,Hotel Samrat Residency,lodging
12.925974,77.5641049,3.853354148357182,Punjab National Bank,financial
12.9491655,77.5798273,3.24971486118976,Kamat,food service
12.9479149,77.5794869,3.2614191740614893,Bharat Petroleum,fuel
12.937055,77.5784773,3.7729025970225227,Citibank,financial
12.9689388,77.5950441,4.879888733277302,St. Joseph's Indian Composite PU College,education
12.9342211,77.5345124,3.241919562740728,Union Bank of India,financial
12.9336327,77.5343127,3.308236700226127,PES Food Court,food service
12.9335839,77.5344798,3.302683811645232,Cafe Coffe Day Express,cafe
12.979285,77.5748279,3.4506477807366664,JP Cordial,lodging
12.9789865,77.574935,3.436934933654162,Rajaprakash,lodging
12.9805241,77.5750066,3.5590991486086434,Ksheera Sagar,lodging
12.979643,77.5751455,3.5029183063316496,Hotel Kapila,lodging
12.9788091,77.5750078,3.4296712503716167,Rajadhani restaurant,food service
12.9683042,77.5846472,3.7751953707001986,Bnr Bar,bar/club
12.9679017,77.5851515,3.81472259138294,State Bank of India,financial
12.9180956,77.557202,4.5176336113336335,SLV,food service
12.9165327,77.55716,4.689148468250198,Anjaneya Temple,place of worship
12.9146638,77.559228,4.929006197858094,Prarthana School,education
12.9151671,77.552159,4.799310106043551,Chikkalasandra Bus Stop,transportation
12.9178136,77.5561808,4.534572079186295,,grocery
12.9247295,77.5773618,4.67965103523598,Food World,grocery
12.9274299,77.5782051,4.502185253146798,Sufiyan Dry Fruits,grocery
12.9259569,77.5768459,4.537186112795613,ICICI Bank,financial
12.9920336,77.5763265,4.623609896183878,,place of worship
12.9286056,77.5453234,3.368103635280319,Cafe Coffee Day,cafe
12.9608966,77.5075094,4.759122228926564,Swathi Restaurant,food service
12.9438068,77.542,1.9055126798586153,Jnana Deepthi English Primary and High School,education
12.9306091,77.5853075,4.799854273935985,The Royal Comfort,lodging
12.9888754,77.5378467,3.699083799154065,Bata,shoes
12.9731634,77.5410962,1.9894518358691087,BSVP School,education
12.9737802,77.5433493,1.9251390331620277,Citibank,financial
12.991114,77.5407958,3.821477244049604,Davanagere Benne Dose,food service
12.988584,77.5474906,3.3909437898743704,Rekha Residency,lodging
12.9857195,77.5520611,3.047541984342818,Shivas,lodging
12.9870577,77.572403,3.9262246504250493,Hotel Blue Diamond,lodging
12.9948879,77.5331783,4.517624599960721,Ganapathi Temple,place of worship
12.9851341,77.5433278,3.1055532292559462,BP petrol pump,fuel
12.9881972,77.5494003,3.3287697893020045,Suvali,lodging
12.9959438,77.5548935,4.2010529238437675,Cafe Coffee Day,lodging
12.9916432,77.5578265,3.7711539115741757,HP,fuel
12.9917517,77.5576615,3.7797317210063377,Mallika Residency,lodging
12.9877059,77.5596356,3.388590541197107,Citibank,financial
12.9810568,77.5583911,2.6407674121948403,Indian Oil,fuel
12.9800113,77.5566101,2.478317199583894,St Ann's School,education
12.9776695,77.5553656,2.1950412597697846,St Mira's School,education
12.9461645,77.5734435,2.749584557751522,Jain Bhavan,food service
12.9825204,77.5705174,3.3992732724120214,Gethsemane Church,place of worship
12.9758817,77.5786471,3.5444434669095237,Kamat Yatrinivas,food service
12.987225,77.5397658,3.450321506682398,Kashyap Lodge,lodging
12.9951284,77.5386071,4.319360584316934,Ganapati Temple,place of worship
12.9855941,77.5252604,4.145799039618713,IBP petrol pump,fuel
12.9850923,77.5232649,4.256944405210218,Indo Petrol / Gas Station,fuel
12.9862632,77.5222349,4.427792475305358,Indian Oil,fuel
12.9216283,77.5701608,4.5610594683929415,Kadamba Bar,bar/club
12.9843055,77.5537764,2.901287804628477,Adyar Ananda Bhavan,food service
12.9977544,77.5472561,4.407145596043261,New Shanti Sagar,food service
12.9985489,77.5430189,4.563268893522861,Punjab National Bank,financial
12.9973524,77.5476248,4.35879516830313,Sea Route Restaurant,food service
12.9274214,77.5771125,4.427296958111689,Venezia,food service
12.9373332,77.5582484,2.450613628829233,Canara Bank,financial
12.9381919,77.556125,2.29734200178073,Relience Fresh,grocery
12.9348094,77.5556281,2.6552019507122324,HDFC Bank,financial
12.9347536,77.5556142,2.661049371341494,State Bank of India,financial
12.9381111,77.5565458,2.31675850458935,Bank of Baroda,financial
12.9369041,77.5577545,2.480586581489515,Vinayaka Vidya Samsthe,education
12.9633735,77.5898343,4.208093058421089,Hotel Vintage Residency,lodging
12.991344,77.5382423,3.9370232088006496,Bombay Dyeing,clothes
12.9444702,77.5847747,3.9361221236301773,Horticulture Training Center,education
12.9458279,77.585024,3.9047654192882453,,attraction
12.9480567,77.5879713,4.129526654585694,Pigeon Hole,attraction
12.9510578,77.5829803,3.5216554327828846,,place of worship
12.9765112,77.5799146,3.697666368336521,Bharat Petroleum,fuel
12.9829727,77.5713648,3.4954438355840733,Diamond Petrol / Gas Station,fuel
12.9152651,77.5592492,4.863573329026671,Total Auto Gas,fuel
12.9873459,77.5723926,3.951698367335012,Vijees Auto Gas,fuel
12.9924448,77.5757103,4.622302869209198,,financial
12.9893245,77.5740161,4.232922987705584,Sri Rama Temple,place of worship
12.9931607,77.5394749,4.082031648120357,Shree Vinayaka Juice & Chat Center,food service
12.9736839,77.5304612,2.8356304432430584,New Priya Bar & Restaurant,bar/club
12.9740763,77.5306568,2.8453954355472066,Shiva Temple,place of worship
12.9751503,77.5309191,2.8986728253884357,Liberty Footwear,shoes
12.9719476,77.5320111,2.585817859604874,Divashree General Stores,grocery
12.9720271,77.5283808,2.9183266701966737,HDFC Bank,financial
12.9751013,77.5311252,2.8781183051003736,Pinewood High School,education
12.9753608,77.5313481,2.878679966372033,ASC Study Center,education
12.9761551,77.5305492,3.0019982921821478,ASC Degree College,education
12.9754931,77.5324927,2.7965249570012953,Cordial High School,education
12.9744507,77.5335676,2.6322922998123164,Kiran Traders,grocery
12.968556,77.5380801,1.833668338968773,Union Bank of India,financial
12.970877,77.5364976,2.130459469667607,New L M Silks,clothes
12.9710286,77.536798,2.1171926175335867,Saviruchi Fast Food,food service
12.9709921,77.5368677,2.108860436550261,Royal's Coffe House,cafe
12.9685194,77.5382142,1.8197581448867937,Dhanalakshmi Bank ATM,financial
12.9606776,77.5286519,2.4733614165291833,Goli Vada Paav,food service
12.9607284,77.5284077,2.500274421068957,Ammi's Biryani,food service
12.9606617,77.5271701,2.6329092549220006,Karnataka Bank,financial
12.9599952,77.5293195,2.394349923824105,ICICI Bank,financial
12.9602967,77.5302803,2.293530976365399,Polar Bear,cafe
12.9683779,77.5380113,1.8273341839137318,Blak,shoes
12.9684412,77.5373058,1.8925523915057825,Liberty Exclusive Showroom,shoes
12.9669405,77.5470005,1.067970699625236,Total Gas,fuel
12.9673086,77.5461504,1.147161998242498,Indian Oil,fuel
12.9639929,77.5511866,0.6309187475929986,Kodandaswami Temple,place of worship
12.9641353,77.5513024,0.6465286748025422,Anjaneya Swami Temple,place of worship
12.9728225,77.537934,2.1709388108761947,Panchavati,food service
12.9727546,77.5378992,2.167870119217453,Canara Bank,financial
12.9728818,77.5400131,2.0322609275276053,Imperial Plaza,food service
12.9728604,77.5392872,2.078894368853567,Alemane Cane Juice,cafe
12.9727493,77.5389814,2.09038837687167,Gokul Veg,food service
12.9900378,77.537746,3.8223333982588286,Zee Institute of Creative Arts,education
12.989651,77.5377152,3.783987797777918,Fresh and ground,cafe
12.9917578,77.5386852,3.9631020052227783,Prestige Smart Kitchen,home furnishing
12.9933829,77.5389467,4.1237807008735095,The Planet Fashion,clothes
12.9932739,77.5388099,4.117191553683505,The Raymond Shop,clothes
12.9922983,77.5384739,4.02741227461398,World of Titan,watches
12.9919077,77.5384055,3.989296514763256,Wrangler Jeans,clothes
12.9919338,77.5384148,3.991659654724178,Lee Jeans,clothes
12.991155,77.5383908,3.9116253232574443,IndusInd Bank,financial
12.9932236,77.5391579,4.099607774162961,Kalasangam,clothes
12.9931034,77.5391257,4.088086276921807,Master Kitchen,home furnishing
12.9927023,77.5386456,4.063243491788477,Datta Garments,clothes
12.9920018,77.5387341,3.986746673828206,Punjab Handlooms,clothes
12.9884317,77.5377873,3.6564037689143007,KSIC Silks,clothes
12.9850131,77.5369987,3.3506387018308454,Mega Mart,clothes
12.970694,77.5254335,3.127057286882579,Dear N Near Furniture Store,home furnishing
12.9705894,77.5259136,3.0752475816223037,Kurlon Matress Express,home furnishing
12.9702784,77.5246208,3.1868210768170466,Omkar Refill Station,fuel
12.9704143,77.5249373,3.1620808459593195,Shri Guru Upahara,food service
12.9708639,77.5265708,3.0255361673773677,Shaneshwara Temple,place of worship
12.9708325,77.5267854,3.003300440776281,HDFC Bank,financial
12.9787644,77.5750024,3.4259340415577535,Rajadhani Pub,bar/club
12.9787148,77.5743399,3.3688473922390485,Skipper Bar & REstaurant,bar/club
12.9787017,77.5742352,3.3594833172767737,Gandharva Upahāra,food service
12.9786599,77.5740904,3.344773005334415,Rajath Lodge,lodging
12.9786625,77.5739751,3.3357747742264228,Durga Bar & Restaurant,bar/club
12.9772171,77.5766278,3.452295996468243,Sajjan Lodge,lodging
12.9829933,77.5593852,2.8783277971596126,FBB,clothes
12.9801967,77.5543695,2.4543866086702892,The Raymond Shop,clothes
12.9738507,77.5461726,1.8156049233750198,Cafe Coffee Day,cafe
12.9737304,77.543367,1.9193312004081327,Hotel Savaji's,food service
12.9729829,77.5372409,2.234902981770376,Polar Bear,food service
12.9606895,77.5287669,2.461111376890458,Beijing Bites,food service
12.9607235,77.5285201,2.488106271520342,Inky Pinky,clothes
12.9610189,77.5268678,2.669677774468788,Chang Bar & Restaurant,bar/club
12.9611548,77.5274043,2.6136955677372224,Feet Fashion,shoes
12.9609248,77.5273694,2.6144956054754376,Sri Chamundi Jewellers,jewellery
12.9608934,77.527289,2.622771653680039,Chandra Gymkhana Institute,education
12.9602661,77.5294025,2.3879214185805053,Sri Bhagyalakshmi Jewellers,jewellery
12.964903,77.5302716,2.3983066616054693,Adalia Boutique,clothes
12.9682121,77.5303413,2.528111472567687,Behtar Super Market,grocery
12.9985477,77.5510414,4.473117445897597,New Prashanth Hotel,food service
12.9937001,77.571322,4.49000031599446,The Basil,lodging
12.9797671,77.5858092,4.43062842017169,CMS,education
12.9855811,77.5556847,3.067376978281637,Crane Crush,cafe
12.9846268,77.5558117,2.964774600084542,State Bank of India,financial
12.9655171,77.5949458,4.791577960558508,Woody's,food service
12.967569,77.5896565,4.276592943589205,Sri Vari Veg,food service
12.9797725,77.5747917,3.484634212271517,Sandhya Lodge,lodging
12.9669946,77.591066,4.410598883576432,Government School,education
12.966493,77.5905481,4.343849236056138,Anjaneya Temple,place of worship
12.9324534,77.5486407,2.8912842365048816,Shri Chamundeshwari Temple,place of worship
12.9307552,77.5475178,3.0931688622990983,State Bank of India,financial
12.9770921,77.5795669,3.702209530138993,Hotel Grand Inn,lodging
12.924471,77.5523785,3.765614756496918,Standard Chartered Bank,financial
12.9233245,77.5533301,3.8973664313401244,Kamakya Theatre,cinema
12.927382,77.5764857,4.388210307298992,Dosa Corner,food service
12.9318708,77.5837602,4.581217526617449,Bhavani Kangan Stores,jewellery
12.9306281,77.5857408,4.834604461158154,W,clothes
12.9302771,77.5831394,4.646866045596021,New Shanthi Sagar,food service
12.9306647,77.584134,4.699009851682011,Goli Vada Pav,food service
12.9327614,77.5849863,4.62232080626099,PC Jeweler,jewellery
12.9378451,77.5852156,4.318994770822791,Cafe Coffee Day,cafe
12.9409838,77.5850433,4.12909046825972,Cuppa,cafe
12.9667567,77.5892239,4.210072487014565,ವೀರಶೈವರ - ಉಪಹಾರ ಮಂದಿರ,food service
12.9902879,77.5645516,3.8316555156676584,Government Public Library,education
12.9915519,77.5639515,3.939376436701512,Muneshwaraswamy Temple,place of worship
12.9960866,77.5543901,4.212246612546354,Raghavendra Swamy Mutt,place of worship
12.9331275,77.5345817,3.3390475876928356,PES Boys Hostel,lodging
12.9573933,77.582077,3.331463474594605,Dena Bank,financial
12.9659396,77.5949764,4.8029066666663915,Ramanna's Fast Food,food service
12.9677684,77.593373,4.673438100307922,,food service
12.968017,77.592013,4.536447315012448,State Bank of India,financial
12.9580924,77.5341659,1.862113924349606,Gandharva Sip & Dine;ICICI Bank,financial
12.9578735,77.5342317,1.8554784248406728,State Bank of India,financial
12.9649244,77.5387391,1.55114591351638,By-two Coffee,cafe
12.961299,77.5265056,2.712306189714192,Village Super Market,grocery
12.9684322,77.5381624,1.8181398101133892,Sankalpa Montessori,education
12.96021,77.5347682,1.8089007533346124,Public Library,education
12.9571801,77.5316497,2.1383748512533693,IndusInd Bank,financial
12.9606854,77.5286993,2.4683461794215957,Akshaya Super Market,grocery
12.9576285,77.5339363,1.888393285120592,Syndicate Bank,financial
12.9297035,77.5859202,4.915536118994625,South Indian Bank,financial
12.93021,77.5850977,4.811160149009745,South Indian Bank,financial
12.916348,77.5591356,4.742882055619841,Prasanna Ganapati Temple,place of worship
12.9656807,77.5897827,4.244450065448265,,place of worship
12.9568376,77.5287513,2.4542399084971964,Arun Icecream,cafe
12.965202,77.5380586,1.6307304071360493,Holy Saint High School,education
12.9700741,77.5361839,2.099548480728037,Udaya School,education
12.9266584,77.5199911,4.893177826303343,Monish Corner,food service
12.932532,77.5161545,4.771701118424048,Total Gaz,fuel
12.9587743,77.5824778,3.3736647721017685,Bharat Petroleum,fuel
12.9540038,77.5801262,3.155225742568856,Karnataka Bank,financial
12.9606096,77.5835432,3.497993807577207,State Bank of India,financial
12.9579091,77.5823797,3.3629758577264006,State Bank of India,financial
12.9503526,77.579806,3.208585053067816,Syndicate Bank,financial
12.9651176,77.5897462,4.228936772286137,ICICI Bank,financial
12.9659456,77.5924964,4.53875537887553,Chamundeshwari Coffee,cafe
12.9658588,77.5924927,4.536569145729253,Chamundeshwari,clothes
12.9659423,77.5925731,4.546852311794665,Axis Bank,financial
12.962382,77.5939054,4.633639346454554,Darshini,food service
12.9658715,77.5943909,4.739122177855222,Sri Rama Mandira,place of worship
12.9387638,77.5511668,2.174761483149718,KKN coaching classes,education
12.9296028,77.5628234,3.426918175258648,Wine Baron,bar/club
12.9278968,77.5622171,3.5822069665746232,SBI ATM,financial
12.9272865,77.5615907,3.625006406022026,IDBI Bank,financial
12.9416718,77.5605078,2.1006197910075723,Shiva's Chats,food service
12.9368412,77.5837992,4.251051310959441,Malabar Gold,jewellery
12.9394185,77.5839616,4.112000158842984,Goli Vada Pav,food service
12.9394558,77.5839638,4.1100864383421545,Karnataka Bhel House,food service
12.9241055,77.5671349,4.171551086818275,Kwality'S Ice Cream Parlour,food service
12.9240481,77.5673878,4.188672007880645,Indian Bank,financial
12.9896328,77.5751613,4.333606590946381,Hanuman Temple,place of worship
12.98415,77.5781517,4.084590842716916,Hotel Sanman,food service
12.9656457,77.5905077,4.320829711360655,Happy Belly,cafe
12.9955091,77.5546879,4.150919969010784,City Central Library,education
12.921883,77.5675933,4.417674799527871,BNM Institute of Technology,education
12.9669535,77.5869415,3.9745742490904754,Bharatiya Mahila Bank,financial
12.9673021,77.5871125,4.002051474388669,Punjab National Bank,financial
12.9672272,77.5871401,4.0028796679560426,Punjab National Bank,financial
12.9731115,77.5701532,2.6185836190959177,Signature Inn,lodging
12.9765959,77.5706263,2.9142742751570867,D'Lish,food service
12.9749583,77.5703152,2.7652176188195576,Federal Bank,financial
12.9729868,77.5700133,2.5980790093950503,Adhishakthi,food service
12.9263463,77.5647627,3.8411488354383176,Jalsa,food service
12.9891614,77.5722338,4.108712770583529,Swathi,food service
12.9897351,77.5720458,4.1510621028497905,State Bank of India,financial
12.9896751,77.5720525,4.145842458194582,Ganesh Veg,food service
12.9460609,77.5949139,4.9139157457935,Lakshmi Venkateshwara Temple,place of worship
12.9460933,77.5950233,4.9243104254348715,Aegis Autogas,fuel
12.9626153,77.5762859,2.744156294298217,Koti Sri Anjaneya Temple,place of worship
12.9894264,77.5544249,3.4747801929046296,Vinutha Jewellers,jewellery
12.962822,77.5764714,2.7680151780119084,Hotel Annakuteera vegetarian,food service
12.9852058,77.5564437,3.04000094150622,Axis Bank,financial
12.9899339,77.5526805,3.5181456669757307,New Sagar Fast Food & Party Hall,food service
12.9874289,77.5541838,3.2511900041154127,State Bank of India,financial
12.9893934,77.5736314,4.215149253894248,Sri Sai Mens PG Hostel,lodging
12.962368,77.575774,2.684804882320022,Koti Dhanvanthri Ganesha Temple,place of worship
12.9365182,77.583828,4.273905844094521,V V Silks and Sarees,clothes
12.999115,77.5695329,4.945540296255197,Kanchipuram Varamahalakshmi silks,clothes
12.9416428,77.5842724,4.021080821254883,Sagar Vajra,jewellery
12.940504,77.5840047,4.055699027456192,Arnav,jewellery
12.9387218,77.584117,4.166480785422606,Community English Higher Primary School,education
12.937957,77.5840951,4.209590745755292,Sri Kodanda Rama Swamy Sannidhi,place of worship
12.9392065,77.5827357,4.010839399107686,Canara Bank,financial
12.9388406,77.5832721,4.081699210196235,Kidzee,education
12.9381478,77.5828269,4.082706741778452,BOI (Bank of India),financial
12.9284692,77.5839834,4.850382467869125,Karnataka Bank,financial
12.9300273,77.5842892,4.758305053209542,Canara Bank,financial
12.967159,77.5891728,4.2148763216996095,Punjab National Bank,financial
12.9672714,77.5892653,4.227548051769185,,clothes
12.9902802,77.5568905,3.6040740159922287,Himalai IAS coaching center,education
12.9893195,77.5567369,3.49596966666455,Bethesda AG Church,place of worship
12.9898332,77.5561709,3.5427367228710125,Cafe Coffee Day,cafe
12.9897505,77.5560235,3.531315172699837,Spiders Software Testing Training Institute,education
12.9893375,77.5561073,3.4872041249657135,Just Books Lending Library,education
12.9894943,77.5560074,3.502872261834178,Khadi Gramodyog Bhavan,clothes
12.9894159,77.556053,3.4949631265393,Raikar Jewellery Works,jewellery
12.9894133,77.5560959,3.495358233901738,Toddler's Den,clothes
12.9895753,77.5545027,3.492076142750494,Lidkar Leather Emporium,shoes
12.9894068,77.5545323,3.4737473405734063,Gurukrupa Bhavan,residential
12.9895463,77.5547376,3.4914524628575823,Veta English Language Center,education
12.9895692,77.5551044,3.4983855976560077,Sri Sai Ganesh PG Accommodation for Ladies,residential
12.9890068,77.5559058,3.4476454697493932,Bhairav Jewellers,jewellery
12.9890694,77.5558999,3.454443296896551,Syndicate Bank,financial
12.9893394,77.5559942,3.4856220368521385,Sri Raghavendra Condiments,grocery
12.989092,77.5559747,3.45809621656146,Kailash Fashion Jewellery,jewellery
12.9891135,77.5559765,3.460489928691159,A. Cyber Joint - Browsing Center,cafe
12.9890644,77.5559708,3.4549983982056256,Sri Charan stores,grocery
12.9890052,77.5559614,3.448337547885921,Sri Manjunath Stores,grocery
12.9890226,77.5559646,3.4503021647622942,Pradhan Jewellers,jewellery
12.9889846,77.555961,3.446064858189049,Mamatha Jewels,jewellery
12.9889803,77.5559601,3.445577632256731,Gyan Exports,clothes
12.9454151,77.5709801,2.5661980397389623,Ice Thunder,food service
12.9916712,77.5712761,4.291212272769617,Citibank,financial
12.9629426,77.5875693,3.958484088381931,,cafe
12.9878361,77.574957,4.1611512825893415,Sri Krishna Devasthana,place of worship
12.9877862,77.5744684,4.124405491069967,Kashi Vishwanatha Temple,place of worship
12.9862102,77.5741379,3.9642143741116445,Bhavani Tiffin Center,food service
12.9526217,77.5773377,2.8867498572732004,Maiyas Store,grocery
12.9522009,77.5773216,2.8956882234621184,ICICI Bank,financial
12.9510455,77.5770158,2.8967178689153417,Vasavi Temple,place of worship
12.9701247,77.5866611,4.045353517902031,St. Martha's Canteen,food service
12.9680068,77.5918733,4.52147423012447,Shiva Bakery and Juice,food service
12.9920489,77.5706285,4.292974838170717,INOX Malleshwaram - Mantri Square,cinema
12.9921796,77.5705158,4.299764744465356,Swenson's,food service
12.9660508,77.5864152,3.8958950774503083,State Bank of Patialia MID Corporate Branch,financial
12.9913252,77.5713263,4.260770235407479,,financial
12.9313955,77.5179594,4.696406700683465,Twillight Tandoor Resto,food service
12.9878989,77.5366101,3.6561218738204913,Sri Ganesh Gold and Diamonds,jewellery
12.9886459,77.5375264,3.6896106849035126,McDonald's,food service
12.9366381,77.5752413,3.537971825378968,Reliance Fresh,grocery
12.9775007,77.5883584,4.542182974849502,Syndicate Bank,financial
12.9775686,77.5880097,4.512432608134934,Sri Ramanjaneyaswamy Temple,place of worship
12.9782832,77.5879912,4.548902878943636,State Bank of India,financial
12.997771,77.571072,4.879542575820884,Adyar Ananda Bhavan,food service
12.9365363,77.5167879,4.460340224864952,Sri Krishna Nandagokula Veg,food service
12.9735894,77.5783998,3.3874591907636002,Shanti Sagar,food service
12.9875847,77.573008,4.012053877838536,,place of worship
12.9876025,77.5736105,4.052180573504432,Sri Manjunatha Condiments,cafe
12.9650562,77.5897367,4.226709370460876,Canara Bank,financial
12.9666245,77.5919645,4.497029498672912,Karnataka Bank,financial
12.9659821,77.5926315,4.553895321888762,Canara Bank,financial
12.9369895,77.5810697,4.000006476377836,PSR Silks,clothes
12.9372349,77.581058,3.982859726513194,Nandini Silks,clothes
12.9364297,77.5816412,4.086811623245007,Vijaya High School,education
12.9364469,77.5814468,4.068765173578889,Vijaya Composite Pre-university College,education
12.9368947,77.5819858,4.086506229653916,Josco Jewellers,jewellery
12.935048,77.5743056,3.58975337405856,State ATM,financial
12.9351238,77.5741634,3.5730011246935587,State Bank of India,financial
12.9354545,77.5739623,3.531386650285081,Karnataka Bank,financial
12.9745339,77.5309153,2.855225819788541,Chaitanya Uphara,food service
12.9760478,77.5319661,2.8803344760559244,Star Bazar,grocery
12.9760251,77.5330067,2.797401675436274,Five Star Chicken,food service
12.9757481,77.5373265,2.46243829408021,By Two Coffe,food service
12.9737917,77.5433178,1.927819220227272,Hot Coffe,food service
12.9738598,77.5439044,1.9068331917224792,Co Optex,clothes
12.9647167,77.5965668,4.95129552620636,Nikhaar,jewellery
12.9647402,77.5963093,4.924061191278818,Pratibha,jewellery
12.9651732,77.5956922,4.865210344708139,Entice,jewellery
12.9653277,77.5956147,4.85963928042671,OTS Officetech Systems Pvt Ltd,home furnishing
12.9759239,77.5749981,3.224670559285346,R. P. Kamat's,food service
12.9766765,77.5777178,3.511466656181164,Sukh Sagar,food service
12.9671346,77.5450815,1.192300164115556,Mary Matha Church,place of worship
12.9647608,77.5324347,2.1710000112321843,Canara Bank,financial
12.9645889,77.5307793,2.3353168402038214,ICICI Bank,financial
12.9647458,77.5311092,2.3065652184298315,State Bank of India,financial
12.9942736,77.5715823,4.559471428883073,Al Bek,food service
12.993765,77.5393225,4.151009818521155,S Cadambi Pre University College,education
12.991837,77.5376289,4.012348015841301,Domino's,food service
12.9852789,77.5434809,3.116435320295408,Sri Krishna Sagar,food service
12.9867587,77.5349053,3.629529890404151,,place of worship
12.9902696,77.5358713,3.92845542921518,Nagara Kendra Granthalaya (City Central Library),education
12.9919453,77.5372687,4.038118968795263,Canara Bank,financial
12.9916895,77.5375425,4.000610052649155,Central Bank of India,financial
12.9936274,77.5390358,4.146376693650745,Levi Jeans,clothes
12.9934693,77.538962,4.1323259232369525,Manyavar,clothes
12.9928087,77.5390197,4.06086239356184,People,clothes
12.9866737,77.5408083,3.3531554461525825,Bansuri,food service
12.9884235,77.5352159,3.7761969575537684,Mahadeshwara Chats,food service
12.9902817,77.5378602,3.8426469601117215,Priyadarshini Grand,food service
12.9985096,77.5700901,4.9085400483224895,State Bank of India,financial
12.9644353,77.5495402,0.7075370789607983,,financial
12.9640262,77.5507761,0.6374011709930585,,financial
12.9607245,77.5464821,0.5911689886973178,,place of worship
12.9618838,77.5509669,0.39830420969490765,Masjid e Mecca,place of worship
12.9631344,77.5497399,0.5628778596120283,Masjid e Rahmaniya,place of worship
12.9628516,77.550719,0.5083630699374933,Masjid e Riyazul Jinna,place of worship
12.9609798,77.5499693,0.3312542255363074,Masjid e Alquba,place of worship
12.9606146,77.5565401,0.6177004170802469,Masjid e Khabristan,place of worship
12.9606907,77.5455229,0.6840391732893797,Masjid e Amiri Kalimi,place of worship
12.9635168,77.5580738,0.930006229167396,Masjid e Jamia,place of worship
12.9630364,77.5439374,0.9590702901382631,santosh talkies,cinema
12.9574368,77.5418657,1.0322604162506401,Masjid e Hira,place of worship
12.9625119,77.5486586,0.5496381317724256,Khawja Hotel,food service
12.9626268,77.5485405,0.5672710656194647,Masjid e Towheed,place of worship
12.9569629,77.5491868,0.27869539503523877,Shell,fuel
12.9572135,77.5429632,0.9169467920051425,shobha talkies,cinema
12.962289,77.5537495,0.5122210410619897,,place of worship
12.9580745,77.5341292,1.8661187371054104,ICICI Bank,financial
12.9925122,77.53131,4.378202547959339,SnoozOtel,lodging
12.9591631,77.5557142,0.48227724404563405,Indian Oil,fuel
12.9602862,77.5570381,0.6541371349680836,Bharat Petroleum,fuel
12.9597748,77.5548192,0.40938067217631585,Mysore Road Eidgha,place of worship
12.9609947,77.5508936,0.3013462625169633,Old Gudahalli,transportation
12.9600503,77.5539163,0.33824292847798276,,place of worship
12.9635067,77.5487362,0.6423399346364367,ladies dress dulhan ,clothes
12.9608368,77.5485824,0.4099790083403564,Bismillah Tea Hotel,cafe
12.965813,77.5622167,1.4425697521284717,Cinepolis ETA Mall,cinema
12.9644277,77.5553928,0.8081783798569226,,financial
12.964346,77.557164,0.9197660016066487,Peter Paul Church,place of worship
12.9608675,77.5495476,0.3438709752788738,,financial
12.9643372,77.5558948,0.830799736934977,,place of worship
12.962222,77.5505208,0.44293189778596154,,cafe
12.9615054,77.5504015,0.3686427818991397,Bismillah Tea Hotel,cafe
12.9641082,77.5504793,0.6503496278764876,Khalil Tea Hotel,cafe
12.9632318,77.5500256,0.5645429215792831,Bombay tea hotel,cafe
12.9644882,77.5534307,0.7219227888005346,rathan Lal,jewellery
12.9613262,77.5820185,3.340256121805242,,place of worship
12.9551248,77.566492,1.6790762949789888,,financial
12.961869,77.5471629,0.6011118639450479,Sujatha Talkies,cinema
12.9624777,77.5786534,2.9947240089940435,,place of worship
12.9615699,77.5804526,3.1744358428681014,Government School,education
12.9661241,77.5521383,0.8718668468344294,Bismillah Tea Hotel,cafe
12.9638664,77.5510308,0.6175683260439239,Bismillah Tea Hotel,cafe
12.9644446,77.5552913,0.803858198634002,,financial
12.9664471,77.5945707,4.770002382236221,State Bank ATM,financial
12.9576049,77.5247105,2.887659089554594,Hot Soup & Bowl,food service
12.9767958,77.536167,2.6317774035095476,Babasa House Vijaynagar,lodging
12.9476142,77.5797544,3.300452407913864,Meera Delicacy,food service
12.9772383,77.5752995,3.340723437939083,Karnataka Bank,financial
12.9773643,77.5747535,3.303932274249632,Kotak Mahindra Bank,financial
12.9665259,77.5670902,1.934464225708926,Godwin English School,education
12.9288993,77.5818811,4.65310691708151,Mane Holige Kuruk thindi,food service
12.9663581,77.5845939,3.7117315895435294,,place of worship
12.9668651,77.5849748,3.7656285191356567,,place of worship
12.9660921,77.5845202,3.6969577296094354,,place of worship
12.9679842,77.578539,3.1362199649594653,Karu Pakula Jewellers,jewellery
12.9681084,77.5786114,3.148338142535386,Shoba Jewellers,jewellery
12.967911,77.5786751,3.147312750451695,Sri Kalki Jewellers,jewellery
12.9680476,77.5787462,3.159728655582181,Vajra Mahal,jewellery
12.9680202,77.5787717,3.161284535971908,State Bank of India,financial
12.9357351,77.5867892,4.588906480287549,Banad place,lodging
12.9928196,77.5306777,4.442064975733397,,financial
12.9887296,77.5319585,3.980859709741776,Skanda,clothes
12.9868514,77.5327927,3.7559159585955535,Mamta Provision store,grocery
12.9357187,77.5345513,3.10320468744016,Campus Mart,grocery
12.9342254,77.5344569,3.2449133490525734,,financial
12.9355646,77.5345308,3.118396710402855,Nescafe,cafe
12.9333545,77.5350149,3.2924244050368636,PES South Indian Mess,lodging
12.9392188,77.5600997,2.3261789970863265,Prasad Icecream Parlour,cafe
12.9378029,77.5755637,3.4772946160736127,ICICI Bank,financial
12.940402,77.5766481,3.389223574173762,Federal Bank,financial
12.9404668,77.5757675,3.3081740752411495,IDBI Bank,financial
12.9378558,77.5755369,3.4712441832460126,ICICI Bank,financial
12.9370786,77.5752292,3.5038052744186037,Presto,food service
12.9288555,77.5818153,4.651468478101286,Holige Mane,food service
12.9385338,77.5774383,3.5825628015242703,Ajji's House,lodging
12.9740049,77.5794628,3.5103327960550508,CSB Bank,financial
12.9740685,77.5792924,3.4978547704743503,Bank of Baroda,financial
12.9540891,77.5918797,4.4172854882381625,Swathi Deluxe,food service
12.9540285,77.5912583,4.35107171941953,Take a Break,food service
12.9229279,77.5699054,4.419595802574332,Repco,financial
13.0004913,77.5417024,4.804181312551851,Home,lodging
12.9641301,77.570664,2.1904878314440137,Vardhaman Paradise,lodging
12.9532485,77.5873773,3.9447901000868577,Dargah Hazrat Atulla Shah,place of worship
12.949108,77.580558,3.326967510283081,RV Public School,education
12.9453567,77.5710944,2.580098579042316,Seema Art Jewellery,jewellery
12.954324,77.5850242,3.67622317994223,Anand Bhavan,food service
12.9450336,77.5715059,2.6371606615342236,BN Sreekantiah And Sons,grocery
12.9450199,77.5714286,2.631082393777078,Priyanka Silks,clothes
12.9453667,77.5709983,2.570845096464831,Timepass Dinner,food service
12.945197,77.5712783,2.6065511550762066,Choice Footwear,shoes
12.9434782,77.5817744,3.687182211316772,Siddharda Ashrama,place of worship
12.9434737,77.5829251,3.7993169572272256,,place of worship
12.9221578,77.576215,4.840657115741976,Madhura Bhavan,food service
12.9232169,77.5766524,4.770367205256339,Syndicate Bank,financial
12.930974,77.5799552,4.342518935369175,Sri Nimishamba Temple,place of worship
12.9508899,77.5803792,3.2526374599773535,,place of worship
12.9437347,77.5799634,3.499476487101359,,financial
12.9472769,77.5799705,3.3359303472977446,Bank of Baroda,financial
12.9382297,77.5802736,3.849223514194871,South Point,bar/club
12.9550185,77.5811729,3.2527066252791905,Temple,place of worship
12.947717,77.5798294,3.3039366102178236,,financial
12.9729745,77.5808399,3.587122734837153,Corporation Bank,financial
12.9973946,77.5485023,4.3557050074282575,Reliance Fresh,grocery
12.9989255,77.5489709,4.522345982964672,Appu's Kitchen,food service
12.9992777,77.5495785,4.558201741446247,Sarayu Fine Dine,food service
13.0016723,77.5506179,4.821083130726428,Akshaya Mini Bazaar,grocery
12.9974503,77.5496185,4.355003766041474,Bata,shoes
12.9939186,77.5513274,3.9582620490573723,Simply Organics,grocery
12.9875682,77.5504525,3.253577377396627,Blitz Zone,cafe
12.9269593,77.5454463,3.545442300437711,Apartment,lodging
12.9674392,77.5823999,3.514223426265044,,jewellery
12.969833,77.5775083,3.110333712429433,CCD,cafe
12.9371526,77.5728792,3.314301944118814,Presto,food service
12.9435256,77.5655166,2.2503301365246955,Halli Thindi,food service
12.9462613,77.5703662,2.4587634273419012,Baisakhi Vegetarian Restaurant,food service
12.9446256,77.569918,2.523607183180485,Szechuan Dragon Chinese Restaurant,food service
12.9326403,77.5656287,3.2479555597199097,Koli Mane,food service
12.9739174,77.5702629,2.6848347534072006,Mainland China,food service
12.9971223,77.5731217,4.917412410446375,Hotel Vaishali,food service
12.9972964,77.5718337,4.86922212865285,New Fishland,food service
12.9862573,77.5403259,3.3280594729111885,Cave n Dine,food service
12.9682261,77.5375793,1.8545033868308507,Nisarga restaurant,food service
12.9604112,77.529879,2.338051430815697,Koli Mane,food service
12.9919067,77.5705078,4.272798888532766,Allen Solly,clothes
12.9917884,77.5702636,4.248478317836146,Baboosh,clothes
12.9916897,77.5711243,4.284740387349269,Cocopelee,clothes
12.9914885,77.5711733,4.268051682487735,AND,clothes
12.9915734,77.5705023,4.240153457508225,Nike,clothes
12.9914832,77.5710526,4.260974075713329,Columbia,clothes
12.9188109,77.5687298,4.780122499461137,Sea Spice,food service
12.9918688,77.5705197,4.269743241366394,Fila,clothes
12.9271751,77.561435,3.6316863638719905,The Platter,food service
12.9916949,77.5710365,4.280491699449839,Celio,clothes
12.9256357,77.5646389,3.909438974946052,Swadesh Tadka,food service
12.9269753,77.5643645,3.7601014442563256,Rasoi Restaurant,food service
12.9918152,77.570602,4.2688883119890475,Cotton world,clothes
12.9235989,77.5550354,3.8815536537531656,Mantra Multicuisine Restaurant,food service
12.960753,77.575626,2.644657025942113,Srinidhi Sagar,food service
12.9247336,77.565329,4.030377463637174,Ayda Restaurant,food service
12.9418834,77.5707551,2.7863307635720087,Nisarga Garden Restaurant,food service
12.9402569,77.5533988,2.0209008364997567,Hotel New Karavali,food service
12.9406714,77.5703714,2.8462810580012605,Puliyogare Point,food service
12.9243553,77.5648981,4.052234094462162,Vinny's,food service
12.9394749,77.5776672,3.53921797104684,Cafe Mondo,food service
12.9222433,77.5618332,4.169480531892498,Vi Ra's Bar and Restaurant,food service
12.9473154,77.5690141,2.272096810444849,Hotel New Atithya,food service
12.9446421,77.5719424,2.7007496114752048,New Prashanth Hotel,food service
12.9916983,77.5711798,4.288578619621506,Enamor,clothes
12.9483651,77.5685364,2.166756119526422,SLV Corner,food service
12.9379147,77.5748672,3.412413618283629,Thindi Katte,food service
12.947549,77.5739319,2.7246886633742027,Cool corner,food service
12.9914701,77.5706442,4.237706056557386,Fabindia,clothes
12.9387861,77.5799087,3.7812103779053623,New Shanthi Sagar,food service
12.9470578,77.5714933,2.5167758744670485,Maha Lakshmi Tiffin Room,food service
12.9448665,77.5715764,2.6539227486595354,Ice Thunder,food service
12.937747,77.5758056,3.5011781747142363,Imperial Plaza,food service
12.9916022,77.570586,4.247389933361687,Favourite Shop,clothes
12.947133,77.5694107,2.3192405385742227,Cafe Coffee Day,cafe
12.9471057,77.5716965,2.53327292378049,Thanco's Natural Ice Cream,food service
12.9917024,77.5703066,4.24235881056448,Puma,clothes
12.9920289,77.5712576,4.324629584838708,Fazals,clothes
12.9431647,77.5415743,1.9905113067349063,The Biryani Cafe,food service
12.9240662,77.5642334,4.056858344365452,Smacznego,food service
12.9914706,77.5707615,4.244039757060148,Fusion Beats,clothes
12.9918207,77.5705006,4.264063716522728,Proline,clothes
12.9915868,77.5703571,4.233776353043837,Rebook,clothes
12.9268231,77.548292,3.518043684768774,Chicken Hunt,food service
12.9306311,77.5535559,3.088267787325195,Karavali Lunch Home,food service
12.9257484,77.5642118,3.880926580274949,Tandoori Knight,food service
12.991691,77.5707302,4.263670277018096,Spar,grocery
12.9391651,77.5637852,2.520625582046585,Rolls Corner,food service
12.9916575,77.5703119,4.238269691780059,Bata,shoes
12.9329124,77.5684358,3.37807688866577,Sea Rock,food service
12.991754,77.5711303,4.291257925205182,Oval bar,food service
12.9385441,77.5699295,2.9817152385287082,Harshi Super Sandwich,food service
12.9365742,77.5739529,3.442096666760137,Vybhava,food service
12.9916587,77.5707137,4.259664027922937,Hush Puppies,shoes
12.937044,77.5753259,3.5141415382988974,The Other Crescent,food service
12.9916423,77.5707645,4.260792440163071,inc.5,shoes
12.9373404,77.579911,3.875999481772825,Hotel Sanman,food service
12.9363723,77.5682018,3.0483054282821462,Amandé Patisserie,food service
12.9488056,77.5743239,2.7052561639938393,Bakery World,food service
12.9834865,77.5515572,2.798356359540182,East West Academy,education
12.9881757,77.5413711,3.4912812376681313,Sri Vani Education Centre,education
12.9915703,77.5703356,4.2310402136012195,Mochi,shoes
12.9916252,77.5702927,4.234119860849128,Rocia,shoes
12.9916252,77.5702927,4.234119860849128,Rocia,shoes
12.9915977,77.5703852,4.236317046501267,Metro,shoes
12.9918159,77.570522,4.264726617250198,Soles,shoes
12.9915402,77.5712596,4.277728783495323,Woodland,shoes
12.9908258,77.5578843,3.68308986165824,Navarang Kabab Corner,food service
12.9266174,77.5646489,3.8085784806322307,Roving Feast,food service
12.9845159,77.5478044,2.937933221484733,Kolkata Biryani And Rolls,food service
12.9234527,77.5697585,4.360404657927518,Pure and Natural,food service
12.9303018,77.5666608,3.529959108932427,New Prashanth Hotel,food service
12.9992496,77.549677,4.55464309479204,Dwinks Gastropub,food service
12.9903931,77.5584441,3.6481859932970644,Kudla beach,food service
12.9349664,77.5469781,2.6397544276222673,Bengaluru Coffee House,food service
12.9758048,77.5526524,1.949227753126185,Mayura andra style restaurant,food service
12.9864094,77.5405663,3.33463555502067,Cave N Dine,food service
12.9278495,77.5462411,3.4331932497527613,Mandara Bar and Restaurant,food service
12.9967355,77.5543173,4.283583822036295,Sagar caterers and hotel,food service
12.9891546,77.5500014,3.4316336585947527,Shree Nandana Palace,food service
12.9216335,77.5702729,4.565985952149953,K27 - The Pub,bar/club
12.9780294,77.5426878,2.3839428614525073,Swathi Green Land,food service
12.9285834,77.5457702,3.361481508766684,Ayodhya Upachar,food service
12.9728679,77.5391454,2.0892339582385167,Park View,food service
12.9643262,77.5404059,1.3608265820956778,Sai Prasadam,food service
12.9606425,77.5300492,2.3224168879576386,Koli Mane,food service
12.925663,77.5644456,3.898942457464362,Rolls on Wheels,food service
12.9279866,77.5519145,3.3736005461177263,Janahaar,food service
12.9698886,77.5327543,2.3904152650357315,Classic inn veg and non veg,food service
12.9416198,77.5573584,1.9679952753899972,New Sri Banashankari Donne Biriyani Corner,food service
12.9731233,77.5403966,2.029138224237154,Sagar Restaurant,food service
12.9245511,77.5655512,4.058260973530656,Ammi's Biryani,food service
12.9415734,77.5578002,1.9891834763863168,Coffee Bytes,food service
12.9677845,77.535901,1.9771681972906197,Pizza Hut,food service
12.9256305,77.5649466,3.9223824308772914,Hari Super Sandwich,cafe
12.9673836,77.5357039,1.9721375152618863,Big Bite,food service
12.9698125,77.5366838,2.0390761586536863,Café Udupi Ruchi,food service
12.9673983,77.5239973,3.1309421428189164,Coastal heritage,food service
12.969586,77.5346634,2.1995058667388863,Rotti Mane,food service
12.9787404,77.5405545,2.5540639414609627,The square plate,food service
12.9528642,77.5289366,2.5032824602295527,Donne biryani house,food service
12.9757428,77.5335935,2.7302288993205965,Spoorthy dosa point,food service
12.9464613,77.57609,2.9879226637138836,Goli Vada Pav,food service
12.9917126,77.5708843,4.274006020127975,State Bank of India,financial
12.961017,77.5281275,2.534059353791139,KFC,food service
12.9966939,77.5687228,4.6637241933802605,Hotel Moon Light,food service
12.9918756,77.5701543,4.251284501310091,Rajhadhani Thali Restaurant,food service
12.9987069,77.5699054,4.92030879944375,Iyer Mess,food service
12.9916087,77.5704303,4.239766485633436,GINI Jony,clothes
12.9916688,77.5708192,4.266283004023956,GlobalDesi,clothes
12.9915773,77.5706234,4.246969301780776,Go fashion,clothes
12.9917237,77.5707817,4.26958437788533,Identity,clothes
12.9916584,77.5708621,4.267579182324696,Jashn,clothes
12.991478,77.5708273,4.248292197686576,Jockey,clothes
12.9915068,77.5708648,4.253090571501436,Kalanjali,clothes
12.9914885,77.5710096,4.259151599764646,Kushals,jewellery
12.9917812,77.5705456,4.262604768308222,Lakshitha,clothes
12.9917603,77.5705724,4.261995035453885,Laven,clothes
12.9916281,77.570791,4.260838505613028,Levi's,clothes
12.9912093,77.5712013,4.24279187055948,Lifestyle,clothes
12.9917551,77.5705993,4.262916126473961,Louis Philippe,clothes
12.9914937,77.5709372,4.2557341250380505,MaDAME,clothes
12.9916322,77.5708648,4.265193949090755,Manyavar,clothes
12.991742,77.5706315,4.2633547499765685,Marks Spencer,clothes
12.9917237,77.5704196,4.250370718316245,Methiyadi stop,shoes
12.9914911,77.5711143,4.265087597263073,MINC,clothes
12.9170843,77.5596138,4.671996838733886,Udupi Ruchis,food service
12.9982337,77.570518,4.900100144719322,Antarastriya,food service
12.94167,77.5564774,1.933147380013091,Matru Sagar,food service
12.9917002,77.5704464,4.249500889220041,Reliance trends,clothes
12.9334596,77.5463009,2.818065966730907,Halli Dhaba,food service
12.9152705,77.5609497,4.898790373715833,Sri Banashankari Nati Style,food service
12.9447368,77.5537072,1.5319824270729938,Rao's Biryani Center,food service
13.0007571,77.563817,4.908270168996721,Sri Raghavendra Store,food service
12.9985408,77.5695317,4.886993170402536,Satvik Grand,food service
12.9917263,77.5706556,4.263114030061138,Mom & Me,clothes
12.9918779,77.5704357,4.266207329213561,Mufti,clothes
12.9961953,77.5715924,4.748442024039708,A1 Biryani Restaurant,food service
12.9916348,77.5709185,4.2683328161108,Neeru's,clothes
12.9917339,77.5706166,4.2617785225296805,UP south,food service
12.9915048,77.5704974,4.233243254148817,Sbarro,food service
12.944786,77.5717922,2.6782907793704513,,food service
12.9447626,77.5717734,2.6780698389649626,U.D Roti Ghar &Cake ghar,food service
12.9446144,77.5729301,2.7915260094711667,Soho Bar & Grill,food service
12.9444068,77.5709394,2.6269775547943173,Gokul Veg,food service
12.9985137,77.5523235,4.470462198470803,Hotel Nalapaka,food service
12.9378405,77.574857,3.4170815785554396,Presto,food service
12.9396288,77.5667866,2.6681576370209035,Kamath Bugle Rock,food service
12.9415832,77.5770807,3.3525956571954505,The Rogue Elephant,food service
12.9266045,77.5459463,3.5749825401652613,Kairali,food service
12.9458476,77.5710517,2.5461185081954523,Udupi Sri Krishna Bhavan,food service
12.9403117,77.5798319,3.6793811700915975,Kabab Magic,food service
12.9377243,77.5794545,3.8108010974399513,Leanin Tree Art Cafe,food service
12.9543124,77.5786901,2.9962105819068547,New Modern Hotel,food service
12.9444313,77.5729353,2.8031648974915275,Adyar Anand Bhavan,food service
12.9444107,77.5721169,2.7308880195065854,Grand Village,food service
12.9401607,77.5643716,2.463638047027153,Szechuan Dragon Chinese Restaurant,food service
12.9376671,77.5676462,2.897206186789179,Hotel Dwarka,food service
12.9440883,77.5725864,2.7931244036064706,Pramukh Family Restaurant - Prassidhi Enterprises,food service
12.9450065,77.5714721,2.6358190393267846,Vidyarthi Bhavan,food service
12.9375122,77.5759985,3.534068575769827,Gandharva Family Restaurant,food service
12.9898003,77.5500343,3.503221884689548,Shree Nandini Palace,food service
12.9328003,77.5688005,3.410267927589456,Koli Mane,food service
12.938888,77.5755794,3.4006577141566234,South Thindies,food service
12.9449984,77.5723552,2.716017811251168,Kollapuri's Non Veg,food service
12.9445488,77.57272,2.7764959894015524,Adyar Ananda Bhavan,food service
12.9878305,77.5558493,3.3173431063526717,Ambika Veg Restaurant,food service
12.9914927,77.570894,4.253304965910712,Prapti,clothes
12.9918978,77.5705614,4.274759447630401,Pepe Jeans,clothes
12.9914326,77.5709262,4.249251776878962,PEORA,clothes
12.9916416,77.5709799,4.272297721209832,Spring Summer,clothes
12.9914404,77.571012,4.254651465619388,Pantalons,clothes
12.9914378,77.5708377,4.244974043614682,Rubans,jewellery
12.9914091,77.570968,4.249252081906717,Splash Fashion,clothes
12.9816064,77.5346671,3.1577217337557824,Traffic Police Station,education
12.9879713,77.5402233,3.510419567481124,Traffic Police Station Kamakshipalya,education
12.9919004,77.5706473,4.279552382605575,Satya Paul,clothes
12.991443,77.571173,4.263664335928372,Spykar,clothes
12.9306322,77.5841581,4.703349926249819,BN Sreekantaiah and Sons,grocery
12.9916486,77.5711196,4.28052864110381,show off,clothes
12.9917995,77.5707731,4.276459711005774,Soch,clothes
12.9914127,77.570647,4.232305601882138,U.S. Polo Assn.,clothes
12.9914676,77.5707087,4.240917077290182,United Colour of Benetton,clothes
12.9919093,77.5705987,4.27784559691702,V.Dot van heusen,clothes
12.991559,77.5705585,4.241742293766244,Valentine,clothes
12.9914519,77.5711003,4.260556590051422,Vastrra,clothes
12.9914393,77.5708015,4.243168799326967,Voylla,jewellery
12.991729,77.5703768,4.2486331432945175,Vijayalakshmi,clothes
12.9916854,77.5707845,4.266029957553898,Wills Lifestyle,clothes
12.991835,77.5705452,4.267806141629582,Allen Solly,clothes
12.998169,77.5496373,4.434761207817123,Bank of Baroda,financial
12.9233777,77.5700231,4.3809942403115585,Bata,shoes
12.9237659,77.5696566,4.324388792146366,MVJ PU College,education
12.9330476,77.5822333,4.370341595970103,Standard Chartered,financial
12.9330908,77.5814924,4.306030208108067,Empire,food service
12.9261828,77.5643228,3.8402738879617093,Casa Blanca,food service
12.9349175,77.5829015,4.297015979050697,Java City Jayanagar,cafe
12.971335,77.5845467,3.8775319709626515,State Bank of India,financial
12.9853846,77.5444298,3.1012957305056448,Allen Career Institute,education
12.9895041,77.54581,3.518939514919469,Sai Tiffin Centre,food service
12.993015,77.5459803,3.901388266796854,Axis Bank,financial
12.9938105,77.5458656,3.990708128160038,Indian High School,education
12.9977967,77.5474478,4.409786085090134,Onesta,food service
12.9973118,77.5469972,4.36112675596529,Chung's Chinese Corner,food service
12.997569,77.5505796,4.364962124635422,Boots Bazaar,shoes
12.9989871,77.547589,4.540162602761942,Aaramba Preschool,education
12.9417055,77.5560577,1.9167592419884054,Yemkay Supermarket,grocery
12.984947,77.5540532,2.975137377518127,Sweet Chariot,grocery
12.9915431,77.5704437,4.234109298713208,Columbia,clothes
12.9883892,77.5367931,3.6967374910883413,Yemkay Supermarket,grocery
12.9860742,77.5781146,4.235005703756708,Seasons Serviced Apartments And Guest House,lodging
12.9841382,77.5289161,3.761567239400754,R R Provision Store,grocery
12.987183,77.5784519,4.350257867496449,Super duba Raggi Dosa,food service
12.9725982,77.5794076,3.430010690078883,TAP Paradise Hotel,lodging
12.9601779,77.5345169,1.835546046963404,RPC Layout Central Library,education
12.9736279,77.5446202,1.8516094379544683,Reliance Fresh,grocery
12.9740504,77.5500149,1.7549762631829593,Total Gas Station,fuel
12.9777454,77.5451705,2.261243070202116,ICICI Bank,financial
12.982076,77.5313241,3.4183443307070505,State Bank of India,financial
12.9740785,77.5498168,1.7599844468990455,Utsav Veg,food service
12.9811444,77.5350546,3.091568480290751,IDBI Bank,financial
12.9780452,77.5443195,2.3217015306768003,Axis Bank,financial
12.97755,77.5455277,2.229240269560302,South Ruchi veg,food service
12.9703991,77.5463108,1.4497075791799707,State Bank of India,financial
12.9738853,77.5478447,1.771812047353486,ICICI Bank,financial
12.9672966,77.545065,1.2081566964612958,,financial
12.97387,77.5446917,1.8733882208114394,,financial
12.9663276,77.5443481,1.1696166206020884,,financial
12.9978601,77.5495201,4.400996677604195,,financial
12.9981241,77.5495926,4.4299782765363895,,financial
12.9974416,77.550126,4.352016850484795,State Bank of India,financial
12.9889585,77.555959,3.4431619368092505,Priya Tiffin Room,cafe
12.9763229,77.556648,2.082456734995073,Cafeteria,cafe
12.9701394,77.5461865,1.4282182228180034,Canara Bank,financial
12.9641822,77.5424512,1.1637210036792478,Panjab National Bank,financial
12.964348,77.5402052,1.3809925455696639,State Bank of India,financial
12.9727428,77.5391705,2.076753747779891,M K Retail,grocery
12.9569897,77.5325677,2.040508515973485,Vijayalakshmi Provision Store,grocery
12.974033,77.5499209,1.7539169426587788,State Bank of India,financial
12.9705485,77.5462002,1.4696180425558556,Temple,place of worship
12.9537484,77.543639,0.9779803995876604,Adyar Ananda Bhavan,food service
12.9532727,77.5451625,0.8743280918613637,Rosewood International Hotel,lodging
12.9556017,77.5459806,0.6555676932396204,Deco Design,home furnishing
12.9459795,77.5885235,4.255850648306303,Abc Resto,food service
12.9842792,77.5282764,3.81856343226632,,financial
12.9686437,77.589225,4.261832609007066,Sri Dakshinamurthy Temple,place of worship
12.9316906,77.5555034,2.995216487788112,Sankethi's,lodging
12.9487443,77.5668387,1.987904217749001,Sri Ramakrishna Temple,place of worship
12.9701227,77.5794148,3.3123401536383503,Hotel Tap Comfort,lodging
12.9370636,77.5851757,4.361799757310437,Toscano,food service
12.9988676,77.5502861,4.510033905021414,Damro Furniture,home furnishing
12.9730281,77.5692897,2.5404702918154967,UG Regal - Budget Hotel,lodging
12.9735897,77.5767585,3.234803834377107,,lodging
12.9974969,77.5501201,4.358182559975015,Rolls Kitchen,food service
12.9978602,77.5519674,4.397059063651004,Empire Plaza,food service
12.9984348,77.5530658,4.464320452524933,Nisarga Family Resturant,food service
12.9754533,77.5705445,2.820611627505395,Cauvery hostel,lodging
12.9752846,77.5701518,2.7766018058874873,Nandi,lodging
12.9754483,77.5699255,2.771134989517901,STC Canteen,food service
12.9771479,77.5700436,2.9131423149199835,Punjab National Bank,financial
12.9773797,77.5698067,2.914039946606265,State Bank of India,financial
12.9772143,77.5700433,2.9184299028690535,Indian Bank,financial
12.9762316,77.5704278,2.870646214591543,Chamundy Hostel,lodging
12.9973268,77.5478423,4.353841205442788,Burger King,food service
12.9973971,77.5480936,4.359341188873859,Liberty Exclusive Showroom,shoes
12.9966984,77.5613324,4.402353508566494,Al-Bek,food service
12.9982685,77.5476352,4.46013162958593,Kangaroo Kids Preschool,education
12.9981587,77.5465007,4.46077179255009,Janatha Co-Operative Bank,financial
13.0017936,77.5488666,4.841394894825925,Udupi Veg,food service
13.0022575,77.5521631,4.886302427779428,Goli Vada Pav,food service
13.0017261,77.5508671,4.826697416188853,Punjab National Bank,financial
13.0023588,77.5528147,4.8993459585300165,,food service
12.9236826,77.5734024,4.532902660696951,Aaradhya Food Line,food service
12.9805787,77.571467,3.2981532054386133,Sheetal Residency,lodging
12.97916,77.5757304,3.5141920602997154,Sri Ganesha Lodge,lodging
12.9299855,77.5411817,3.337848235582886,North Karnataka Joladda Roti,food service
12.9582106,77.5348921,1.7832888028306966,,financial
12.9584059,77.5356011,1.7064423478394715,State Bank of India,financial
12.9582945,77.5351343,1.757003099708458,,financial
12.9962755,77.5733477,4.847006556644576,HDFC Bank,financial
12.9162291,77.5405845,4.823589901438429,Ganesha Mural,place of worship
12.9709244,77.5436834,1.6290598858062402,Axis Bank,financial
12.9773102,77.5427732,2.306900524923637,ICICI Bank,financial
12.9733363,77.5799372,3.5191670623685525,Allahabad Bank,financial
12.9427251,77.5712748,2.7695305142678324,Allahabad Bank,financial
12.9456273,77.5952951,4.967105637309467,Hotel Empark,lodging
12.9647338,77.5313573,2.2806003489632976,Modicare DP Vijayanagar,grocery
12.9708787,77.5435028,1.634781480610715,Bramhashree Condiments,cafe
12.984291,77.5543158,2.90556849961028,Canara Coffee,lodging
12.9314007,77.5577461,3.072655548213379,ಶ್ರೀ ಕೃಷ್ಣ ಪಿ ಯು ಕಾಲೇಜು,education
12.9798988,77.5759082,3.583177921642099,Suntruppati,lodging
12.9473628,77.5668805,2.0779251028633534,Axis Bank,financial
12.9459968,77.5670655,2.186072290172564,Balaji Chat Corner,food service
12.9391683,77.5715609,3.055059225176866,Anand Sagar,lodging
12.9466546,77.567626,2.189605565587012,IndusInd Bank,financial
12.9472484,77.5669962,2.0955429023765237,Growing Wonders Gavipuram,education
12.9714983,77.5372344,2.1180049414782562,Papa John's,food service
12.9455741,77.5384918,1.9874739910992658,Sri Gururaghavendra traders,grocery
12.9777748,77.574757,3.333657848677692,Mayur Comfor Lodge,lodging
12.9767392,77.5707435,2.9344887145532694,Karnataka Bank,financial
12.978436,77.5753365,3.4291753426189775,Royal Regency Lodge,lodging
12.9776892,77.5747972,3.330811603341084,Pushpamala lodge,lodging
12.9435344,77.5654837,2.247183054547506,Kotak Mahindra Bank,financial
12.9782866,77.5753838,3.42226260196595,Royal Lodge,lodging
12.9777193,77.5748871,3.3404089133845782,Manjusri Paradise Lodge,lodging
12.9293898,77.5519618,3.2177007131769964,Adyar Ananda Bhavan,food service
12.9761326,77.577703,3.4753464683904163,Adyar Ananda Bhavan,food service
12.9742651,77.5753347,3.14623176072066,Adyar Ananda Bhavan,food service
12.9459315,77.5385939,1.9514775029897795,Sri Vaibhava Ganapathi,place of worship
12.9434017,77.5771336,3.2496224573392807,Bharat Petroleum,fuel
12.9469705,77.5944165,4.834761189618442,Biryani palace,food service
12.9454272,77.5950799,4.951150179459925,Hotel Dreams inn,lodging
12.9453765,77.59506,4.950722723965047,AR Tea Sagar,cafe
12.945523,77.5952075,4.961319979249678,AFC,food service
12.9453021,77.5952136,4.969055605449962,Silsila,clothes
12.9439985,77.5946425,4.95457217989449,A1 biryani,food service
12.9549893,77.5915906,4.37652156926414,,financial
12.956397,77.5921935,4.431300582005802,Ambur Dum Biryani,food service
12.957338,77.5925388,4.464880573170632,Sri Srinivas Silk House,clothes
12.9594205,77.5937772,4.599345073157235,Sea Pearl,food service
12.9455298,77.5952158,4.961964773442665,Juice World,food service
12.9593325,77.5932644,4.5435445009022875,Furniture Forum,home furnishing
12.9455189,77.5951301,4.9534165208747245,Dreams inn,lodging
12.949295,77.5931079,4.635248558734978,AMM Residency,lodging
12.9588237,77.5936181,4.580826022761812,Cambridge School,education
12.9454861,77.595168,4.958399323154741,Alfa fried and Grill,food service
12.9580965,77.593251,4.54078032864628,Rahhams,food service
12.9578168,77.593057,4.52003957169524,Bank of Baroda,financial
12.9584406,77.593372,4.553839838340482,Union Bank of India,financial
12.9584582,77.5934393,4.561138607233723,Samsung smartcafe,cafe
12.9593625,77.5937351,4.594618076242911,Parijatha,food service
12.9604187,77.5941492,4.64388295436908,Axis Bank,financial
12.9598633,77.593474,4.568080338975442,Tiffany's,food service
12.9580518,77.5928392,4.496187794402927,HDFC Bank,financial
12.9453166,77.5950506,4.9516896190763555,Alfa,food service
12.9451588,77.5949507,4.946501482003023,M Shoe centre,shoes
12.9440624,77.5945215,4.939871854650545,Diamond collection,clothes
12.9549365,77.5915735,4.375176778651268,Bacardi,food service
12.946968,77.5942273,4.815045227349143,Limra Hotel,food service
12.94512,77.5949263,4.945255067810015,Fashion Zone,clothes
12.9450051,77.5948204,4.938114392973121,Royal guest house,lodging
12.9431674,77.5945527,4.975895884747583,Fashion planet,clothes
12.9560009,77.5920884,4.422279215909777,Hotel Revoli,food service
12.945194,77.5949693,4.947270320298827,Axis Bank,financial
12.9447719,77.5949585,4.960209793269853,Kolkata,food service
12.9479719,77.5937414,4.735887902872496,Driving school for all types of cars,education
12.9539546,77.5857915,3.76385515421079,,food service
12.9652861,77.5864103,3.8775081662052346,,financial
12.9555428,77.5802105,3.1428375794423613,Axis Bank,financial
12.9648954,77.5866342,3.892895922851988,Shakti silk rose,clothes
12.9470874,77.5941987,4.808587408347909,Supreme,lodging
12.9450345,77.5948487,4.9400611951232705,Star Footwear,shoes
12.9447229,77.5945885,4.923694616244108,Govt. Urdu English Medium High School,education
12.9446296,77.594531,4.920965579301133,Masjid-e-ateeq,place of worship
12.9446031,77.594529,4.921672178366376,Parmeshwar Textiles,clothes
12.9441951,77.5944954,4.9324733347042296,Star Biryani,food service
12.9437241,77.5946512,4.965357439965613,Bright Jewellers,jewellery
12.9409939,77.5928155,4.889300944412682,Dharshan Enterprises,grocery
12.9417742,77.5938148,4.956143762924914,Priya,food service
12.9433373,77.5947264,4.987266473885286,Taj Chicken Kebab,food service
12.9437019,77.5947656,4.977880919657122,HDFC Bank,financial
12.9735918,77.5515142,1.6981195239122373,Big Bazaar,grocery
12.9735982,77.5518495,1.6996039586010632,Domino's,food service
12.9736169,77.5517201,1.7012924568096244,Max,clothes
12.9734683,77.5516804,1.6846761880025178,Burger King,food service
12.9330586,77.5817527,4.329791121418816,Empire restaurant,food service
12.9377734,77.5690046,2.980151335545256,Ambabavani Temple,place of worship
12.97771,77.5722474,3.1267463686997092,Karnataka Bank,financial
12.9977103,77.5483913,4.391582962263982,Aruna Silks,clothes
12.9974316,77.5486505,4.358702512933333,State Bank of India,financial
12.9974264,77.5485995,4.35849974865204,State Bank of India,financial
12.9974748,77.5490415,4.360861983900366,,place of worship
12.9977093,77.5495591,4.384056641524693,New Feet Fashion,shoes
12.9983605,77.5491093,4.45878321182243,Manjunath Gobi Corner,food service
12.9191661,77.5511655,4.3538824219415675,RoyalMart,grocery
